start_time,ntransfers,stop_id,stop_name,stop_lon,stop_lat,duration
12:04:00,0,101,Van Cortlandt Park-242 St,-73.898583,40.889248,3823.867356681824
12:04:00,0,103,238 St,-73.90087,40.884667,3657.867356681824
12:04:00,0,104,231 St,-73.904834,40.878856,3531.6737673282623
12:04:00,0,106,Marble Hill-225 St,-73.909831,40.874561,3421.6737673282623
12:04:00,0,107,215 St,-73.915279,40.869444,3268.4673566818237
12:04:00,0,108,207 St,-73.918822,40.864621,3175.6737673282623
12:04:00,0,109,Dyckman St,-73.925536,40.860531,3054.6737673282623
12:04:00,0,110,191 St,-73.929412,40.855225,2947.6737673282623
12:04:00,0,111,181 St,-73.933596,40.849505,2836.6737673282623
12:04:00,0,112,168 St-Washington Hts,-73.940133,40.840556,2701.6737673282623
12:04:00,0,113,157 St,-73.94489,40.834041,2813.6737673282623
12:04:00,0,114,145 St,-73.95036,40.826551,2751.1769238471984
12:04:00,0,115,137 St-City College,-73.953676,40.822008,2637.176923847199
12:04:00,0,116,125 St,-73.958372,40.815581,2484.5295899391176
12:04:00,0,117,116 St-Columbia University,-73.96411,40.807722,2320.5295899391176
12:04:00,0,118,Cathedral Pkwy (110 St),-73.966847,40.803967,2239.529589939117
12:04:00,0,119,103 St,-73.968379,40.799446,2147.5295899391176
12:04:00,0,120,96 St,-73.972323,40.793919,1777.3
12:04:00,0,121,86 St,-73.976218,40.788644,1897.3
12:04:00,0,122,79 St,-73.979917,40.783934,1986.6999999999998
12:04:00,0,123,72 St,-73.98197,40.778453,2008.0
12:12:00,0,124,66 St-Lincoln Center,-73.982209,40.77344,2137.3979072570805
12:12:00,0,125,59 St-Columbus Circle,-73.981929,40.768247,2251.39790725708
12:12:00,0,126,50 St,-73.983849,40.761728,2361.3979072570805
12:04:00,0,127,Times Sq-42 St,-73.987495,40.75529,2289.0000000000005
12:04:00,0,128,34 St-Penn Station,-73.991057,40.750373,2419.0
12:04:00,0,129,28 St,-73.993365,40.747215,2645.406975746155
12:04:00,0,130,23 St,-73.995657,40.744081,2724.406975746155
12:04:00,0,131,18 St,-73.997871,40.74104,2801.406975746155
12:04:00,0,132,14 St,-74.000201,40.737826,2620.0000000000005
12:04:00,0,133,Christopher St-Sheridan Sq,-74.002906,40.733422,2944.0
12:04:00,0,134,Houston St,-74.005367,40.728251,3048.7375000000006
12:04:00,0,135,Canal St,-74.006277,40.722854,3157.0
12:20:00,0,136,Franklin St,-74.006886,40.719318,3232.0
12:04:00,0,137,Chambers St,-74.009266,40.715478,2953.0
12:20:00,0,138,WTC Cortlandt,-74.012188,40.711835,3326.1538450717926
12:20:00,0,139,Rector St,-74.013783,40.707513,3431.1540986537934
12:20:00,0,142,South Ferry,-74.013664,40.702068,3574.1540986537934
12:01:30,0,201,Wakefield-241 St,-73.85062,40.903125,1772.0
12:24:30,0,204,Nereid Av,-73.854376,40.898379,1494.5
12:24:30,0,205,233 St,-73.857473,40.893193,1336.9
12:24:30,0,206,225 St,-73.860341,40.888022,1236.9
12:01:30,0,207,219 St,-73.862633,40.883895,1151.7
12:24:30,0,208,Gun Hill Rd,-73.866256,40.87785,1036.4
12:01:30,0,209,Burke Av,-73.867164,40.871356,1059.9999999999998
12:01:30,0,210,Allerton Av,-73.867352,40.865462,957.0
12:01:30,0,211,Pelham Pkwy,-73.867615,40.857192,833.0
12:01:30,0,212,Bronx Park East,-73.868457,40.848828,697.0
12:01:30,0,213,E 180 St,-73.873488,40.841894,444.0
12:01:30,0,214,West Farms Sq-E Tremont Av,-73.880049,40.840295,286.0
12:01:30,0,215,174 St,-73.887734,40.837288,146.0
12:44:00,0,216,Freeman St,-73.891865,40.829993,0.0
12:00:00,0,217,Simpson St,-73.893064,40.824073,127.0
12:00:00,0,218,Intervale Av,-73.896736,40.822181,213.0
12:00:00,0,219,Prospect Av,-73.90177,40.819585,313.99999999999994
12:00:00,0,220,Jackson Av,-73.907807,40.81649,431.99999999999994
12:00:00,0,221,3 Av-149 St,-73.917757,40.816109,606.9999999999999
12:00:00,0,222,149 St-Grand Concourse,-73.926718,40.81841,779.0
12:04:00,0,224,135 St,-73.94077,40.814229,1117.0
12:04:00,0,225,125 St,-73.945495,40.807754,1259.0
12:04:00,0,226,116 St,-73.949625,40.802098,1371.0
12:04:00,0,227,Central Park North (110 St),-73.951822,40.799075,1462.0
12:04:00,0,228,Park Place,-74.008811,40.713051,3067.0
12:04:00,0,229,Fulton St,-74.006571,40.709416,3146.1310333728793
12:04:00,0,230,Wall St,-74.0091,40.706821,3233.1310333728798
12:04:00,0,231,Clark St,-73.993086,40.697466,3444.1310333728793
12:04:00,0,232,Borough Hall,-73.989998,40.693219,3576.1310333728798
12:04:00,0,233,Hoyt St,-73.985065,40.690545,3624.0940003395085
12:00:00,0,234,Nevins St,-73.980492,40.688246,3482.2000000000007
12:00:00,0,235,Atlantic Av-Barclays Ctr,-73.977666,40.684359,3573.406975746155
12:00:00,0,236,Bergen St,-73.975098,40.680829,3727.1290070056925
12:00:00,0,237,Grand Army Plaza,-73.971046,40.675235,3841.0940003395076
12:00:00,0,238,Eastern Pkwy-Brooklyn Museum,-73.964375,40.671987,3961.2940003395074
12:00:00,0,239,Franklin Av-Medgar Evers College,-73.958131,40.670682,3901.906975746155
12:00:00,0,241,President St-Medgar Evers College,-73.950683,40.667883,4077.4069757461543
12:00:00,0,242,Sterling St,-73.95085,40.662742,4168.906975746155
12:00:00,0,243,Winthrop St,-73.9502,40.656652,4281.406975746155
12:00:00,0,244,Church Av,-73.949575,40.650843,4377.406975746155
12:00:00,0,245,Beverly Rd,-73.948959,40.645098,4486.906975746155
12:00:00,0,246,Newkirk Av-Little Haiti,-73.948411,40.639967,4564.906975746155
12:00:00,0,247,Flatbush Av-Brooklyn College,-73.947642,40.632836,4702.906975746154
12:00:00,0,248,Nostrand Av,-73.950466,40.669847,4113.8
12:00:00,0,249,Kingston Av,-73.942161,40.669399,4232.6
12:00:00,0,250,Crown Hts-Utica Av,-73.932942,40.668897,4299.0
12:00:00,0,251,Sutter Av-Rutland Rd,-73.92261,40.664717,4469.9
12:00:00,0,252,Saratoga Av,-73.916327,40.661453,4596.200000000001
12:00:00,0,253,Rockaway Av,-73.908946,40.662549,4691.500000000001
12:00:00,0,254,Junius St,-73.902447,40.663515,4726.161039781571
12:00:00,0,255,Pennsylvania Av,-73.894895,40.664635,4838.861039781571
12:00:00,0,256,Van Siclen Av,-73.889395,40.665449,4922.861039781572
12:00:00,0,257,New Lots Av,-73.884079,40.666235,5069.361039781571
12:04:00,0,301,Harlem-148 St,-73.93647,40.82388,1686.2999999999997
12:04:00,0,302,145 St,-73.936245,40.820421,1519.3
12:00:00,1,401,Woodlawn,-73.878751,40.886037,2688.242187499999
12:00:00,1,402,Mosholu Pkwy,-73.884655,40.87975,2512.2421874999995
12:00:00,1,405,Bedford Park Blvd-Lehman College,-73.890064,40.873412,2366.2421874999995
12:00:00,1,406,Kingsbridge Rd,-73.897174,40.86776,2229.2421875
12:00:00,1,407,Fordham Rd,-73.901034,40.862803,2124.2421875
12:00:00,1,408,183 St,-73.903879,40.858407,2018.2421874999998
12:00:00,1,409,Burnside Av,-73.907684,40.853453,1903.2421875
12:00:00,1,410,176 St,-73.911794,40.84848,1795.2421875
12:00:00,1,411,Mt Eden Av,-73.914685,40.844434,1696.2421875
12:00:00,1,412,170 St,-73.917791,40.840075,1602.2421875
12:00:00,1,413,167 St,-73.9214,40.835537,1495.2421875
12:00:00,1,414,161 St-Yankee Stadium,-73.925831,40.827994,1355.3223676681519
12:00:00,0,415,149 St-Grand Concourse,-73.927351,40.818375,1047.3223676681519
12:00:00,0,416,138 St-Grand Concourse,-73.929849,40.813224,1070.7
12:00:00,0,418,Fulton St,-74.009509,40.710368,2803.2000000000003
12:00:00,0,419,Wall St,-74.011862,40.707557,2901.2000000000003
12:00:00,0,420,Bowling Green,-74.014065,40.704817,2999.2000000000003
12:00:00,0,423,Borough Hall,-73.990151,40.692404,3319.2000000000003
13:50:00,0,501,Eastchester-Dyre Av,-73.830834,40.8883,1347.9
12:06:00,0,502,Baychester Av,-73.838591,40.878663,1147.9
12:06:00,0,503,Gun Hill Rd,-73.846384,40.869526,1006.9
12:06:00,0,504,Pelham Pkwy,-73.855359,40.858985,856.9000000000001
12:06:00,0,505,Morris Park,-73.860495,40.854364,760.9000000000001
13:52:00,0,601,Pelham Bay Park,-73.828121,40.852462,3521.4619104385383
13:52:00,0,602,Buhre Av,-73.832569,40.84681,3301.761910438538
13:52:00,0,603,Middletown Rd,-73.836322,40.843863,3219.761910438538
13:52:00,0,604,Westchester Sq-E Tremont Av,-73.842952,40.839892,3031.5428585052496
13:52:00,0,606,Zerega Av,-73.847036,40.836488,2913.542858505249
13:52:00,0,607,Castle Hill Av,-73.851222,40.834255,2831.642858505249
12:40:00,0,608,Parkchester,-73.860816,40.833226,2504.8428585052493
12:40:00,0,609,St Lawrence Av,-73.867618,40.831509,2782.387170696259
12:40:00,0,610,Morrison Av-Soundview,-73.874516,40.829521,2649.3871706962586
12:40:00,0,611,Elder Av,-73.879159,40.828584,2560.3871706962586
12:40:00,0,612,Whitlock Av,-73.886283,40.826525,2423.387170696259
12:40:00,0,613,Hunts Point Av,-73.890549,40.820948,2152.442858505249
12:00:00,0,614,Longwood Av,-73.896435,40.816104,2321.0515535354616
12:00:00,0,615,E 149 St,-73.904098,40.812118,2193.0515535354616
12:00:00,0,616,E 143 St-St Mary's St,-73.907657,40.808719,2103.0515535354616
12:00:00,0,617,Cypress Av,-73.914042,40.805368,1984.0515535354616
12:00:00,0,618,Brook Av,-73.91924,40.807566,1905.0515535354616
12:00:00,0,619,3 Av-138 St,-73.926138,40.810476,1748.4428585052492
12:00:00,0,621,125 St,-73.937594,40.804138,1276.7000000000003
12:00:00,0,622,116 St,-73.941617,40.798629,1621.842858505249
12:00:00,0,623,110 St,-73.94425,40.79502,1718.0428585052493
12:00:00,0,624,103 St,-73.947478,40.7906,1808.0428585052493
12:00:00,0,625,96 St,-73.95107,40.785672,1912.9428585052494
12:00:00,0,626,86 St,-73.955589,40.779492,1649.7000000000003
12:00:00,0,627,77 St,-73.959874,40.77362,2053.8578969955447
12:00:00,0,628,68 St-Hunter College,-73.96387,40.768141,2161.1578969955444
12:00:00,0,629,59 St,-73.967967,40.762526,1871.7000000000003
12:00:00,0,630,51 St,-73.97192,40.757107,2208.5000000000005
12:00:00,0,631,Grand Central-42 St,-73.976848,40.751776,2059.7000000000003
12:00:00,0,632,33 St,-73.982076,40.746081,2376.406975746155
12:00:00,0,633,28 St,-73.984264,40.74307,2454.406975746155
12:00:00,0,634,23 St,-73.986599,40.739864,2534.406975746155
12:00:00,0,635,14 St-Union Sq,-73.989951,40.734673,2341.2000000000007
12:00:00,0,636,Astor Pl,-73.99107,40.730054,2659.657143306733
12:00:00,0,637,Bleecker St,-73.994659,40.725915,2770.657143306733
12:00:00,0,638,Spring St,-73.997141,40.722301,2855.357143306733
12:00:00,0,639,Canal St,-74.000193,40.718803,2849.2000000000003
12:00:00,0,640,Brooklyn Bridge-City Hall,-74.004131,40.713065,2666.2000000000003
12:00:00,2,701,Flushing-Main St,-73.83003,40.7596,3826.6990390505116
12:00:00,2,702,Mets-Willets Point,-73.845625,40.754622,3616.6990390505116
12:00:00,2,705,111 St,-73.855334,40.75173,3738.5561819076543
12:00:00,2,706,103 St-Corona Plaza,-73.8627,40.749865,3649.5561819076543
12:00:00,2,707,Junction Blvd,-73.869527,40.749145,3369.5561819076543
12:00:00,2,708,90 St-Elmhurst Av,-73.876613,40.748408,3471.472513628006
12:56:00,2,709,82 St-Jackson Hts,-73.883697,40.747659,3295.4725136280063
12:08:00,2,710,74 St-Broadway,-73.891394,40.746848,3117.6574484825137
13:12:00,2,711,69 St,-73.896403,40.746325,3264.4540554046634
12:08:00,2,712,61 St-Woodside,-73.902984,40.74563,3098.156181907654
12:08:00,2,713,52 St,-73.912549,40.744149,2934.2561802387245
12:08:00,2,714,46 St-Bliss St,-73.918435,40.743132,2870.256180238724
12:08:00,2,715,40 St-Lowery St,-73.924016,40.743781,2803.256180238724
12:08:00,2,716,33 St-Rawson St,-73.930997,40.744587,2671.256180238724
12:24:00,1,718,Queensboro Plaza,-73.940202,40.750582,2503.156180238724
12:16:00,2,719,Court Sq,-73.945264,40.747023,2633.156180238724
12:24:00,1,720,Hunters Point Av,-73.948916,40.742216,2561.4069757461543
12:24:00,1,721,Vernon Blvd-Jackson Av,-73.953581,40.742626,2496.206975746155
12:00:00,1,723,Grand Central-42 St,-73.976041,40.751431,2241.406975746155
12:00:00,1,724,5 Av,-73.981963,40.753821,2389.406975746155
12:00:00,1,725,Times Sq-42 St,-73.987691,40.755477,2418.406975746155
12:00:00,1,726,34 St-Hudson Yards,-74.00191,40.755882,2578.406975746155
12:00:00,1,901,Grand Central-42 St,-73.979189,40.752769,2181.406975746155
12:00:00,1,902,Times Sq-42 St,-73.986229,40.755983,2298.406975746155
12:08:00,2,A02,Inwood-207 St,-73.919899,40.868072,3177.9846361160276
12:08:00,2,A03,Dyckman St,-73.927271,40.865491,3057.9846361160276
12:08:00,2,A05,190 St,-73.93418,40.859022,2892.9846361160276
12:08:00,2,A06,181 St,-73.937969,40.851695,2767.9846361160276
12:08:00,2,A07,175 St,-73.939704,40.847391,2647.9846361160276
12:08:00,3,A09,168 St,-73.939561,40.840719,2476.184636116028
12:08:00,3,A10,163 St-Amsterdam Av,-73.939892,40.836013,2409.4000837802887
12:08:00,3,A11,155 St,-73.941514,40.830518,2288.9196071624756
12:08:00,2,A12,145 St,-73.944216,40.824783,2109.4000837802887
12:08:00,2,A14,135 St,-73.947649,40.817894,2028.7588537693025
12:08:00,2,A15,125 St,-73.952343,40.811109,2184.2421875
12:08:00,2,A16,116 St,-73.954882,40.805085,2349.4000837802887
12:08:00,2,A17,Cathedral Pkwy (110 St),-73.958161,40.800603,2462.4000837802887
12:08:00,2,A18,103 St,-73.961454,40.796092,2577.4000837802882
12:08:00,2,A19,96 St,-73.964696,40.791642,2694.4000837802887
12:08:00,2,A20,86 St,-73.968916,40.785868,2814.4000837802887
12:08:00,2,A21,81 St-Museum of Natural History,-73.972143,40.781433,2744.460732460022
12:08:00,2,A22,72 St,-73.97641,40.775594,2622.108546924591
12:08:00,2,A24,59 St-Columbus Circle,-73.981736,40.768296,2480.1092476844788
12:40:00,1,A25,50 St,-73.985984,40.762456,2540.406975746155
13:48:00,1,A27,42 St-Port Authority Bus Terminal,-73.989735,40.757308,2418.406975746155
12:20:00,1,A28,34 St-Penn Station,-73.993391,40.752287,2543.4069757461552
12:20:00,1,A30,23 St,-73.998041,40.745906,2663.4069757461552
12:04:00,1,A31,14 St,-74.00169,40.740893,2729.406975746155
12:04:00,1,A32,W 4 St-Wash Sq,-74.000495,40.732338,2900.406975746155
12:20:00,1,A33,Spring St,-74.003739,40.726227,3053.4069757461552
13:04:00,1,A34,Canal St,-74.005229,40.720824,3140.406975746155
13:04:00,1,A36,Chambers St,-74.008585,40.714111,3146.1310333728793
12:08:00,1,A38,Fulton St,-74.007691,40.710197,3026.1310333728793
13:28:00,1,A40,High St,-73.990531,40.699337,3245.9310333728795
13:28:00,1,A41,Jay St-MetroTech,-73.987342,40.692338,3403.9310333728795
13:28:00,1,A42,Hoyt-Schermerhorn Sts,-73.985001,40.688484,3573.9310333728795
12:48:00,1,A43,Lafayette Av,-73.973946,40.686113,3772.2000000000007
12:48:00,1,A44,Clinton-Washington Avs,-73.965838,40.683263,3887.2000000000007
12:48:00,1,A45,Franklin Av,-73.956848,40.68138,4007.2000000000007
13:28:00,1,A46,Nostrand Av,-73.950426,40.680438,3993.1310333728793
12:48:00,1,A47,Kingston-Throop Avs,-73.940858,40.679921,4114.231033372879
13:28:00,1,A48,Utica Av,-73.930729,40.679364,4191.33103337288
12:48:00,1,A49,Ralph Av,-73.920786,40.678822,4314.33103337288
13:12:00,1,A50,Rockaway Av,-73.911946,40.67834,4392.479427051544
13:28:00,1,A51,Broadway Junction,-73.905316,40.678334,4274.479427051544
13:04:00,1,A52,Liberty Av,-73.896548,40.674542,4449.479427051545
13:04:00,1,A53,Van Siclen Av,-73.890358,40.67271,4569.479427051545
13:04:00,1,A54,Shepherd Av,-73.88075,40.67413,4689.479427051545
13:28:00,1,A55,Euclid Av,-73.872106,40.675377,4694.479427051544
13:28:00,1,A57,Grant Av,-73.86505,40.677044,4859.479427051544
13:28:00,1,A59,80 St,-73.858992,40.679371,4981.479427051544
13:28:00,1,A60,88 St,-73.85147,40.679843,5102.479427051544
13:28:00,1,A61,Rockaway Blvd,-73.843853,40.680429,5222.479427051544
13:28:00,1,A63,104 St,-73.837683,40.681711,5342.479427051544
13:28:00,1,A64,111 St,-73.832163,40.684331,5462.479427051544
13:28:00,1,A65,Ozone Park-Lefferts Blvd,-73.825798,40.685951,5594.479427051544
12:40:00,1,B04,21 St-Queensbridge,-73.942836,40.754203,2498.808697891236
12:40:00,1,B06,Roosevelt Island,-73.95326,40.759145,2393.1925898551945
12:16:00,1,B08,Lexington Av/63 St,-73.966113,40.764629,2231.7000000000003
13:28:00,1,B10,57 St,-73.97745,40.763972,2396.7000000000003
12:16:00,1,B12,9 Av,-73.994324,40.646292,4710.392053413391
12:16:00,1,B13,Fort Hamilton Pkwy,-73.994304,40.640914,4830.392053413391
12:16:00,1,B14,50 St,-73.994791,40.63626,4942.392053413391
12:16:00,1,B15,55 St,-73.995476,40.631435,5069.392053413391
12:16:00,1,B16,62 St,-73.996895,40.626472,5174.392053413391
12:16:00,1,B17,71 St,-73.998864,40.619589,5294.392053413391
12:16:00,1,B18,79 St,-74.00061,40.613501,5417.39205341339
12:16:00,1,B19,18 Av,-74.001736,40.607954,5532.392053413391
12:16:00,1,B20,20 Av,-73.998168,40.604556,5647.392053413391
12:16:00,1,B21,Bay Pkwy,-73.993728,40.601875,5757.392053413391
13:36:00,1,B22,25 Av,-73.986829,40.597704,5915.392053413391
13:36:00,1,B23,Bay 50 St,-73.983765,40.588841,6048.93103337288
12:16:00,2,D01,Norwood-205 St,-73.878855,40.874811,2768.1816581726075
12:16:00,2,D03,Bedford Park Blvd,-73.887138,40.873244,2554.981658172608
12:16:00,2,D04,Kingsbridge Rd,-73.893509,40.866978,2414.9816581726077
12:16:00,2,D05,Fordham Rd,-73.897749,40.861296,2294.9816581726077
12:16:00,2,D06,182-183 Sts,-73.900741,40.856093,2220.1816581726075
12:16:00,2,D07,Tremont Av,-73.905227,40.85041,2103.1816581726075
12:16:00,2,D08,174-175 Sts,-73.910136,40.8459,1983.1816581726075
12:16:00,2,D09,170 St,-73.9134,40.839306,1861.7816581726074
12:16:00,2,D10,167 St,-73.91844,40.833771,1738.7816581726074
13:44:00,2,D11,161 St-Yankee Stadium,-73.925651,40.827905,1589.2421875
12:08:00,2,D12,155 St,-73.938209,40.830135,1756.2421874999998
12:08:00,2,D13,145 St,-73.944216,40.824783,1884.2421874999998
12:40:00,1,D14,7 Av,-73.981637,40.762862,2602.409247684479
12:56:00,1,D15,47-50 Sts-Rockefeller Ctr,-73.981329,40.758663,2486.7000000000003
12:56:00,1,D16,42 St-Bryant Pk,-73.984569,40.754222,2576.7000000000003
12:56:00,1,D17,34 St-Herald Sq,-73.987823,40.749719,2666.7000000000003
12:56:00,1,D18,23 St,-73.992821,40.742878,2786.7000000000003
12:56:00,1,D19,14 St,-73.996209,40.738228,2891.7000000000003
13:28:00,1,D20,W 4 St-Wash Sq,-74.000495,40.732338,2949.406975746155
13:28:00,1,D21,Broadway-Lafayette St,-73.996204,40.725297,2982.8857156753547
12:08:00,1,D22,Grand St,-73.993753,40.718267,3152.885715675355
12:32:00,1,D24,Atlantic Av-Barclays Ctr,-73.97689,40.68446,3800.668879032135
12:32:00,1,D25,7 Av,-73.972367,40.67705,3973.6688790321355
12:32:00,1,D26,Prospect Park,-73.962246,40.661614,4221.668879032136
12:32:00,1,D27,Parkside Av,-73.961495,40.655292,4341.668879032136
12:32:00,1,D28,Church Av,-73.962982,40.650527,4448.929007005692
12:32:00,1,D29,Beverley Rd,-73.964492,40.644031,4597.619484615327
12:32:00,1,D30,Cortelyou Rd,-73.963891,40.640927,4712.619484615327
12:32:00,1,D31,Newkirk Plaza,-73.962793,40.635082,4668.929007005692
12:32:00,1,D32,Avenue H,-73.961639,40.62927,4823.249007892609
12:32:00,1,D33,Avenue J,-73.960803,40.625039,4944.249007892609
12:32:00,1,D34,Avenue M,-73.959399,40.617618,5072.249007892609
12:32:00,1,D35,Kings Hwy,-73.957734,40.60867,5012.429007005693
12:32:00,1,D37,Avenue U,-73.955929,40.5993,5257.4393190860765
12:32:00,1,D38,Neck Rd,-73.955161,40.595246,5412.639319086076
12:32:00,1,D39,Sheepshead Bay,-73.954155,40.586896,5352.169008779527
12:32:00,1,D40,Brighton Beach,-73.961376,40.577621,5532.169008779527
12:32:00,1,D41,Ocean Pkwy,-73.968501,40.576312,5712.269008779526
12:32:00,1,D42,W 8 St-NY Aquarium,-73.975939,40.576127,5572.33103337288
12:32:00,1,D43,Coney Island-Stillwell Av,-73.981233,40.577422,5706.83103337288
12:52:00,1,E01,World Trade Center,-74.009781,40.712582,3295.292683362961
12:40:00,1,F01,Jamaica-179 St,-73.783817,40.712646,4076.7000000000003
12:40:00,1,F02,169 St,-73.793604,40.71047,3986.7000000000003
12:40:00,1,F03,Parsons Blvd,-73.803326,40.707564,3866.7000000000003
12:40:00,1,F04,Sutphin Blvd,-73.810708,40.70546,3776.7000000000003
12:40:00,1,F05,Briarwood,-73.820574,40.709179,3656.7000000000003
12:56:00,1,F06,Kew Gardens-Union Tpke,-73.831008,40.714441,3536.7000000000003
12:40:00,1,F07,75 Av,-73.837324,40.718331,3446.7000000000003
12:56:00,1,F09,Court Sq-23 St,-73.946,40.747846,2639.4090909090914
12:40:00,1,F11,Lexington Av/53 St,-73.969055,40.757552,2437.4473676681523
12:40:00,1,F12,5 Av/53 St,-73.975224,40.760167,2546.3787878787884
12:32:00,1,F14,2 Av,-73.989938,40.723402,3107.885715675355
12:32:00,1,F15,Delancey St-Essex St,-73.988114,40.718611,3243.157143306733
12:32:00,1,F16,East Broadway,-73.990173,40.713715,3333.157143306733
13:12:00,1,F18,York St,-73.986751,40.701397,3513.157143306733
13:28:00,1,F20,Bergen St,-73.990862,40.686145,3721.5872821807866
13:28:00,1,F21,Carroll St,-73.995048,40.680303,3859.116217851639
13:28:00,1,F22,Smith-9 Sts,-73.995959,40.67358,4044.116217851639
13:28:00,1,F23,4 Av-9 St,-73.989779,40.670272,4132.096172332765
13:28:00,1,F24,7 Av,-73.980305,40.666271,3958.93103337288
13:28:00,1,F25,15 St-Prospect Park,-73.979493,40.660365,4132.096172332765
13:28:00,1,F26,Fort Hamilton Pkwy,-73.975776,40.650782,4372.096172332765
13:28:00,1,F27,Church Av,-73.979678,40.644041,4198.93103337288
13:28:00,1,F29,Ditmas Av,-73.978172,40.636119,4318.93103337288
13:28:00,1,F30,18 Av,-73.976971,40.629755,4438.93103337288
13:28:00,1,F31,Avenue I,-73.976127,40.625322,4498.93103337288
13:28:00,1,F32,Bay Pkwy,-73.975264,40.620769,4558.93103337288
13:28:00,1,F33,Avenue N,-73.974197,40.61514,4678.93103337288
13:28:00,1,F34,Avenue P,-73.973022,40.608944,4768.93103337288
13:28:00,1,F35,Kings Hwy,-73.972361,40.603217,5053.93103337288
13:52:00,1,F36,Avenue U,-73.973357,40.596063,5174.83103337288
13:52:00,1,F38,Avenue X,-73.97425,40.58962,5294.83103337288
12:32:00,1,F39,Neptune Av,-73.974574,40.581011,5447.3310333728805
12:56:00,1,G05,Jamaica Center-Parsons/Archer,-73.801109,40.702147,4244.700000000001
12:56:00,1,G06,Sutphin Blvd-Archer Av-JFK Airport,-73.807969,40.700486,4114.700000000001
12:56:00,1,G07,Jamaica-Van Wyck,-73.816859,40.702566,3938.7000000000007
12:56:00,1,G08,Forest Hills-71 Av,-73.844521,40.721691,3326.7000000000003
12:56:00,1,G09,67 Av,-73.852719,40.726523,3506.7000000000003
12:56:00,1,G10,63 Dr-Rego Park,-73.861604,40.729846,3566.7000000000003
12:56:00,1,G11,Woodhaven Blvd,-73.869229,40.733106,3476.7000000000003
12:56:00,1,G12,Grand Av-Newtown,-73.877223,40.737015,3356.7000000000003
12:56:00,1,G13,Elmhurst Av,-73.882017,40.742454,3266.7000000000003
12:56:00,1,G14,Jackson Hts-Roosevelt Av,-73.891338,40.746644,2906.7000000000003
12:48:00,1,G15,65 St,-73.898453,40.749669,3236.7000000000003
12:24:00,1,G16,Northern Blvd,-73.906006,40.752885,3193.8090909090915
12:24:00,1,G18,46 St,-73.913333,40.756312,3081.609089803696
12:24:00,1,G19,Steinway St,-73.92074,40.756879,2961.609089803696
12:24:00,1,G20,36 St,-73.928781,40.752039,2831.609089803696
12:24:00,1,G21,Queens Plaza,-73.937243,40.748973,2696.8089244842536
13:28:00,2,G22,Court Sq,-73.943832,40.746554,2693.156180238724
13:28:00,2,G24,21 St,-73.949724,40.744065,2813.156180238724
13:28:00,2,G26,Greenpoint Av,-73.954449,40.731352,2988.156180238724
13:28:00,2,G28,Nassau Av,-73.951277,40.724635,3113.156180238724
13:28:00,2,G29,Metropolitan Av,-73.951418,40.712792,3254.2753239631656
13:28:00,2,G30,Broadway,-73.950308,40.706092,3416.156180238724
12:00:00,2,G31,Flushing Av,-73.950234,40.700377,3536.156180238724
12:00:00,2,G32,Myrtle-Willoughby Avs,-73.949046,40.694568,3653.1561802387246
12:08:00,1,G33,Bedford-Nostrand Avs,-73.953522,40.689627,3773.1561802387246
12:08:00,1,G34,Classon Av,-73.96007,40.688873,3888.1561802387246
12:08:00,1,G35,Clinton-Washington Avs,-73.966839,40.688089,4001.156180238725
12:08:00,1,G36,Fulton St,-73.975375,40.687119,3930.5223371505735
12:08:00,1,H01,Aqueduct Racetrack,-73.834058,40.668234,5464.479427051544
12:32:00,1,H02,Aqueduct-N Conduit Av,-73.834058,40.668234,5526.300169801712
12:32:00,1,H03,Howard Beach-JFK Airport,-73.830301,40.660476,5702.300169801712
12:32:00,1,H04,Broad Channel,-73.815925,40.608382,6255.379427051545
12:32:00,1,H06,Beach 67 St,-73.796924,40.590927,6696.979427051544
12:32:00,1,H07,Beach 60 St,-73.788522,40.592374,6826.979427051545
12:32:00,1,H08,Beach 44 St,-73.776013,40.592943,6953.979427051544
12:32:00,1,H09,Beach 36 St,-73.768175,40.595398,7076.979427051544
12:32:00,1,H10,Beach 25 St,-73.761353,40.600066,7196.979427051544
12:32:00,1,H11,Far Rockaway-Mott Av,-73.755405,40.603995,7316.979427051544
12:32:00,1,H12,Beach 90 St,-73.813641,40.588034,6602.179427051544
12:32:00,1,H13,Beach 98 St,-73.820558,40.585307,6725.179427051544
12:32:00,1,H14,Beach 105 St,-73.827559,40.583209,6840.179427051545
12:32:00,1,H15,Rockaway Park-Beach 116 St,-73.835592,40.580903,6963.179427051544
12:56:00,1,J12,121 St,-73.828294,40.700492,4552.500000000001
12:56:00,1,J13,111 St,-73.836345,40.697418,4664.700000000001
12:56:00,1,J14,104 St,-73.84433,40.695178,4779.300000000001
12:56:00,1,J15,Woodhaven Blvd,-73.851576,40.693879,4874.700000000001
12:56:00,1,J16,85 St-Forest Pkwy,-73.86001,40.692435,5191.2
12:56:00,1,J17,75 St-Elderts Ln,-73.867139,40.691324,4811.2
12:56:00,1,J19,Cypress Hills,-73.87255,40.689941,5056.033332538605
12:08:00,2,J20,Crescent St,-73.873785,40.683194,4661.2
12:08:00,2,J21,Norwood Av,-73.880039,40.68141,4571.2
12:08:00,2,J22,Cleveland St,-73.884639,40.679947,4642.355215024948
12:08:00,2,J23,Van Siclen Av,-73.891688,40.678024,4421.2
12:48:00,2,J24,Alabama Av,-73.898654,40.676992,4361.2
13:04:00,1,J27,Broadway Junction,-73.904512,40.679498,4261.16103978157
13:04:00,1,J28,Chauncey St,-73.910456,40.682893,4211.2
13:04:00,1,J29,Halsey St,-73.916559,40.68637,4262.641174507142
13:04:00,1,J30,Gates Av,-73.92227,40.68963,4061.2
13:04:00,1,J31,Kosciuszko St,-73.928814,40.693342,4072.641174507141
12:16:00,1,L01,8 Av,-74.002578,40.739777,2789.406975746155
12:16:00,1,L02,6 Av,-73.996786,40.737335,2673.161039781571
12:16:00,1,L03,14 St-Union Sq,-73.99073,40.734789,2555.161039781571
12:24:00,1,L05,3 Av,-73.986122,40.732849,2647.061039781571
12:24:00,1,L06,1 Av,-73.981628,40.730953,2700.061039781571
12:24:00,1,L08,Bedford Av,-73.956872,40.717304,2926.061039781571
12:24:00,1,L10,Lorimer St,-73.950275,40.714063,3041.061039781571
12:24:00,1,L11,Graham Av,-73.944053,40.714565,3102.061039781571
12:24:00,1,L12,Grand St,-73.94067,40.711926,3199.061039781571
12:24:00,1,L13,Montrose Av,-73.93985,40.707739,3260.061039781571
12:24:00,1,L14,Morgan Av,-73.933147,40.706152,3346.0610397815703
12:24:00,1,L15,Jefferson St,-73.922913,40.706607,3442.061039781571
12:24:00,1,L16,DeKalb Av,-73.918425,40.703811,3521.061039781571
12:24:00,1,L17,Myrtle-Wyckoff Avs,-73.911586,40.699814,3617.061039781571
12:24:00,1,L19,Halsey St,-73.904084,40.695602,3692.061039781571
12:24:00,1,L20,Wilson Av,-73.904046,40.688764,3828.061039781571
12:24:00,1,L21,Bushwick Av-Aberdeen St,-73.905249,40.682829,3942.061039781571
12:24:00,1,L22,Broadway Junction,-73.90324,40.678856,4036.1610397815703
12:24:00,1,L24,Atlantic Av,-73.903097,40.675345,4214.16103978157
12:24:00,1,L25,Sutter Av,-73.901975,40.669367,4313.161039781571
12:24:00,1,L26,Livonia Av,-73.900571,40.664038,4396.161039781571
12:24:00,1,L27,New Lots Av,-73.899232,40.658733,4472.961039781571
12:24:00,1,L28,East 105 St,-73.899485,40.650573,4626.961039781571
13:44:00,1,L29,Canarsie-Rockaway Pkwy,-73.90185,40.646654,4885.96103978157
12:08:00,2,M01,Middle Village-Metropolitan Av,-73.889601,40.711396,4326.46103978157
12:08:00,2,M04,Fresh Pond Rd,-73.895877,40.706186,4194.46103978157
12:08:00,2,M05,Forest Av,-73.903077,40.704423,4083.461039781571
12:08:00,2,M06,Seneca Av,-73.90774,40.702762,3963.461039781571
14:00:00,1,M08,Myrtle-Wyckoff Avs,-73.912385,40.69943,3842.0610397815703
12:24:00,2,M09,Knickerbocker Av,-73.919711,40.698664,3962.0610397815703
14:00:00,1,M10,Central Av,-73.927397,40.697857,4100.06103978157
12:08:00,1,M11,Myrtle Av,-73.935657,40.697207,3881.2
12:08:00,1,M12,Flushing Av,-73.941126,40.70026,3927.5000000000005
12:08:00,1,M13,Lorimer St,-73.947408,40.703869,3807.5
12:08:00,1,M14,Hewes St,-73.953431,40.70687,3687.5
12:08:00,1,M16,Marcy Av,-73.957757,40.708359,3564.0000000000005
12:08:00,1,M18,Delancey St-Essex St,-73.987437,40.718315,3142.0000000000005
12:24:00,1,M19,Bowery,-73.993915,40.72028,3027.0000000000005
12:24:00,1,M20,Canal St,-73.999892,40.718092,2906.2000000000003
12:00:00,1,M21,Chambers St,-74.003401,40.713243,2786.2000000000003
13:04:00,1,M22,Fulton St,-74.007582,40.710374,2906.2000000000003
13:04:00,1,M23,Broad St,-74.011056,40.706476,2974.2000000000003
12:16:00,1,N02,8 Av,-74.011719,40.635064,4911.0524299621575
12:16:00,1,N03,Fort Hamilton Pkwy,-74.005351,40.631386,5087.219626903534
12:16:00,1,N04,New Utrecht Av,-73.996353,40.624842,5214.219626903534
12:16:00,1,N05,18 Av,-73.990414,40.620671,5334.219626903534
12:16:00,1,N06,20 Av,-73.985026,40.61741,5423.952429962158
12:16:00,1,N07,Bay Pkwy,-73.981848,40.611815,5572.219626903534
12:16:00,1,N08,Kings Hwy,-73.980353,40.603923,5702.219626903534
12:16:00,1,N09,Avenue U,-73.979137,40.597473,5835.219626903534
12:16:00,1,N10,86 St,-73.97823,40.592721,6010.852429962158
12:16:00,1,Q01,Canal St,-74.00046,40.718383,2911.9196269035347
12:00:00,1,Q03,72 St,-73.958424,40.768799,2373.1000000000004
12:00:00,1,Q04,86 St,-73.951787,40.777891,2551.7000000000007
12:16:00,1,Q05,96 St,-73.947152,40.784318,2671.7000000000007
12:16:00,1,R01,Astoria-Ditmars Blvd,-73.912034,40.775036,3378.9561819076544
12:16:00,1,R03,Astoria Blvd,-73.917843,40.770258,3263.9561819076544
12:16:00,1,R04,30 Av,-73.921479,40.766779,3139.9561819076544
12:16:00,1,R05,Broadway,-73.925508,40.76182,3019.9561819076544
12:16:00,1,R06,36 Av,-73.929575,40.756804,2821.156178569794
12:16:00,1,R08,39 Av-Dutch Kills,-73.932755,40.752882,2701.156178569794
12:16:00,1,R09,Queensboro Plaza,-73.940202,40.750582,2456.156178569794
12:24:00,1,R11,Lexington Av/59 St,-73.967258,40.76266,2101.214561891556
12:16:00,1,R13,5 Av/59 St,-73.973347,40.764811,2221.214561891556
12:16:00,1,R14,57 St-7 Av,-73.980658,40.764664,2391.2145618915565
12:16:00,1,R15,49 St,-73.984139,40.759901,2538.406975746155
12:16:00,1,R16,Times Sq-42 St,-73.986754,40.754672,2418.406975746155
12:12:00,1,R17,34 St-Herald Sq,-73.98795,40.749567,2538.406975746155
12:24:00,1,R18,28 St,-73.988691,40.745494,2652.4069757461552
12:24:00,1,R19,23 St,-73.989344,40.741303,2700.254052829743
12:00:00,1,R20,14 St-Union Sq,-73.990568,40.735736,2566.2000000000007
12:00:00,1,R21,8 St-NYU,-73.992629,40.730328,2697.2000000000003
12:00:00,1,R22,Prince St,-73.997702,40.724329,2817.2000000000003
12:00:00,1,R23,Canal St,-74.001775,40.719527,2937.2000000000003
12:00:00,1,R24,City Hall,-74.006978,40.713282,3112.2000000000003
12:00:00,1,R25,Cortlandt St,-74.011029,40.710668,3247.2000000000003
12:00:00,1,R26,Rector St,-74.013342,40.70722,3367.2000000000003
12:00:00,1,R27,Whitehall St-South Ferry,-74.012994,40.703087,3487.2000000000003
12:00:00,1,R28,Court St,-73.991777,40.6941,3558.464706373215
12:00:00,1,R29,Jay St-MetroTech,-73.985942,40.69218,3538.9310333728795
12:32:00,1,R30,DeKalb Av,-73.981824,40.690635,3627.8857156753547
12:16:00,1,R31,Atlantic Av-Barclays Ctr,-73.97881,40.683666,3746.919626903534
13:28:00,1,R32,Union St,-73.98311,40.677316,3924.4196269035347
13:28:00,1,R33,4 Av-9 St,-73.988302,40.670847,4058.7196269035344
13:28:00,1,R34,Prospect Av,-73.992872,40.665414,4188.719626903535
13:28:00,1,R35,25 St,-73.998091,40.660397,4355.129007005692
12:16:00,1,R36,36 St,-74.003549,40.655144,4271.052429962158
13:28:00,1,R39,45 St,-74.010006,40.648939,4492.219626903535
12:16:00,1,R40,53 St,-74.014034,40.645069,4612.219626903535
12:16:00,1,R41,59 St,-74.017881,40.641362,4695.052429962158
13:28:00,1,R42,Bay Ridge Av,-74.023377,40.634967,4875.592970180512
13:28:00,1,R43,77 St,-74.02551,40.629742,4990.592970180512
13:28:00,1,R44,86 St,-74.028398,40.622687,5209.357983398438
13:28:00,1,R45,Bay Ridge-95 St,-74.030876,40.616622,5329.357983398438
12:16:00,1,S01,Franklin Av,-73.955827,40.680596,4067.2000000000007
12:16:00,1,S03,Park Pl,-73.957624,40.674772,4201.6
12:32:00,1,S04,Botanic Garden,-73.959245,40.670343,4126.906975746155
