start_time,ntransfers,stop_id,stop_name,stop_lon,stop_lat,duration
12:08:00,0,101,Van Cortlandt Park-242 St,-73.898583,40.889248,3509.867356681824
12:08:00,0,103,238 St,-73.90087,40.884667,3343.867356681824
12:08:00,0,104,231 St,-73.904834,40.878856,3217.6737673282623
12:08:00,0,106,Marble Hill-225 St,-73.909831,40.874561,3107.6737673282623
12:08:00,0,107,215 St,-73.915279,40.869444,2954.4673566818237
12:08:00,0,108,207 St,-73.918822,40.864621,2861.6737673282623
12:08:00,0,109,Dyckman St,-73.925536,40.860531,2740.6737673282623
12:08:00,0,110,191 St,-73.929412,40.855225,2633.6737673282623
12:08:00,0,111,181 St,-73.933596,40.849505,2522.6737673282623
12:08:00,0,112,168 St-Washington Hts,-73.940133,40.840556,2387.6737673282623
12:08:00,0,113,157 St,-73.94489,40.834041,2499.6737673282623
12:08:00,0,114,145 St,-73.95036,40.826551,2437.176923847198
12:08:00,0,115,137 St-City College,-73.953676,40.822008,2323.1769238471984
12:08:00,0,116,125 St,-73.958372,40.815581,2170.5295899391176
12:08:00,0,117,116 St-Columbia University,-73.96411,40.807722,2006.5295899391174
12:08:00,0,118,Cathedral Pkwy (110 St),-73.966847,40.803967,1925.5295899391174
12:08:00,0,119,103 St,-73.968379,40.799446,1833.5295899391174
12:00:00,0,120,96 St,-73.972323,40.793919,1462.6999999999998
12:08:00,0,121,86 St,-73.976218,40.788644,1583.3
12:08:00,0,122,79 St,-73.979917,40.783934,1672.6999999999998
12:00:00,0,123,72 St,-73.98197,40.778453,1694.0
12:16:00,0,124,66 St-Lincoln Center,-73.982209,40.77344,1823.39790725708
12:16:00,0,125,59 St-Columbus Circle,-73.981929,40.768247,1937.39790725708
12:16:00,0,126,50 St,-73.983849,40.761728,2047.3979072570803
12:00:00,0,127,Times Sq-42 St,-73.987495,40.75529,1975.0000000000002
12:00:00,0,128,34 St-Penn Station,-73.991057,40.750373,2105.0
12:08:00,0,129,28 St,-73.993365,40.747215,2331.406975746155
12:08:00,0,130,23 St,-73.995657,40.744081,2410.406975746155
12:08:00,0,131,18 St,-73.997871,40.74104,2487.406975746155
12:00:00,0,132,14 St,-74.000201,40.737826,2306.0
12:08:00,0,133,Christopher St-Sheridan Sq,-74.002906,40.733422,2630.0
12:08:00,0,134,Houston St,-74.005367,40.728251,2734.7375
12:08:00,0,135,Canal St,-74.006277,40.722854,2843.0
12:00:00,0,136,Franklin St,-74.006886,40.719318,2918.0
12:00:00,0,137,Chambers St,-74.009266,40.715478,2639.0
12:00:00,0,138,WTC Cortlandt,-74.012188,40.711835,3012.1538450717926
12:00:00,0,139,Rector St,-74.013783,40.707513,3117.1540986537934
12:00:00,0,142,South Ferry,-74.013664,40.702068,3260.1540986537934
12:44:00,0,201,Wakefield-241 St,-73.85062,40.903125,2103.7
12:44:00,0,204,Nereid Av,-73.854376,40.898379,1810.5000000000005
12:44:00,0,205,233 St,-73.857473,40.893193,1652.9000000000005
12:44:00,0,206,225 St,-73.860341,40.888022,1552.9000000000005
12:44:00,0,207,219 St,-73.862633,40.883895,1467.7000000000003
12:44:00,0,208,Gun Hill Rd,-73.866256,40.87785,1352.4000000000003
12:44:00,0,209,Burke Av,-73.867164,40.871356,1373.9999999999998
12:44:00,0,210,Allerton Av,-73.867352,40.865462,1270.9999999999998
12:44:00,0,211,Pelham Pkwy,-73.867615,40.857192,1146.9999999999998
12:44:00,0,212,Bronx Park East,-73.868457,40.848828,1025.9999999999998
12:42:00,0,213,E 180 St,-73.873488,40.841894,775.7
12:42:00,0,214,West Farms Sq-E Tremont Av,-73.880049,40.840295,608.0
12:42:00,0,215,174 St,-73.887734,40.837288,459.99999999999994
12:42:00,0,216,Freeman St,-73.891865,40.829993,313.99999999999994
12:42:00,0,217,Simpson St,-73.893064,40.824073,184.0
12:01:30,0,218,Intervale Av,-73.896736,40.822181,97.0
12:05:00,0,219,Prospect Av,-73.90177,40.819585,0.0
12:00:00,0,220,Jackson Av,-73.907807,40.81649,118.0
12:00:00,0,221,3 Av-149 St,-73.917757,40.816109,293.0
12:00:00,0,222,149 St-Grand Concourse,-73.926718,40.81841,465.0
12:00:00,0,224,135 St,-73.94077,40.814229,803.0
12:00:00,0,225,125 St,-73.945495,40.807754,945.0
12:00:00,0,226,116 St,-73.949625,40.802098,1057.0
12:00:00,0,227,Central Park North (110 St),-73.951822,40.799075,1148.0
12:00:00,0,228,Park Place,-74.008811,40.713051,2753.0
12:00:00,0,229,Fulton St,-74.006571,40.709416,2830.1310333728784
12:00:00,0,230,Wall St,-74.0091,40.706821,2917.131033372879
12:00:00,0,231,Clark St,-73.993086,40.697466,3128.131033372879
12:00:00,0,232,Borough Hall,-73.989998,40.693219,3260.131033372879
12:00:00,0,233,Hoyt St,-73.985065,40.690545,3310.094000339508
12:04:00,0,234,Nevins St,-73.980492,40.688246,3166.2
12:04:00,0,235,Atlantic Av-Barclays Ctr,-73.977666,40.684359,3259.406975746155
12:04:00,0,236,Bergen St,-73.975098,40.680829,3411.1290070056916
12:04:00,0,237,Grand Army Plaza,-73.971046,40.675235,3527.094000339508
12:04:00,0,238,Eastern Pkwy-Brooklyn Museum,-73.964375,40.671987,3647.294000339508
12:04:00,0,239,Franklin Av-Medgar Evers College,-73.958131,40.670682,3587.906975746155
12:04:00,0,241,President St-Medgar Evers College,-73.950683,40.667883,3763.406975746155
12:04:00,0,242,Sterling St,-73.95085,40.662742,3854.906975746155
12:04:00,0,243,Winthrop St,-73.9502,40.656652,3967.406975746155
12:04:00,0,244,Church Av,-73.949575,40.650843,4063.4069757461543
12:04:00,0,245,Beverly Rd,-73.948959,40.645098,4172.906975746155
12:04:00,0,246,Newkirk Av-Little Haiti,-73.948411,40.639967,4250.906975746155
12:04:00,0,247,Flatbush Av-Brooklyn College,-73.947642,40.632836,4388.906975746154
12:04:00,0,248,Nostrand Av,-73.950466,40.669847,3797.7999999999997
12:04:00,0,249,Kingston Av,-73.942161,40.669399,3916.5999999999995
12:00:00,1,250,Crown Hts-Utica Av,-73.932942,40.668897,3982.9999999999995
12:04:00,0,251,Sutter Av-Rutland Rd,-73.92261,40.664717,4153.9
12:04:00,0,252,Saratoga Av,-73.916327,40.661453,4280.2
12:04:00,0,253,Rockaway Av,-73.908946,40.662549,4375.5
12:04:00,0,254,Junius St,-73.902447,40.663515,4410.16103978157
12:04:00,0,255,Pennsylvania Av,-73.894895,40.664635,4522.86103978157
12:04:00,0,256,Van Siclen Av,-73.889395,40.665449,4606.861039781571
12:04:00,0,257,New Lots Av,-73.884079,40.666235,4753.36103978157
12:00:00,0,301,Harlem-148 St,-73.93647,40.82388,1372.2999999999997
12:00:00,0,302,145 St,-73.936245,40.820421,1205.3
12:04:00,1,401,Woodlawn,-73.878751,40.886037,2374.2421874999995
12:04:00,1,402,Mosholu Pkwy,-73.884655,40.87975,2198.2421875
12:04:00,1,405,Bedford Park Blvd-Lehman College,-73.890064,40.873412,2052.2421875
12:04:00,1,406,Kingsbridge Rd,-73.897174,40.86776,1915.2421875
12:04:00,1,407,Fordham Rd,-73.901034,40.862803,1810.2421875
12:04:00,1,408,183 St,-73.903879,40.858407,1704.2421875
12:04:00,1,409,Burnside Av,-73.907684,40.853453,1589.2421875
12:04:00,1,410,176 St,-73.911794,40.84848,1481.2421875
12:04:00,1,411,Mt Eden Av,-73.914685,40.844434,1382.2421875
12:04:00,1,412,170 St,-73.917791,40.840075,1288.2421875
12:04:00,1,413,167 St,-73.9214,40.835537,1181.2421875
12:04:00,1,414,161 St-Yankee Stadium,-73.925831,40.827994,1041.3223676681519
12:00:00,1,415,149 St-Grand Concourse,-73.927351,40.818375,733.3223676681519
12:04:00,0,416,138 St-Grand Concourse,-73.929849,40.813224,754.7
12:04:00,0,418,Fulton St,-74.009509,40.710368,2487.1999999999994
12:04:00,0,419,Wall St,-74.011862,40.707557,2585.1999999999994
12:04:00,0,420,Bowling Green,-74.014065,40.704817,2683.1999999999994
12:04:00,0,423,Borough Hall,-73.990151,40.692404,3003.2
13:46:00,0,501,Eastchester-Dyre Av,-73.830834,40.8883,1693.5000000000002
12:42:00,0,502,Baychester Av,-73.838591,40.878663,1491.7000000000003
12:42:00,0,503,Gun Hill Rd,-73.846384,40.869526,1352.5000000000002
12:42:00,0,504,Pelham Pkwy,-73.855359,40.858985,1202.5000000000002
12:42:00,0,505,Morris Park,-73.860495,40.854364,1106.0
13:56:00,0,601,Pelham Bay Park,-73.828121,40.852462,3205.461910438538
13:56:00,0,602,Buhre Av,-73.832569,40.84681,2985.7619104385376
13:56:00,0,603,Middletown Rd,-73.836322,40.843863,2903.7619104385376
13:56:00,0,604,Westchester Sq-E Tremont Av,-73.842952,40.839892,2715.542858505249
13:56:00,0,606,Zerega Av,-73.847036,40.836488,2597.542858505249
13:56:00,0,607,Castle Hill Av,-73.851222,40.834255,2515.642858505249
12:44:00,0,608,Parkchester,-73.860816,40.833226,2188.842858505249
12:44:00,0,609,St Lawrence Av,-73.867618,40.831509,2466.3871706962586
12:44:00,0,610,Morrison Av-Soundview,-73.874516,40.829521,2333.3871706962586
12:44:00,0,611,Elder Av,-73.879159,40.828584,2244.387170696258
12:44:00,0,612,Whitlock Av,-73.886283,40.826525,2107.3871706962586
12:44:00,0,613,Hunts Point Av,-73.890549,40.820948,1836.442858505249
12:04:00,0,614,Longwood Av,-73.896435,40.816104,2005.0515535354616
12:04:00,0,615,E 149 St,-73.904098,40.812118,1877.0515535354614
12:04:00,0,616,E 143 St-St Mary's St,-73.907657,40.808719,1787.0515535354614
12:04:00,0,617,Cypress Av,-73.914042,40.805368,1668.0515535354614
12:04:00,0,618,Brook Av,-73.91924,40.807566,1589.0515535354614
12:04:00,0,619,3 Av-138 St,-73.926138,40.810476,1432.442858505249
12:04:00,0,621,125 St,-73.937594,40.804138,960.7
12:04:00,0,622,116 St,-73.941617,40.798629,1305.842858505249
12:04:00,0,623,110 St,-73.94425,40.79502,1402.0428585052491
12:04:00,0,624,103 St,-73.947478,40.7906,1492.0428585052491
12:04:00,0,625,96 St,-73.95107,40.785672,1596.9428585052492
12:04:00,0,626,86 St,-73.955589,40.779492,1329.7
12:04:00,0,627,77 St,-73.959874,40.77362,1737.8578969955443
12:04:00,0,628,68 St-Hunter College,-73.96387,40.768141,1845.1578969955444
12:04:00,0,629,59 St,-73.967967,40.762526,1555.6999999999998
12:04:00,0,630,51 St,-73.97192,40.757107,1892.4999999999998
12:04:00,0,631,Grand Central-42 St,-73.976848,40.751776,1743.6999999999998
12:04:00,0,632,33 St,-73.982076,40.746081,2062.406975746155
12:04:00,0,633,28 St,-73.984264,40.74307,2140.4069757461543
12:04:00,0,634,23 St,-73.986599,40.739864,2220.406975746155
12:04:00,0,635,14 St-Union Sq,-73.989951,40.734673,2025.1999999999998
12:04:00,0,636,Astor Pl,-73.99107,40.730054,2343.657143306732
12:04:00,0,637,Bleecker St,-73.994659,40.725915,2454.657143306732
12:04:00,0,638,Spring St,-73.997141,40.722301,2539.3571433067323
12:04:00,0,639,Canal St,-74.000193,40.718803,2533.1999999999994
12:04:00,0,640,Brooklyn Bridge-City Hall,-74.004131,40.713065,2350.2
12:04:00,2,701,Flushing-Main St,-73.83003,40.7596,3510.699039050511
12:04:00,2,702,Mets-Willets Point,-73.845625,40.754622,3300.699039050511
12:04:00,2,705,111 St,-73.855334,40.75173,3422.556181907654
12:04:00,2,706,103 St-Corona Plaza,-73.8627,40.749865,3333.556181907654
12:04:00,2,707,Junction Blvd,-73.869527,40.749145,3053.556181907654
12:04:00,2,708,90 St-Elmhurst Av,-73.876613,40.748408,3155.4725136280053
13:00:00,2,709,82 St-Jackson Hts,-73.883697,40.747659,2979.4725136280053
12:12:00,2,710,74 St-Broadway,-73.891394,40.746848,2801.6574484825132
13:16:00,2,711,69 St,-73.896403,40.746325,2948.454055404663
12:12:00,2,712,61 St-Woodside,-73.902984,40.74563,2782.1561819076537
12:12:00,2,713,52 St,-73.912549,40.744149,2618.256180238724
12:12:00,2,714,46 St-Bliss St,-73.918435,40.743132,2554.2561802387236
12:12:00,2,715,40 St-Lowery St,-73.924016,40.743781,2487.2561802387236
12:12:00,2,716,33 St-Rawson St,-73.930997,40.744587,2355.2561802387236
12:28:00,1,718,Queensboro Plaza,-73.940202,40.750582,2187.1561802387237
12:20:00,2,719,Court Sq,-73.945264,40.747023,2317.1561802387237
12:28:00,1,720,Hunters Point Av,-73.948916,40.742216,2247.4069757461543
12:28:00,1,721,Vernon Blvd-Jackson Av,-73.953581,40.742626,2182.206975746155
12:04:00,1,723,Grand Central-42 St,-73.976041,40.751431,1927.4069757461548
12:04:00,1,724,5 Av,-73.981963,40.753821,2075.406975746155
12:04:00,1,725,Times Sq-42 St,-73.987691,40.755477,2104.406975746155
12:04:00,1,726,34 St-Hudson Yards,-74.00191,40.755882,2264.406975746155
12:04:00,1,901,Grand Central-42 St,-73.979189,40.752769,1867.4069757461548
12:04:00,1,902,Times Sq-42 St,-73.986229,40.755983,1984.4069757461548
13:44:00,1,A02,Inwood-207 St,-73.919899,40.868072,2863.9846361160276
13:44:00,1,A03,Dyckman St,-73.927271,40.865491,2743.9846361160276
13:44:00,1,A05,190 St,-73.93418,40.859022,2578.9846361160276
13:44:00,1,A06,181 St,-73.937969,40.851695,2453.9846361160276
13:44:00,1,A07,175 St,-73.939704,40.847391,2333.9846361160276
12:12:00,3,A09,168 St,-73.939561,40.840719,2162.184636116028
12:12:00,3,A10,163 St-Amsterdam Av,-73.939892,40.836013,2095.4000837802882
12:12:00,3,A11,155 St,-73.941514,40.830518,1974.9196071624754
12:12:00,2,A12,145 St,-73.944216,40.824783,1795.4000837802885
12:12:00,2,A14,135 St,-73.947649,40.817894,1714.7588537693025
12:12:00,2,A15,125 St,-73.952343,40.811109,1870.2421874999998
12:12:00,2,A16,116 St,-73.954882,40.805085,2035.4000837802885
12:12:00,2,A17,Cathedral Pkwy (110 St),-73.958161,40.800603,2148.4000837802882
12:12:00,2,A18,103 St,-73.961454,40.796092,2263.4000837802882
12:12:00,2,A19,96 St,-73.964696,40.791642,2380.4000837802882
12:12:00,2,A20,86 St,-73.968916,40.785868,2500.4000837802882
12:40:00,1,A21,81 St-Museum of Natural History,-73.972143,40.781433,2430.460732460022
12:40:00,1,A22,72 St,-73.97641,40.775594,2308.108546924591
12:12:00,2,A24,59 St-Columbus Circle,-73.981736,40.768296,2166.1092476844788
12:44:00,1,A25,50 St,-73.985984,40.762456,2226.406975746155
13:52:00,1,A27,42 St-Port Authority Bus Terminal,-73.989735,40.757308,2104.406975746155
12:24:00,1,A28,34 St-Penn Station,-73.993391,40.752287,2229.406975746155
12:24:00,1,A30,23 St,-73.998041,40.745906,2349.406975746155
12:08:00,1,A31,14 St,-74.00169,40.740893,2415.406975746155
12:00:00,3,A32,W 4 St-Wash Sq,-74.000495,40.732338,2586.406975746155
12:24:00,1,A33,Spring St,-74.003739,40.726227,2739.406975746155
12:00:00,3,A34,Canal St,-74.005229,40.720824,2826.406975746155
13:08:00,1,A36,Chambers St,-74.008585,40.714111,2830.1310333728784
12:12:00,1,A38,Fulton St,-74.007691,40.710197,2710.1310333728784
13:32:00,1,A40,High St,-73.990531,40.699337,2929.9310333728786
13:32:00,1,A41,Jay St-MetroTech,-73.987342,40.692338,3087.9310333728786
13:32:00,1,A42,Hoyt-Schermerhorn Sts,-73.985001,40.688484,3257.9310333728786
12:52:00,1,A43,Lafayette Av,-73.973946,40.686113,3456.2
12:52:00,1,A44,Clinton-Washington Avs,-73.965838,40.683263,3571.2
12:52:00,1,A45,Franklin Av,-73.956848,40.68138,3691.2
13:32:00,1,A46,Nostrand Av,-73.950426,40.680438,3677.1310333728784
12:04:00,1,A47,Kingston-Throop Avs,-73.940858,40.679921,3798.231033372878
13:32:00,1,A48,Utica Av,-73.930729,40.679364,3875.331033372878
12:04:00,1,A49,Ralph Av,-73.920786,40.678822,3998.331033372878
12:04:00,1,A50,Rockaway Av,-73.911946,40.67834,4076.4794270515436
13:32:00,1,A51,Broadway Junction,-73.905316,40.678334,3958.4794270515436
13:08:00,1,A52,Liberty Av,-73.896548,40.674542,4133.479427051544
13:08:00,1,A53,Van Siclen Av,-73.890358,40.67271,4253.479427051544
13:08:00,1,A54,Shepherd Av,-73.88075,40.67413,4373.479427051544
13:32:00,1,A55,Euclid Av,-73.872106,40.675377,4378.479427051543
13:32:00,1,A57,Grant Av,-73.86505,40.677044,4543.479427051543
13:32:00,1,A59,80 St,-73.858992,40.679371,4665.479427051543
13:32:00,1,A60,88 St,-73.85147,40.679843,4786.479427051543
13:32:00,1,A61,Rockaway Blvd,-73.843853,40.680429,4906.479427051543
13:32:00,1,A63,104 St,-73.837683,40.681711,5026.479427051543
13:32:00,1,A64,111 St,-73.832163,40.684331,5146.479427051543
13:32:00,1,A65,Ozone Park-Lefferts Blvd,-73.825798,40.685951,5278.479427051543
12:44:00,1,B04,21 St-Queensbridge,-73.942836,40.754203,2182.808697891235
12:44:00,1,B06,Roosevelt Island,-73.95326,40.759145,2077.1925898551935
12:20:00,1,B08,Lexington Av/63 St,-73.966113,40.764629,1915.6999999999998
13:32:00,1,B10,57 St,-73.97745,40.763972,2080.7
12:20:00,1,B12,9 Av,-73.994324,40.646292,4394.392053413391
12:20:00,1,B13,Fort Hamilton Pkwy,-73.994304,40.640914,4514.392053413391
12:20:00,1,B14,50 St,-73.994791,40.63626,4626.39205341339
12:20:00,1,B15,55 St,-73.995476,40.631435,4753.39205341339
12:20:00,1,B16,62 St,-73.996895,40.626472,4858.39205341339
12:20:00,1,B17,71 St,-73.998864,40.619589,4978.39205341339
12:20:00,1,B18,79 St,-74.00061,40.613501,5101.39205341339
12:20:00,1,B19,18 Av,-74.001736,40.607954,5216.39205341339
12:20:00,1,B20,20 Av,-73.998168,40.604556,5331.39205341339
12:20:00,1,B21,Bay Pkwy,-73.993728,40.601875,5441.39205341339
13:40:00,1,B22,25 Av,-73.986829,40.597704,5599.39205341339
13:40:00,1,B23,Bay 50 St,-73.983765,40.588841,5732.931033372879
12:20:00,2,D01,Norwood-205 St,-73.878855,40.874811,2454.181658172607
12:20:00,2,D03,Bedford Park Blvd,-73.887138,40.873244,2240.9816581726077
12:20:00,2,D04,Kingsbridge Rd,-73.893509,40.866978,2100.9816581726072
12:20:00,2,D05,Fordham Rd,-73.897749,40.861296,1980.9816581726072
12:20:00,2,D06,182-183 Sts,-73.900741,40.856093,1906.1816581726073
12:20:00,2,D07,Tremont Av,-73.905227,40.85041,1789.1816581726075
12:20:00,2,D08,174-175 Sts,-73.910136,40.8459,1669.1816581726075
12:20:00,2,D09,170 St,-73.9134,40.839306,1547.7816581726074
12:20:00,2,D10,167 St,-73.91844,40.833771,1424.7816581726074
13:48:00,2,D11,161 St-Yankee Stadium,-73.925651,40.827905,1275.2421875
12:12:00,2,D12,155 St,-73.938209,40.830135,1442.2421874999998
12:12:00,2,D13,145 St,-73.944216,40.824783,1570.2421874999998
12:44:00,1,D14,7 Av,-73.981637,40.762862,2288.409247684479
13:00:00,1,D15,47-50 Sts-Rockefeller Ctr,-73.981329,40.758663,2170.7
13:00:00,1,D16,42 St-Bryant Pk,-73.984569,40.754222,2260.7
13:00:00,1,D17,34 St-Herald Sq,-73.987823,40.749719,2350.7
13:00:00,1,D18,23 St,-73.992821,40.742878,2470.7
13:00:00,1,D19,14 St,-73.996209,40.738228,2575.7
13:32:00,1,D20,W 4 St-Wash Sq,-74.000495,40.732338,2635.4069757461543
13:32:00,1,D21,Broadway-Lafayette St,-73.996204,40.725297,2666.885715675354
12:12:00,1,D22,Grand St,-73.993753,40.718267,2836.8857156753543
12:36:00,1,D24,Atlantic Av-Barclays Ctr,-73.97689,40.68446,3486.668879032135
12:36:00,1,D25,7 Av,-73.972367,40.67705,3659.668879032135
12:36:00,1,D26,Prospect Park,-73.962246,40.661614,3907.668879032135
12:36:00,1,D27,Parkside Av,-73.961495,40.655292,4027.668879032135
12:36:00,1,D28,Church Av,-73.962982,40.650527,4132.929007005691
12:36:00,1,D29,Beverley Rd,-73.964492,40.644031,4281.619484615326
12:36:00,1,D30,Cortelyou Rd,-73.963891,40.640927,4396.619484615326
12:36:00,1,D31,Newkirk Plaza,-73.962793,40.635082,4352.929007005691
12:36:00,1,D32,Avenue H,-73.961639,40.62927,4507.2490078926085
12:36:00,1,D33,Avenue J,-73.960803,40.625039,4628.2490078926085
12:36:00,1,D34,Avenue M,-73.959399,40.617618,4756.249007892609
12:36:00,1,D35,Kings Hwy,-73.957734,40.60867,4696.429007005692
12:36:00,1,D37,Avenue U,-73.955929,40.5993,4941.439319086076
12:36:00,1,D38,Neck Rd,-73.955161,40.595246,5096.639319086075
12:36:00,1,D39,Sheepshead Bay,-73.954155,40.586896,5036.169008779526
12:36:00,1,D40,Brighton Beach,-73.961376,40.577621,5216.169008779526
12:36:00,1,D41,Ocean Pkwy,-73.968501,40.576312,5396.269008779525
12:36:00,1,D42,W 8 St-NY Aquarium,-73.975939,40.576127,5256.331033372879
12:36:00,1,D43,Coney Island-Stillwell Av,-73.981233,40.577422,5390.831033372879
12:56:00,1,E01,World Trade Center,-74.009781,40.712582,2981.292683362961
12:44:00,1,F01,Jamaica-179 St,-73.783817,40.712646,3760.7
12:44:00,1,F02,169 St,-73.793604,40.71047,3670.7
12:44:00,1,F03,Parsons Blvd,-73.803326,40.707564,3550.7
12:44:00,1,F04,Sutphin Blvd,-73.810708,40.70546,3460.7
12:44:00,1,F05,Briarwood,-73.820574,40.709179,3340.7
13:00:00,1,F06,Kew Gardens-Union Tpke,-73.831008,40.714441,3220.7
12:44:00,1,F07,75 Av,-73.837324,40.718331,3130.7
13:00:00,1,F09,Court Sq-23 St,-73.946,40.747846,2323.4090909090905
12:44:00,1,F11,Lexington Av/53 St,-73.969055,40.757552,2121.447367668152
12:44:00,1,F12,5 Av/53 St,-73.975224,40.760167,2230.3787878787875
12:36:00,1,F14,2 Av,-73.989938,40.723402,2791.8857156753543
12:36:00,1,F15,Delancey St-Essex St,-73.988114,40.718611,2927.157143306732
12:36:00,1,F16,East Broadway,-73.990173,40.713715,3017.157143306732
13:16:00,1,F18,York St,-73.986751,40.701397,3197.157143306732
13:32:00,1,F20,Bergen St,-73.990862,40.686145,3405.5872821807857
13:32:00,1,F21,Carroll St,-73.995048,40.680303,3543.116217851639
13:32:00,1,F22,Smith-9 Sts,-73.995959,40.67358,3728.116217851639
13:32:00,1,F23,4 Av-9 St,-73.989779,40.670272,3816.096172332763
13:32:00,1,F24,7 Av,-73.980305,40.666271,3642.9310333728786
13:32:00,1,F25,15 St-Prospect Park,-73.979493,40.660365,3816.096172332763
13:32:00,1,F26,Fort Hamilton Pkwy,-73.975776,40.650782,4056.096172332763
13:32:00,1,F27,Church Av,-73.979678,40.644041,3882.931033372879
13:32:00,1,F29,Ditmas Av,-73.978172,40.636119,4002.931033372879
13:32:00,1,F30,18 Av,-73.976971,40.629755,4122.931033372879
13:32:00,1,F31,Avenue I,-73.976127,40.625322,4182.931033372879
13:32:00,1,F32,Bay Pkwy,-73.975264,40.620769,4242.931033372879
13:32:00,1,F33,Avenue N,-73.974197,40.61514,4362.931033372879
13:32:00,1,F34,Avenue P,-73.973022,40.608944,4452.931033372879
13:32:00,1,F35,Kings Hwy,-73.972361,40.603217,4737.931033372879
13:56:00,1,F36,Avenue U,-73.973357,40.596063,4858.831033372879
13:56:00,1,F38,Avenue X,-73.97425,40.58962,4978.831033372879
12:36:00,1,F39,Neptune Av,-73.974574,40.581011,5131.33103337288
13:00:00,1,G05,Jamaica Center-Parsons/Archer,-73.801109,40.702147,3928.6999999999994
13:00:00,1,G06,Sutphin Blvd-Archer Av-JFK Airport,-73.807969,40.700486,3798.7
13:00:00,1,G07,Jamaica-Van Wyck,-73.816859,40.702566,3622.7
13:00:00,1,G08,Forest Hills-71 Av,-73.844521,40.721691,3010.7
13:00:00,1,G09,67 Av,-73.852719,40.726523,3190.7
13:00:00,1,G10,63 Dr-Rego Park,-73.861604,40.729846,3250.7
13:00:00,1,G11,Woodhaven Blvd,-73.869229,40.733106,3160.7
13:00:00,1,G12,Grand Av-Newtown,-73.877223,40.737015,3040.7
13:00:00,1,G13,Elmhurst Av,-73.882017,40.742454,2950.7
13:00:00,1,G14,Jackson Hts-Roosevelt Av,-73.891338,40.746644,2590.7
12:04:00,1,G15,65 St,-73.898453,40.749669,2920.7
12:04:00,1,G16,Northern Blvd,-73.906006,40.752885,2877.8090909090906
12:04:00,1,G18,46 St,-73.913333,40.756312,2765.609089803695
12:04:00,1,G19,Steinway St,-73.92074,40.756879,2645.609089803695
12:04:00,1,G20,36 St,-73.928781,40.752039,2515.609089803695
12:28:00,1,G21,Queens Plaza,-73.937243,40.748973,2380.808924484253
13:32:00,2,G22,Court Sq,-73.943832,40.746554,2377.1561802387237
13:32:00,2,G24,21 St,-73.949724,40.744065,2497.1561802387237
13:32:00,2,G26,Greenpoint Av,-73.954449,40.731352,2672.1561802387237
13:32:00,2,G28,Nassau Av,-73.951277,40.724635,2797.1561802387237
13:32:00,2,G29,Metropolitan Av,-73.951418,40.712792,2938.2753239631647
13:32:00,2,G30,Broadway,-73.950308,40.706092,3100.156180238724
12:00:00,3,G31,Flushing Av,-73.950234,40.700377,3220.156180238724
12:00:00,3,G32,Myrtle-Willoughby Avs,-73.949046,40.694568,3337.156180238724
12:00:00,3,G33,Bedford-Nostrand Avs,-73.953522,40.689627,3457.156180238724
12:00:00,3,G34,Classon Av,-73.96007,40.688873,3572.156180238724
12:12:00,1,G35,Clinton-Washington Avs,-73.966839,40.688089,3685.156180238724
12:12:00,1,G36,Fulton St,-73.975375,40.687119,3614.522337150573
12:12:00,1,H01,Aqueduct Racetrack,-73.834058,40.668234,5148.479427051543
12:36:00,1,H02,Aqueduct-N Conduit Av,-73.834058,40.668234,5210.300169801712
12:36:00,1,H03,Howard Beach-JFK Airport,-73.830301,40.660476,5386.300169801712
12:36:00,1,H04,Broad Channel,-73.815925,40.608382,5939.379427051544
12:36:00,1,H06,Beach 67 St,-73.796924,40.590927,6380.979427051543
12:36:00,1,H07,Beach 60 St,-73.788522,40.592374,6510.979427051544
12:36:00,1,H08,Beach 44 St,-73.776013,40.592943,6637.979427051543
12:36:00,1,H09,Beach 36 St,-73.768175,40.595398,6760.979427051543
12:36:00,1,H10,Beach 25 St,-73.761353,40.600066,6880.979427051543
12:36:00,1,H11,Far Rockaway-Mott Av,-73.755405,40.603995,7000.979427051543
12:36:00,1,H12,Beach 90 St,-73.813641,40.588034,6286.179427051544
12:36:00,1,H13,Beach 98 St,-73.820558,40.585307,6409.179427051543
12:36:00,1,H14,Beach 105 St,-73.827559,40.583209,6524.179427051544
12:36:00,1,H15,Rockaway Park-Beach 116 St,-73.835592,40.580903,6647.179427051544
13:00:00,1,J12,121 St,-73.828294,40.700492,4236.5
13:00:00,1,J13,111 St,-73.836345,40.697418,4348.700000000001
13:00:00,1,J14,104 St,-73.84433,40.695178,4463.3
13:00:00,1,J15,Woodhaven Blvd,-73.851576,40.693879,4558.7
13:00:00,1,J16,85 St-Forest Pkwy,-73.86001,40.692435,4875.199999999999
13:00:00,1,J17,75 St-Elderts Ln,-73.867139,40.691324,4495.199999999999
13:00:00,1,J19,Cypress Hills,-73.87255,40.689941,4740.033332538604
12:12:00,2,J20,Crescent St,-73.873785,40.683194,4345.199999999999
12:12:00,2,J21,Norwood Av,-73.880039,40.68141,4255.199999999999
12:12:00,2,J22,Cleveland St,-73.884639,40.679947,4326.355215024949
12:12:00,2,J23,Van Siclen Av,-73.891688,40.678024,4105.199999999999
12:52:00,2,J24,Alabama Av,-73.898654,40.676992,4045.1999999999994
13:08:00,1,J27,Broadway Junction,-73.904512,40.679498,3945.1610397815703
13:08:00,1,J28,Chauncey St,-73.910456,40.682893,3895.1999999999994
13:08:00,1,J29,Halsey St,-73.916559,40.68637,3946.6411745071405
13:08:00,1,J30,Gates Av,-73.92227,40.68963,3745.2
13:08:00,1,J31,Kosciuszko St,-73.928814,40.693342,3756.641174507141
12:20:00,1,L01,8 Av,-74.002578,40.739777,2475.406975746155
12:20:00,1,L02,6 Av,-73.996786,40.737335,2357.1610397815703
12:20:00,1,L03,14 St-Union Sq,-73.99073,40.734789,2239.1610397815703
12:28:00,1,L05,3 Av,-73.986122,40.732849,2331.0610397815703
12:28:00,1,L06,1 Av,-73.981628,40.730953,2384.0610397815703
12:28:00,1,L08,Bedford Av,-73.956872,40.717304,2610.0610397815703
12:28:00,1,L10,Lorimer St,-73.950275,40.714063,2725.06103978157
12:28:00,1,L11,Graham Av,-73.944053,40.714565,2786.06103978157
12:28:00,1,L12,Grand St,-73.94067,40.711926,2883.06103978157
12:28:00,1,L13,Montrose Av,-73.93985,40.707739,2944.06103978157
12:28:00,1,L14,Morgan Av,-73.933147,40.706152,3030.06103978157
12:28:00,1,L15,Jefferson St,-73.922913,40.706607,3126.06103978157
12:28:00,1,L16,DeKalb Av,-73.918425,40.703811,3205.06103978157
12:28:00,1,L17,Myrtle-Wyckoff Avs,-73.911586,40.699814,3301.06103978157
12:28:00,1,L19,Halsey St,-73.904084,40.695602,3376.06103978157
12:28:00,1,L20,Wilson Av,-73.904046,40.688764,3512.06103978157
12:28:00,1,L21,Bushwick Av-Aberdeen St,-73.905249,40.682829,3626.06103978157
12:28:00,1,L22,Broadway Junction,-73.90324,40.678856,3720.1610397815703
12:28:00,1,L24,Atlantic Av,-73.903097,40.675345,3898.16103978157
12:28:00,1,L25,Sutter Av,-73.901975,40.669367,3997.1610397815703
12:28:00,1,L26,Livonia Av,-73.900571,40.664038,4080.1610397815703
12:28:00,1,L27,New Lots Av,-73.899232,40.658733,4156.96103978157
12:28:00,1,L28,East 105 St,-73.899485,40.650573,4310.96103978157
13:48:00,1,L29,Canarsie-Rockaway Pkwy,-73.90185,40.646654,4569.96103978157
12:12:00,2,M01,Middle Village-Metropolitan Av,-73.889601,40.711396,4010.46103978157
12:12:00,2,M04,Fresh Pond Rd,-73.895877,40.706186,3878.4610397815695
12:12:00,2,M05,Forest Av,-73.903077,40.704423,3767.46103978157
12:12:00,2,M06,Seneca Av,-73.90774,40.702762,3647.46103978157
12:52:00,1,M08,Myrtle-Wyckoff Avs,-73.912385,40.69943,3526.06103978157
12:28:00,2,M09,Knickerbocker Av,-73.919711,40.698664,3646.06103978157
12:52:00,1,M10,Central Av,-73.927397,40.697857,3784.06103978157
12:12:00,1,M11,Myrtle Av,-73.935657,40.697207,3565.2
12:12:00,1,M12,Flushing Av,-73.941126,40.70026,3611.4999999999995
12:12:00,1,M13,Lorimer St,-73.947408,40.703869,3491.4999999999995
12:12:00,1,M14,Hewes St,-73.953431,40.70687,3371.4999999999995
12:12:00,1,M16,Marcy Av,-73.957757,40.708359,3247.9999999999995
12:12:00,1,M18,Delancey St-Essex St,-73.987437,40.718315,2825.9999999999995
12:28:00,1,M19,Bowery,-73.993915,40.72028,2711.0
12:28:00,1,M20,Canal St,-73.999892,40.718092,2590.2
12:04:00,1,M21,Chambers St,-74.003401,40.713243,2470.2
13:08:00,1,M22,Fulton St,-74.007582,40.710374,2590.2
13:08:00,1,M23,Broad St,-74.011056,40.706476,2658.2
12:20:00,1,N02,8 Av,-74.011719,40.635064,4595.0524299621575
12:20:00,1,N03,Fort Hamilton Pkwy,-74.005351,40.631386,4771.219626903533
12:20:00,1,N04,New Utrecht Av,-73.996353,40.624842,4898.219626903533
12:20:00,1,N05,18 Av,-73.990414,40.620671,5018.219626903533
12:20:00,1,N06,20 Av,-73.985026,40.61741,5107.952429962157
12:20:00,1,N07,Bay Pkwy,-73.981848,40.611815,5256.219626903533
12:20:00,1,N08,Kings Hwy,-73.980353,40.603923,5386.219626903533
12:20:00,1,N09,Avenue U,-73.979137,40.597473,5519.219626903534
12:20:00,1,N10,86 St,-73.97823,40.592721,5694.852429962157
12:20:00,1,Q01,Canal St,-74.00046,40.718383,2595.9196269035338
12:04:00,1,Q03,72 St,-73.958424,40.768799,2057.1
12:04:00,1,Q04,86 St,-73.951787,40.777891,2235.7
12:20:00,1,Q05,96 St,-73.947152,40.784318,2355.7
12:20:00,1,R01,Astoria-Ditmars Blvd,-73.912034,40.775036,3062.956181907654
12:20:00,1,R03,Astoria Blvd,-73.917843,40.770258,2947.956181907654
12:20:00,1,R04,30 Av,-73.921479,40.766779,2823.956181907654
12:20:00,1,R05,Broadway,-73.925508,40.76182,2703.956181907654
12:20:00,1,R06,36 Av,-73.929575,40.756804,2505.156178569794
12:20:00,1,R08,39 Av-Dutch Kills,-73.932755,40.752882,2385.156178569794
12:20:00,1,R09,Queensboro Plaza,-73.940202,40.750582,2140.1561785697936
12:28:00,1,R11,Lexington Av/59 St,-73.967258,40.76266,1785.2145618915556
12:20:00,1,R13,5 Av/59 St,-73.973347,40.764811,1905.2145618915556
12:20:00,1,R14,57 St-7 Av,-73.980658,40.764664,2075.2145618915556
12:20:00,1,R15,49 St,-73.984139,40.759901,2224.406975746155
12:20:00,1,R16,Times Sq-42 St,-73.986754,40.754672,2104.406975746155
12:16:00,1,R17,34 St-Herald Sq,-73.98795,40.749567,2224.406975746155
12:28:00,1,R18,28 St,-73.988691,40.745494,2338.4069757461552
12:28:00,1,R19,23 St,-73.989344,40.741303,2384.2540528297422
12:04:00,1,R20,14 St-Union Sq,-73.990568,40.735736,2250.2
12:04:00,1,R21,8 St-NYU,-73.992629,40.730328,2381.2
12:04:00,1,R22,Prince St,-73.997702,40.724329,2501.2
12:04:00,1,R23,Canal St,-74.001775,40.719527,2621.2
12:04:00,1,R24,City Hall,-74.006978,40.713282,2796.1999999999994
12:04:00,1,R25,Cortlandt St,-74.011029,40.710668,2931.1999999999994
12:04:00,1,R26,Rector St,-74.013342,40.70722,3051.1999999999994
12:04:00,1,R27,Whitehall St-South Ferry,-74.012994,40.703087,3171.1999999999994
12:04:00,1,R28,Court St,-73.991777,40.6941,3242.4647063732145
12:04:00,1,R29,Jay St-MetroTech,-73.985942,40.69218,3222.9310333728786
12:36:00,1,R30,DeKalb Av,-73.981824,40.690635,3311.885715675354
12:20:00,1,R31,Atlantic Av-Barclays Ctr,-73.97881,40.683666,3430.9196269035338
13:32:00,1,R32,Union St,-73.98311,40.677316,3608.4196269035338
13:32:00,1,R33,4 Av-9 St,-73.988302,40.670847,3742.719626903534
13:32:00,1,R34,Prospect Av,-73.992872,40.665414,3872.719626903534
13:32:00,1,R35,25 St,-73.998091,40.660397,4039.129007005692
12:20:00,1,R36,36 St,-74.003549,40.655144,3955.0524299621575
13:32:00,1,R39,45 St,-74.010006,40.648939,4176.219626903534
12:20:00,1,R40,53 St,-74.014034,40.645069,4296.219626903534
12:20:00,1,R41,59 St,-74.017881,40.641362,4379.0524299621575
13:32:00,1,R42,Bay Ridge Av,-74.023377,40.634967,4559.592970180511
13:32:00,1,R43,77 St,-74.02551,40.629742,4674.592970180511
13:32:00,1,R44,86 St,-74.028398,40.622687,4893.357983398437
13:32:00,1,R45,Bay Ridge-95 St,-74.030876,40.616622,5013.357983398437
12:20:00,1,S01,Franklin Av,-73.955827,40.680596,3751.2
12:20:00,1,S03,Park Pl,-73.957624,40.674772,3885.5999999999995
12:36:00,1,S04,Botanic Garden,-73.959245,40.670343,3812.906975746155
