start_time,ntransfers,stop_id,stop_name,stop_lon,stop_lat,duration
12:46:30,0,101,Van Cortlandt Park-242 St,-73.898583,40.889248,4992.885711669922
12:46:30,0,103,238 St,-73.90087,40.884667,4792.385711669922
12:46:30,0,104,231 St,-73.904834,40.878856,4651.385711669923
12:46:30,0,106,Marble Hill-225 St,-73.909831,40.874561,4541.385711669923
12:46:30,0,107,215 St,-73.915279,40.869444,4413.385711669923
12:46:30,0,108,207 St,-73.918822,40.864621,4295.385711669922
12:46:30,0,109,Dyckman St,-73.925536,40.860531,4174.385711669922
12:46:30,0,110,191 St,-73.929412,40.855225,4067.3857116699223
12:46:30,0,111,181 St,-73.933596,40.849505,3956.385711669923
12:46:30,0,112,168 St-Washington Hts,-73.940133,40.840556,3821.3857116699223
12:46:30,0,113,157 St,-73.94489,40.834041,3709.3857116699223
12:46:30,0,114,145 St,-73.95036,40.826551,3579.3857116699223
12:46:30,0,115,137 St-City College,-73.953676,40.822008,3465.385711669923
12:46:30,0,116,125 St,-73.958372,40.815581,3344.5857116699226
12:46:30,0,117,116 St-Columbia University,-73.96411,40.807722,3179.5857116699226
12:46:30,0,118,Cathedral Pkwy (110 St),-73.966847,40.803967,3094.5857116699226
12:46:30,0,119,103 St,-73.968379,40.799446,3006.5857116699226
12:30:30,0,120,96 St,-73.972323,40.793919,2658.221951103211
12:38:30,0,121,86 St,-73.976218,40.788644,2743.4857116699227
12:38:30,0,122,79 St,-73.979917,40.783934,2649.785711669922
12:30:30,0,123,72 St,-73.98197,40.778453,2440.521951103211
12:30:30,0,124,66 St-Lincoln Center,-73.982209,40.77344,2603.0000000000005
12:30:30,0,125,59 St-Columbus Circle,-73.981929,40.768247,2509.0
12:30:30,0,126,50 St,-73.983849,40.761728,2381.0
12:30:30,0,127,Times Sq-42 St,-73.987495,40.75529,2155.521951103211
12:30:30,0,128,34 St-Penn Station,-73.991057,40.750373,2026.521951103211
12:46:30,0,129,28 St,-73.993365,40.747215,2283.021951103211
12:46:30,0,130,23 St,-73.995657,40.744081,2204.0219511032105
12:46:30,0,131,18 St,-73.997871,40.74104,2127.0219511032105
12:30:30,0,132,14 St,-74.000201,40.737826,1834.0219511032108
12:38:30,0,133,Christopher St-Sheridan Sq,-74.002906,40.733422,2092.535133266449
12:38:30,0,134,Houston St,-74.005367,40.728251,1988.535133266449
12:38:30,0,135,Canal St,-74.006277,40.722854,1858.5351332664488
12:38:30,0,136,Franklin St,-74.006886,40.719318,1785.535133266449
12:30:30,0,137,Chambers St,-74.009266,40.715478,1533.6870245933533
12:30:30,0,138,WTC Cortlandt,-74.012188,40.711835,1614.135133266449
12:30:30,0,139,Rector St,-74.013783,40.707513,1512.135133266449
12:30:30,0,142,South Ferry,-74.013664,40.702068,1369.135133266449
13:50:30,0,201,Wakefield-241 St,-73.85062,40.903125,5513.5610666275015
13:50:30,0,204,Nereid Av,-73.854376,40.898379,5252.918914794922
13:50:30,0,205,233 St,-73.857473,40.893193,5095.318914794922
13:50:30,0,206,225 St,-73.860341,40.888022,4995.3189147949215
13:50:30,0,207,219 St,-73.862633,40.883895,4910.118914794922
13:50:30,0,208,Gun Hill Rd,-73.866256,40.87785,4794.8189147949215
13:50:30,0,209,Burke Av,-73.867164,40.871356,4805.5610666275015
13:50:30,0,210,Allerton Av,-73.867352,40.865462,4702.5610666275015
13:50:30,0,211,Pelham Pkwy,-73.867615,40.857192,4577.561066627502
13:50:30,0,212,Bronx Park East,-73.868457,40.848828,4438.561066627502
13:50:30,0,213,E 180 St,-73.873488,40.841894,3943.4999999999995
12:30:30,0,214,West Farms Sq-E Tremont Av,-73.880049,40.840295,4343.561066627502
12:30:30,0,215,174 St,-73.887734,40.837288,4223.406975746156
12:30:30,0,216,Freeman St,-73.891865,40.829993,4077.4069757461552
12:30:30,0,217,Simpson St,-73.893064,40.824073,3947.406975746155
13:50:30,0,218,Intervale Av,-73.896736,40.822181,3862.406975746155
13:50:30,0,219,Prospect Av,-73.90177,40.819585,3763.406975746155
12:30:30,0,220,Jackson Av,-73.907807,40.81649,3645.406975746155
13:50:30,0,221,3 Av-149 St,-73.917757,40.816109,3217.5
12:30:30,0,222,149 St-Grand Concourse,-73.926718,40.81841,3097.5
12:30:30,0,224,135 St,-73.94077,40.814229,3299.921951103211
12:30:30,0,225,125 St,-73.945495,40.807754,3160.9219511032106
12:30:30,0,226,116 St,-73.949625,40.802098,3047.921951103211
12:30:30,0,227,Central Park North (110 St),-73.951822,40.799075,2959.221951103211
12:30:30,0,228,Park Place,-74.008811,40.713051,1417.6870245933533
12:30:30,0,229,Fulton St,-74.006571,40.709416,1275.6870245933533
12:30:30,0,230,Wall St,-74.0091,40.706821,1178.6870245933533
12:30:30,0,231,Clark St,-73.993086,40.697466,944.6870245933533
12:30:30,0,232,Borough Hall,-73.989998,40.693219,841.6870245933533
12:30:30,0,233,Hoyt St,-73.985065,40.690545,734.6870245933533
12:30:30,0,234,Nevins St,-73.980492,40.688246,593.9999999999999
12:30:30,0,235,Atlantic Av-Barclays Ctr,-73.977666,40.684359,503.9999999999999
12:33:30,0,236,Bergen St,-73.975098,40.680829,625.6
12:33:30,0,237,Grand Army Plaza,-73.971046,40.675235,495.6000000000001
12:33:30,0,238,Eastern Pkwy-Brooklyn Museum,-73.964375,40.671987,373.60000000000014
12:30:30,0,239,Franklin Av-Medgar Evers College,-73.958131,40.670682,175.5
12:05:30,0,241,President St-Medgar Evers College,-73.950683,40.667883,0.0
12:02:00,0,242,Sterling St,-73.95085,40.662742,91.5
12:02:00,0,243,Winthrop St,-73.9502,40.656652,204.0
12:02:00,0,244,Church Av,-73.949575,40.650843,300.0
12:02:00,0,245,Beverly Rd,-73.948959,40.645098,409.5
12:02:00,0,246,Newkirk Av-Little Haiti,-73.948411,40.639967,487.5
12:02:00,0,247,Flatbush Av-Brooklyn College,-73.947642,40.632836,625.5
12:33:30,0,248,Nostrand Av,-73.950466,40.669847,387.6
12:33:30,0,249,Kingston Av,-73.942161,40.669399,506.4000000000001
12:30:30,0,250,Crown Hts-Utica Av,-73.932942,40.668897,572.8
12:06:00,0,251,Sutter Av-Rutland Rd,-73.92261,40.664717,743.6999999999999
12:06:00,0,252,Saratoga Av,-73.916327,40.661453,870.0
12:06:00,0,253,Rockaway Av,-73.908946,40.662549,965.3000000000001
12:06:00,0,254,Junius St,-73.902447,40.663515,1065.3000000000002
12:06:00,0,255,Pennsylvania Av,-73.894895,40.664635,1183.3
12:06:00,0,256,Van Siclen Av,-73.889395,40.665449,1273.3
12:06:00,0,257,New Lots Av,-73.884079,40.666235,1378.5
12:30:30,0,301,Harlem-148 St,-73.93647,40.82388,3745.0878044128417
12:30:30,0,302,145 St,-73.936245,40.820421,3536.921951103211
13:53:30,0,401,Woodlawn,-73.878751,40.886037,4914.238094329834
13:53:30,0,402,Mosholu Pkwy,-73.884655,40.87975,4738.238094329834
12:33:30,0,405,Bedford Park Blvd-Lehman College,-73.890064,40.873412,4592.238094329834
12:33:30,0,406,Kingsbridge Rd,-73.897174,40.86776,4455.238094329834
12:33:30,0,407,Fordham Rd,-73.901034,40.862803,4350.238094329834
12:33:30,0,408,183 St,-73.903879,40.858407,4244.238094329834
12:33:30,0,409,Burnside Av,-73.907684,40.853453,4129.238094329834
12:33:30,0,410,176 St,-73.911794,40.84848,4021.238094329834
12:33:30,0,411,Mt Eden Av,-73.914685,40.844434,3922.2380943298335
12:33:30,0,412,170 St,-73.917791,40.840075,3828.238094329834
12:33:30,0,413,167 St,-73.9214,40.835537,3721.238094329834
12:33:30,0,414,161 St-Yankee Stadium,-73.925831,40.827994,3579.0000000000005
12:33:30,0,415,149 St-Grand Concourse,-73.927351,40.818375,3271.0000000000005
12:30:30,0,416,138 St-Grand Concourse,-73.929849,40.813224,2892.0
12:30:30,0,418,Fulton St,-74.009509,40.710368,1231.5
12:30:30,0,419,Wall St,-74.011862,40.707557,1132.5
12:30:30,0,420,Bowling Green,-74.014065,40.704817,1042.5
12:30:30,0,423,Borough Hall,-73.990151,40.692404,713.9999999999999
13:50:30,0,501,Eastchester-Dyre Av,-73.830834,40.8883,4693.5
13:50:30,0,502,Baychester Av,-73.838591,40.878663,4543.5
13:50:30,0,503,Gun Hill Rd,-73.846384,40.869526,4393.5
13:50:30,0,504,Pelham Pkwy,-73.855359,40.858985,4243.5
13:50:30,0,505,Morris Park,-73.860495,40.854364,4153.5
13:29:30,0,601,Pelham Bay Park,-73.828121,40.852462,4943.261910438538
13:29:30,0,602,Buhre Av,-73.832569,40.84681,4723.561910438537
13:29:30,0,603,Middletown Rd,-73.836322,40.843863,4641.561910438537
13:29:30,0,604,Westchester Sq-E Tremont Av,-73.842952,40.839892,4453.34285850525
13:29:30,0,606,Zerega Av,-73.847036,40.836488,4335.342858505249
13:29:30,0,607,Castle Hill Av,-73.851222,40.834255,4253.442858505249
12:33:30,0,608,Parkchester,-73.860816,40.833226,3926.642858505249
12:33:30,0,609,St Lawrence Av,-73.867618,40.831509,4204.187170696258
12:33:30,0,610,Morrison Av-Soundview,-73.874516,40.829521,4071.1871706962584
12:33:30,0,611,Elder Av,-73.879159,40.828584,3982.1871706962584
12:33:30,0,612,Whitlock Av,-73.886283,40.826525,3845.1871706962584
12:33:30,0,613,Hunts Point Av,-73.890549,40.820948,3574.242858505249
12:30:30,0,614,Longwood Av,-73.896435,40.816104,3742.851553535462
12:30:30,0,615,E 149 St,-73.904098,40.812118,3614.851553535462
12:30:30,0,616,E 143 St-St Mary's St,-73.907657,40.808719,3524.851553535462
12:30:30,0,617,Cypress Av,-73.914042,40.805368,3405.851553535462
12:30:30,0,618,Brook Av,-73.91924,40.807566,3326.851553535462
12:30:30,0,619,3 Av-138 St,-73.926138,40.810476,3170.242858505249
12:30:30,0,621,125 St,-73.937594,40.804138,2698.5
12:30:30,0,622,116 St,-73.941617,40.798629,2987.684972524643
12:30:30,0,623,110 St,-73.94425,40.79502,2885.684972524643
12:30:30,0,624,103 St,-73.947478,40.7906,2797.684972524643
12:30:30,0,625,96 St,-73.95107,40.785672,2690.684972524643
12:30:30,0,626,86 St,-73.955589,40.779492,2338.5
12:30:30,0,627,77 St,-73.959874,40.77362,2561.1
12:30:30,0,628,68 St-Hunter College,-73.96387,40.768141,2447.412699699402
12:30:30,0,629,59 St,-73.967967,40.762526,2106.0
12:30:30,0,630,51 St,-73.97192,40.757107,2227.0
12:30:30,0,631,Grand Central-42 St,-73.976848,40.751776,1956.0
12:30:30,0,632,33 St,-73.982076,40.746081,2211.0
12:30:30,0,633,28 St,-73.984264,40.74307,2146.380954027176
12:30:30,0,634,23 St,-73.986599,40.739864,2049.380954027176
12:30:30,0,635,14 St-Union Sq,-73.989951,40.734673,1689.0
12:30:30,0,636,Astor Pl,-73.99107,40.730054,1820.2000000000003
12:30:30,0,637,Bleecker St,-73.994659,40.725915,1709.2000000000003
12:30:30,0,638,Spring St,-73.997141,40.722301,1624.3
12:30:30,0,639,Canal St,-74.000193,40.718803,1532.4999999999998
12:30:30,0,640,Brooklyn Bridge-City Hall,-74.004131,40.713065,1351.5
12:01:00,2,701,Flushing-Main St,-73.83003,40.7596,3919.8428571428576
12:01:00,2,702,Mets-Willets Point,-73.845625,40.754622,3709.842857142857
12:01:00,2,705,111 St,-73.855334,40.75173,3831.7
12:01:00,2,706,103 St-Corona Plaza,-73.8627,40.749865,3742.7
12:01:00,2,707,Junction Blvd,-73.869527,40.749145,3462.7
12:01:00,2,708,90 St-Elmhurst Av,-73.876613,40.748408,3665.7
13:53:30,2,709,82 St-Jackson Hts,-73.883697,40.747659,3529.772513628006
12:30:30,1,710,74 St-Broadway,-73.891394,40.746848,3351.9574484825134
12:30:30,1,711,69 St,-73.896403,40.746325,3371.392308187484
12:30:30,1,712,61 St-Woodside,-73.902984,40.74563,3222.7
12:30:30,1,713,52 St,-73.912549,40.744149,3062.1
12:30:30,1,714,46 St-Bliss St,-73.918435,40.743132,2998.0999999999995
12:30:30,1,715,40 St-Lowery St,-73.924016,40.743781,2931.0999999999995
12:30:30,1,716,33 St-Rawson St,-73.930997,40.744587,2799.0999999999995
12:30:30,1,718,Queensboro Plaza,-73.940202,40.750582,2630.9999999999995
12:30:30,1,719,Court Sq,-73.945264,40.747023,2501.0
12:30:30,1,720,Hunters Point Av,-73.948916,40.742216,2396.0
12:30:30,1,721,Vernon Blvd-Jackson Av,-73.953581,40.742626,2330.8
12:46:30,1,723,Grand Central-42 St,-73.976041,40.751431,2076.0
12:46:30,1,724,5 Av,-73.981963,40.753821,2224.0
12:46:30,1,725,Times Sq-42 St,-73.987691,40.755477,2253.0000000000005
12:46:30,1,726,34 St-Hudson Yards,-74.00191,40.755882,2413.0
12:46:30,1,901,Grand Central-42 St,-73.979189,40.752769,2016.0
12:30:30,1,902,Times Sq-42 St,-73.986229,40.755983,2133.0000000000005
13:18:30,1,A02,Inwood-207 St,-73.919899,40.868072,4412.5
13:18:30,1,A03,Dyckman St,-73.927271,40.865491,4292.5
13:18:30,1,A05,190 St,-73.93418,40.859022,4127.5
13:18:30,1,A06,181 St,-73.937969,40.851695,4002.5000000000005
13:18:30,1,A07,175 St,-73.939704,40.847391,3882.5000000000005
13:18:30,1,A09,168 St,-73.939561,40.840719,3710.7000000000003
13:58:30,1,A10,163 St-Amsterdam Av,-73.939892,40.836013,3792.757896280289
13:58:30,1,A11,155 St,-73.941514,40.830518,3642.1319574356085
13:18:30,1,A12,145 St,-73.944216,40.824783,3405.7000000000003
13:18:30,1,A14,135 St,-73.947649,40.817894,3330.0000000000005
12:06:00,1,A15,125 St,-73.952343,40.811109,3160.0000000000005
12:06:00,1,A16,116 St,-73.954882,40.805085,3325.157896280289
12:38:30,1,A17,Cathedral Pkwy (110 St),-73.958161,40.800603,3309.5
12:38:30,1,A18,103 St,-73.961454,40.796092,3198.5
12:38:30,1,A19,96 St,-73.964696,40.791642,3080.4999999999995
12:38:30,1,A20,86 St,-73.968916,40.785868,2938.0000000000005
12:38:30,1,A21,81 St-Museum of Natural History,-73.972143,40.781433,2818.0000000000005
12:38:30,1,A22,72 St,-73.97641,40.775594,2687.5000000000005
12:38:30,1,A24,59 St-Columbus Circle,-73.981736,40.768296,2440.0000000000005
13:18:30,1,A25,50 St,-73.985984,40.762456,2375.0
12:38:30,1,A27,42 St-Port Authority Bus Terminal,-73.989735,40.757308,2253.0000000000005
12:38:30,1,A28,34 St-Penn Station,-73.993391,40.752287,2303.8941663265227
12:38:30,1,A30,23 St,-73.998041,40.745906,2148.794166326523
12:38:30,1,A31,14 St,-74.00169,40.740893,2028.7941663265226
12:38:30,1,A32,W 4 St-Wash Sq,-74.000495,40.732338,1898.7941663265228
12:30:30,1,A33,Spring St,-74.003739,40.726227,1804.6870245933535
12:38:30,1,A34,Canal St,-74.005229,40.720824,1671.6870245933533
12:38:30,1,A36,Chambers St,-74.008585,40.714111,1580.9999992847443
12:38:30,1,A38,Fulton St,-74.007691,40.710197,1460.9999992847443
12:30:30,2,A40,High St,-73.990531,40.699337,1342.1
13:34:30,2,A41,Jay St-MetroTech,-73.987342,40.692338,1184.1
13:34:30,2,A42,Hoyt-Schermerhorn Sts,-73.985001,40.688484,1180.9
13:05:30,2,A43,Lafayette Av,-73.973946,40.686113,1009.9
13:05:30,2,A44,Clinton-Washington Avs,-73.965838,40.683263,894.9000000000001
12:38:30,2,A45,Franklin Av,-73.956848,40.68138,774.9000000000001
12:38:30,2,A46,Nostrand Av,-73.950426,40.680438,886.9000000000001
12:38:30,2,A47,Kingston-Throop Avs,-73.940858,40.679921,1006.9
12:38:30,2,A48,Utica Av,-73.930729,40.679364,1126.9
12:38:30,2,A49,Ralph Av,-73.920786,40.678822,1249.9
12:38:30,2,A50,Rockaway Av,-73.911946,40.67834,1369.9
12:38:30,2,A51,Broadway Junction,-73.905316,40.678334,1473.7421058654784
12:38:30,2,A52,Liberty Av,-73.896548,40.674542,1637.6179839134218
12:38:30,2,A53,Van Siclen Av,-73.890358,40.67271,1752.6179839134218
12:38:30,2,A54,Shepherd Av,-73.88075,40.67413,1877.6179839134218
12:38:30,2,A55,Euclid Av,-73.872106,40.675377,1893.7421058654784
12:38:30,2,A57,Grant Av,-73.86505,40.677044,2058.7421058654786
12:38:30,2,A59,80 St,-73.858992,40.679371,2180.742105865478
12:38:30,2,A60,88 St,-73.85147,40.679843,2301.742105865478
12:38:30,2,A61,Rockaway Blvd,-73.843853,40.680429,2421.742105865478
12:38:30,2,A63,104 St,-73.837683,40.681711,2541.742105865478
13:18:30,2,A64,111 St,-73.832163,40.684331,2661.742105865478
13:18:30,2,A65,Ozone Park-Lefferts Blvd,-73.825798,40.685951,2793.7421058654786
13:50:30,1,B04,21 St-Queensbridge,-73.942836,40.754203,2733.5
13:50:30,1,B06,Roosevelt Island,-73.95326,40.759145,2627.492589855194
12:06:00,1,B08,Lexington Av/63 St,-73.966113,40.764629,2466.0
13:18:30,1,B10,57 St,-73.97745,40.763972,2534.1
12:38:30,1,B12,9 Av,-73.994324,40.646292,1805.339623451233
12:38:30,1,B13,Fort Hamilton Pkwy,-73.994304,40.640914,1925.3396234512331
12:38:30,1,B14,50 St,-73.994791,40.63626,2037.3396234512331
12:38:30,1,B15,55 St,-73.995476,40.631435,2164.3396234512334
12:38:30,1,B16,62 St,-73.996895,40.626472,2269.3396234512334
12:38:30,1,B17,71 St,-73.998864,40.619589,2389.3396234512334
12:38:30,1,B18,79 St,-74.00061,40.613501,2512.339623451233
12:38:30,1,B19,18 Av,-74.001736,40.607954,2627.339623451233
12:38:30,1,B20,20 Av,-73.998168,40.604556,2742.339623451233
12:38:30,1,B21,Bay Pkwy,-73.993728,40.601875,2852.339623451233
13:58:30,1,B22,25 Av,-73.986829,40.597704,2937.4900003433236
13:58:30,1,B23,Bay 50 St,-73.983765,40.588841,2760.4900003433236
12:06:00,1,D01,Norwood-205 St,-73.878855,40.874811,4958.315792560577
12:06:00,1,D03,Bedford Park Blvd,-73.887138,40.873244,4730.315792560577
12:06:00,1,D04,Kingsbridge Rd,-73.893509,40.866978,4590.315792560577
12:06:00,1,D05,Fordham Rd,-73.897749,40.861296,4470.315792560577
12:06:00,1,D06,182-183 Sts,-73.900741,40.856093,4398.315792560578
13:34:30,1,D07,Tremont Av,-73.905227,40.85041,4285.315792560577
13:34:30,1,D08,174-175 Sts,-73.910136,40.8459,4207.207947635651
13:34:30,1,D09,170 St,-73.9134,40.839306,4085.807947635651
13:34:30,1,D10,167 St,-73.91844,40.833771,3962.807947635651
13:34:30,1,D11,161 St-Yankee Stadium,-73.925651,40.827905,3815.238094329834
13:34:30,1,D12,155 St,-73.938209,40.830135,3678.315792560578
12:06:00,1,D13,145 St,-73.944216,40.824783,3500.3157925605774
12:38:30,1,D14,7 Av,-73.981637,40.762862,2495.0
12:38:30,1,D15,47-50 Sts-Rockefeller Ctr,-73.981329,40.758663,2384.7616825103755
12:38:30,1,D16,42 St-Bryant Pk,-73.984569,40.754222,2249.7616825103755
12:38:30,1,D17,34 St-Herald Sq,-73.987823,40.749719,2132.7616825103755
12:38:30,1,D18,23 St,-73.992821,40.742878,2144.1
12:38:30,1,D19,14 St,-73.996209,40.738228,2039.1
12:38:30,1,D20,W 4 St-Wash Sq,-74.000495,40.732338,1870.2616825103757
12:38:30,1,D21,Broadway-Lafayette St,-73.996204,40.725297,1690.2616825103757
12:38:30,1,D22,Grand St,-73.993753,40.718267,1520.2616825103757
12:38:30,1,D24,Atlantic Av-Barclays Ctr,-73.97689,40.68446,731.2619032859801
13:02:30,1,D25,7 Av,-73.972367,40.67705,904.2619032859801
12:49:30,1,D26,Prospect Park,-73.962246,40.661614,580.5
12:49:30,1,D27,Parkside Av,-73.961495,40.655292,958.8238089561463
12:49:30,1,D28,Church Av,-73.962982,40.650527,872.0499985694886
12:49:30,1,D29,Beverley Rd,-73.964492,40.644031,1020.7404761791229
12:49:30,1,D30,Cortelyou Rd,-73.963891,40.640927,1135.7404761791229
12:49:30,1,D31,Newkirk Plaza,-73.962793,40.635082,1092.0499985694885
12:49:30,1,D32,Avenue H,-73.961639,40.62927,1246.3699994564056
12:49:30,1,D33,Avenue J,-73.960803,40.625039,1367.3699994564056
12:49:30,1,D34,Avenue M,-73.959399,40.617618,1495.3699994564056
12:49:30,1,D35,Kings Hwy,-73.957734,40.60867,1435.5499985694887
12:38:30,1,D37,Avenue U,-73.955929,40.5993,1680.5603106498722
12:38:30,1,D38,Neck Rd,-73.955161,40.595246,1835.760310649872
12:49:30,1,D39,Sheepshead Bay,-73.954155,40.586896,1775.290000343323
12:38:30,1,D40,Brighton Beach,-73.961376,40.577621,1955.290000343323
12:38:30,1,D41,Ocean Pkwy,-73.968501,40.576312,2135.390000343323
12:38:30,1,D42,W 8 St-NY Aquarium,-73.975939,40.576127,2300.390000343323
12:38:30,1,D43,Coney Island-Stillwell Av,-73.981233,40.577422,2418.3900003433237
13:26:30,1,E01,World Trade Center,-74.009781,40.712582,1477.6870245933533
12:14:00,1,F01,Jamaica-179 St,-73.783817,40.712646,4125.9
12:33:30,1,F02,169 St,-73.793604,40.71047,4035.899999999999
13:02:30,1,F03,Parsons Blvd,-73.803326,40.707564,3900.899999999999
13:02:30,1,F04,Sutphin Blvd,-73.810708,40.70546,3810.8999999999996
13:02:30,1,F05,Briarwood,-73.820574,40.709179,3540.8999999999996
13:02:30,1,F06,Kew Gardens-Union Tpke,-73.831008,40.714441,3695.8999999999996
13:02:30,1,F07,75 Av,-73.837324,40.718331,3681.0
13:02:30,1,F09,Court Sq-23 St,-73.946,40.747846,2621.0
12:38:30,1,F11,Lexington Av/53 St,-73.969055,40.757552,2461.947367668152
12:38:30,1,F12,5 Av/53 St,-73.975224,40.760167,2562.8098212516666
12:57:30,1,F14,2 Av,-73.989938,40.723402,1664.1
13:34:30,2,F15,Delancey St-Essex St,-73.988114,40.718611,1544.1
13:50:30,2,F16,East Broadway,-73.990173,40.713715,1454.1
13:50:30,2,F18,York St,-73.986751,40.701397,1274.1
12:14:00,2,F20,Bergen St,-73.990862,40.686145,1364.1
13:10:30,2,F21,Carroll St,-73.995048,40.680303,1494.1
13:10:30,2,F22,Smith-9 Sts,-73.995959,40.67358,1405.2054069519043
12:30:30,2,F23,4 Av-9 St,-73.989779,40.670272,1285.2054069519043
12:30:30,2,F24,7 Av,-73.980305,40.666271,1417.9192684173584
12:30:30,2,F25,15 St-Prospect Park,-73.979493,40.660365,1542.9192684173584
12:30:30,2,F26,Fort Hamilton Pkwy,-73.975776,40.650782,1767.2054069519045
12:30:30,2,F27,Church Av,-73.979678,40.644041,1706.084407377243
12:30:30,2,F29,Ditmas Av,-73.978172,40.636119,1826.084407377243
12:30:30,2,F30,18 Av,-73.976971,40.629755,1946.0844073772432
12:30:30,2,F31,Avenue I,-73.976127,40.625322,2006.0844073772432
12:30:30,2,F32,Bay Pkwy,-73.975264,40.620769,2066.084407377243
12:30:30,2,F33,Avenue N,-73.974197,40.61514,2186.084407377243
12:30:30,2,F34,Avenue P,-73.973022,40.608944,2276.084407377243
12:57:30,1,F35,Kings Hwy,-73.972361,40.603217,2561.084407377243
12:57:30,1,F36,Avenue U,-73.973357,40.596063,2681.9844073772433
12:57:30,1,F38,Avenue X,-73.97425,40.58962,2750.390000343323
12:57:30,1,F39,Neptune Av,-73.974574,40.581011,2615.390000343323
13:53:30,1,G05,Jamaica Center-Parsons/Archer,-73.801109,40.702147,2987.9
13:02:30,1,G06,Sutphin Blvd-Archer Av-JFK Airport,-73.807969,40.700486,2927.9
13:02:30,1,G07,Jamaica-Van Wyck,-73.816859,40.702566,3353.8999999999996
13:02:30,1,G08,Forest Hills-71 Av,-73.844521,40.721691,3561.0
13:02:30,1,G09,67 Av,-73.852719,40.726523,3741.0
13:02:30,1,G10,63 Dr-Rego Park,-73.861604,40.729846,3801.0
13:02:30,1,G11,Woodhaven Blvd,-73.869229,40.733106,3711.0
13:02:30,1,G12,Grand Av-Newtown,-73.877223,40.737015,3591.0
13:02:30,1,G13,Elmhurst Av,-73.882017,40.742454,3501.0
13:02:30,1,G14,Jackson Hts-Roosevelt Av,-73.891338,40.746644,3141.0
12:46:30,1,G15,65 St,-73.898453,40.749669,3311.0126236061437
13:26:30,1,G16,Northern Blvd,-73.906006,40.752885,3210.24012428197
13:26:30,1,G18,46 St,-73.913333,40.756312,3120.24012428197
13:26:30,1,G19,Steinway St,-73.92074,40.756879,3000.24012428197
13:26:30,1,G20,36 St,-73.928781,40.752039,2880.24012428197
13:02:30,1,G21,Queens Plaza,-73.937243,40.748973,2744.3673469387754
13:18:30,2,G22,Court Sq,-73.943832,40.746554,2561.0
13:18:30,2,G24,21 St,-73.949724,40.744065,2681.0
13:18:30,2,G26,Greenpoint Av,-73.954449,40.731352,2665.4957462787634
13:18:30,2,G28,Nassau Av,-73.951277,40.724635,2540.495746278763
13:18:30,2,G29,Metropolitan Av,-73.951418,40.712792,2355.495746278763
13:18:30,2,G30,Broadway,-73.950308,40.706092,2237.495746278763
13:18:30,2,G31,Flushing Av,-73.950234,40.700377,2117.495746278763
13:18:30,2,G32,Myrtle-Willoughby Avs,-73.949046,40.694568,2000.4957462787627
13:18:30,2,G33,Bedford-Nostrand Avs,-73.953522,40.689627,1880.495746278763
13:18:30,2,G34,Classon Av,-73.96007,40.688873,1765.495746278763
13:18:30,2,G35,Clinton-Washington Avs,-73.966839,40.688089,1652.495746278763
13:18:30,2,G36,Fulton St,-73.975375,40.687119,1532.495746278763
12:46:30,2,H01,Aqueduct Racetrack,-73.834058,40.668234,2663.742105865478
13:58:30,2,H02,Aqueduct-N Conduit Av,-73.834058,40.668234,2702.8179839134214
13:58:30,2,H03,Howard Beach-JFK Airport,-73.830301,40.660476,2878.8179839134214
13:58:30,2,H04,Broad Channel,-73.815925,40.608382,3454.6421058654782
13:58:30,2,H06,Beach 67 St,-73.796924,40.590927,3896.242105865478
13:58:30,2,H07,Beach 60 St,-73.788522,40.592374,4022.517983913421
13:58:30,2,H08,Beach 44 St,-73.776013,40.592943,4153.242105865478
13:58:30,2,H09,Beach 36 St,-73.768175,40.595398,4273.517983913422
13:58:30,2,H10,Beach 25 St,-73.761353,40.600066,4396.242105865478
13:58:30,2,H11,Far Rockaway-Mott Av,-73.755405,40.603995,4516.242105865478
13:58:30,2,H12,Beach 90 St,-73.813641,40.588034,3801.442105865478
13:58:30,2,H13,Beach 98 St,-73.820558,40.585307,3924.442105865478
13:58:30,2,H14,Beach 105 St,-73.827559,40.583209,4039.4421058654784
13:58:30,2,H15,Rockaway Park-Beach 116 St,-73.835592,40.580903,4162.442105865478
13:45:30,2,J12,121 St,-73.828294,40.700492,2687.9
13:45:30,2,J13,111 St,-73.836345,40.697418,2852.9
13:45:30,2,J14,104 St,-73.84433,40.695178,2507.9
13:45:30,2,J15,Woodhaven Blvd,-73.851576,40.693879,2417.9
13:45:30,2,J16,85 St-Forest Pkwy,-73.86001,40.692435,2617.9
13:45:30,2,J17,75 St-Elderts Ln,-73.867139,40.691324,2237.9
13:45:30,2,J19,Cypress Hills,-73.87255,40.689941,2482.733332538605
13:45:30,2,J20,Crescent St,-73.873785,40.683194,2087.9
13:45:30,2,J21,Norwood Av,-73.880039,40.68141,1997.8999999999999
13:45:30,2,J22,Cleveland St,-73.884639,40.679947,2079.936281108856
13:45:30,2,J23,Van Siclen Av,-73.891688,40.678024,1847.8999999999999
13:45:30,2,J24,Alabama Av,-73.898654,40.676992,1787.8999999999999
13:05:30,2,J27,Broadway Junction,-73.904512,40.679498,1697.8999999999999
12:06:00,2,J28,Chauncey St,-73.910456,40.682893,1757.8999999999999
12:06:00,2,J29,Halsey St,-73.916559,40.68637,1970.642106437683
12:06:00,2,J30,Gates Av,-73.92227,40.68963,1907.8999999999999
12:06:00,2,J31,Kosciuszko St,-73.928814,40.693342,2208.936281108856
12:54:30,1,L01,8 Av,-74.002578,40.739777,2088.794166326523
12:54:30,1,L02,6 Av,-73.996786,40.737335,2020.9610397815704
12:54:30,1,L03,14 St-Union Sq,-73.99073,40.734789,1902.9610397815704
13:02:30,1,L05,3 Av,-73.986122,40.732849,1994.8610397815703
13:02:30,1,L06,1 Av,-73.981628,40.730953,2047.8610397815703
13:02:30,1,L08,Bedford Av,-73.956872,40.717304,2273.86103978157
13:02:30,1,L10,Lorimer St,-73.950275,40.714063,2388.86103978157
13:02:30,1,L11,Graham Av,-73.944053,40.714565,2449.86103978157
13:02:30,1,L12,Grand St,-73.94067,40.711926,2546.86103978157
13:02:30,1,L13,Montrose Av,-73.93985,40.707739,2488.1604931354523
12:06:00,1,L14,Morgan Av,-73.933147,40.706152,2402.1604931354527
12:06:00,1,L15,Jefferson St,-73.922913,40.706607,2306.1604931354523
12:06:00,1,L16,DeKalb Av,-73.918425,40.703811,2227.1604931354523
12:06:00,1,L17,Myrtle-Wyckoff Avs,-73.911586,40.699814,2131.1604931354523
12:06:00,1,L19,Halsey St,-73.904084,40.695602,2056.1604931354523
12:06:00,1,L20,Wilson Av,-73.904046,40.688764,1920.1604931354523
12:06:00,1,L21,Bushwick Av-Aberdeen St,-73.905249,40.682829,1806.160493135452
12:06:00,1,L22,Broadway Junction,-73.90324,40.678856,1691.3809942245482
12:06:00,1,L24,Atlantic Av,-73.903097,40.675345,1607.3
12:06:00,1,L25,Sutter Av,-73.901975,40.669367,1508.3000000000002
12:06:00,1,L26,Livonia Av,-73.900571,40.664038,1404.0499988079073
12:06:00,1,L27,New Lots Av,-73.899232,40.658733,1502.1000000000004
12:06:00,1,L28,East 105 St,-73.899485,40.650573,1656.1000000000004
12:06:00,1,L29,Canarsie-Rockaway Pkwy,-73.90185,40.646654,1830.0499988079073
12:06:00,2,M01,Middle Village-Metropolitan Av,-73.889601,40.711396,2840.5604931354524
12:06:00,2,M04,Fresh Pond Rd,-73.895877,40.706186,2708.5604931354524
12:06:00,2,M05,Forest Av,-73.903077,40.704423,2597.5604931354524
12:06:00,2,M06,Seneca Av,-73.90774,40.702762,2477.5604931354524
13:18:30,1,M08,Myrtle-Wyckoff Avs,-73.912385,40.69943,2356.1604931354523
12:06:00,2,M09,Knickerbocker Av,-73.919711,40.698664,2464.900004768371
13:18:30,1,M10,Central Av,-73.927397,40.697857,2348.900004768371
12:38:30,1,M11,Myrtle Av,-73.935657,40.697207,2087.9
12:38:30,1,M12,Flushing Av,-73.941126,40.70026,2337.9000047683717
12:38:30,1,M13,Lorimer St,-73.947408,40.703869,2428.5
12:38:30,1,M14,Hewes St,-73.953431,40.70687,2308.5
12:38:30,1,M16,Marcy Av,-73.957757,40.708359,2203.5
12:38:30,1,M18,Delancey St-Essex St,-73.987437,40.718315,1784.1
12:30:30,1,M19,Bowery,-73.993915,40.72028,1712.2999999999997
12:30:30,1,M20,Canal St,-73.999892,40.718092,1591.5
12:30:30,1,M21,Chambers St,-74.003401,40.713243,1471.5
12:30:30,1,M22,Fulton St,-74.007582,40.710374,1580.9999992847443
13:02:30,1,M23,Broad St,-74.011056,40.706476,1648.9999992847443
12:46:30,1,N02,8 Av,-74.011719,40.635064,2005.9999999999998
12:46:30,1,N03,Fort Hamilton Pkwy,-74.005351,40.631386,2182.3999999999996
12:46:30,1,N04,New Utrecht Av,-73.996353,40.624842,2336.8999999999996
12:46:30,1,N05,18 Av,-73.990414,40.620671,2443.8999999999996
12:46:30,1,N06,20 Av,-73.985026,40.61741,2518.8999999999996
12:46:30,1,N07,Bay Pkwy,-73.981848,40.611815,2673.8999999999996
12:46:30,1,N08,Kings Hwy,-73.980353,40.603923,2826.0
12:46:30,1,N09,Avenue U,-73.979137,40.597473,2836.5900003433235
12:46:30,1,N10,86 St,-73.97823,40.592721,2721.390000343323
12:46:30,1,Q01,Canal St,-74.00046,40.718383,1510.8
12:06:00,1,Q03,72 St,-73.958424,40.768799,2607.4
12:06:00,1,Q04,86 St,-73.951787,40.777891,2786.0
12:06:00,1,Q05,96 St,-73.947152,40.784318,2906.0
13:02:30,1,R01,Astoria-Ditmars Blvd,-73.912034,40.775036,3506.80000166893
13:02:30,1,R03,Astoria Blvd,-73.917843,40.770258,3391.80000166893
13:02:30,1,R04,30 Av,-73.921479,40.766779,3267.80000166893
13:02:30,1,R05,Broadway,-73.925508,40.76182,3147.80000166893
13:02:30,1,R06,36 Av,-73.929575,40.756804,3017.80000166893
13:02:30,1,R08,39 Av-Dutch Kills,-73.932755,40.752882,2873.0000016689296
13:02:30,1,R09,Queensboro Plaza,-73.940202,40.750582,2678.0000016689296
12:46:30,1,R11,Lexington Av/59 St,-73.967258,40.76266,2335.9090898036957
12:46:30,1,R13,5 Av/59 St,-73.973347,40.764811,2455.9090898036957
12:06:00,1,R14,57 St-7 Av,-73.980658,40.764664,2512.4000000000005
12:06:00,1,R15,49 St,-73.984139,40.759901,2373.0000000000005
12:06:00,1,R16,Times Sq-42 St,-73.986754,40.754672,2253.0000000000005
12:06:00,1,R17,34 St-Herald Sq,-73.98795,40.749567,2166.0619032859804
12:06:00,1,R18,28 St,-73.988691,40.745494,2163.0540528297424
12:06:00,1,R19,23 St,-73.989344,40.741303,2048.0540528297424
12:46:30,1,R20,14 St-Union Sq,-73.990568,40.735736,1870.8
13:58:30,1,R21,8 St-NYU,-73.992629,40.730328,2012.4999999999998
13:58:30,1,R22,Prince St,-73.997702,40.724329,1892.4999999999998
13:58:30,1,R23,Canal St,-74.001775,40.719527,1768.080356121063
13:58:30,1,R24,City Hall,-74.006978,40.713282,1689.0
13:58:30,1,R25,Cortlandt St,-74.011029,40.710668,1459.0
13:58:30,1,R26,Rector St,-74.013342,40.70722,1302.0
13:58:30,1,R27,Whitehall St-South Ferry,-74.012994,40.703087,1189.0
13:34:30,1,R28,Court St,-73.991777,40.6941,953.9999999999999
12:30:30,1,R29,Jay St-MetroTech,-73.985942,40.69218,1049.1
12:38:30,1,R30,DeKalb Av,-73.981824,40.690635,915.2619032859801
13:50:30,1,R31,Atlantic Av-Barclays Ctr,-73.97881,40.683666,743.9999999999999
12:30:30,1,R32,Union St,-73.98311,40.677316,910.5
12:30:30,1,R33,4 Av-9 St,-73.988302,40.670847,1044.8
12:30:30,1,R34,Prospect Av,-73.992872,40.665414,1179.8
12:30:30,1,R35,25 St,-73.998091,40.660397,1303.0
12:38:30,1,R36,36 St,-74.003549,40.655144,1366.0
12:30:30,1,R39,45 St,-74.010006,40.648939,1606.0
12:30:30,1,R40,53 St,-74.014034,40.645069,1736.0
12:46:30,1,R41,59 St,-74.017881,40.641362,1790.0
12:30:30,1,R42,Bay Ridge Av,-74.023377,40.634967,1970.540540218353
12:30:30,1,R43,77 St,-74.02551,40.629742,2085.540540218353
12:30:30,1,R44,86 St,-74.028398,40.622687,2304.305553436279
13:10:30,1,R45,Bay Ridge-95 St,-74.030876,40.616622,2424.305553436279
12:38:30,1,S01,Franklin Av,-73.955827,40.680596,689.2499985694885
12:38:30,1,S03,Park Pl,-73.957624,40.674772,563.2499985694885
12:49:30,1,S04,Botanic Garden,-73.959245,40.670343,400.5
