start_time,ntransfers,stop_id,stop_name,stop_lon,stop_lat,duration
12:09:00,0,101,Van Cortlandt Park-242 St,-73.898583,40.889248,5810.19790725708
12:09:00,0,103,238 St,-73.90087,40.884667,5609.69790725708
12:09:00,0,104,231 St,-73.904834,40.878856,5468.69790725708
12:09:00,0,106,Marble Hill-225 St,-73.909831,40.874561,5358.697907257081
12:09:00,0,107,215 St,-73.915279,40.869444,5230.69790725708
12:09:00,0,108,207 St,-73.918822,40.864621,5112.69790725708
12:09:00,0,109,Dyckman St,-73.925536,40.860531,4991.69790725708
12:09:00,0,110,191 St,-73.929412,40.855225,4884.69790725708
12:09:00,0,111,181 St,-73.933596,40.849505,4773.697907257081
12:09:00,0,112,168 St-Washington Hts,-73.940133,40.840556,4638.697907257081
12:09:00,0,113,157 St,-73.94489,40.834041,4526.697907257081
12:09:00,0,114,145 St,-73.95036,40.826551,4396.697907257081
12:09:00,0,115,137 St-City College,-73.953676,40.822008,4282.69790725708
12:09:00,0,116,125 St,-73.958372,40.815581,4161.89790725708
12:09:00,0,117,116 St-Columbia University,-73.96411,40.807722,3996.8979072570805
12:09:00,0,118,Cathedral Pkwy (110 St),-73.966847,40.803967,3911.89790725708
12:09:00,0,119,103 St,-73.968379,40.799446,3823.8979072570805
12:01:00,0,120,96 St,-73.972323,40.793919,3534.9
12:01:00,0,121,86 St,-73.976218,40.788644,3560.7979072570806
12:01:00,0,122,79 St,-73.979917,40.783934,3467.09790725708
12:01:00,0,123,72 St,-73.98197,40.778453,3317.2
12:17:00,0,124,66 St-Lincoln Center,-73.982209,40.77344,3395.26103978157
12:17:00,0,125,59 St-Columbus Circle,-73.981929,40.768247,3301.2610397815697
12:17:00,0,126,50 St,-73.983849,40.761728,3173.2610397815697
12:01:00,0,127,Times Sq-42 St,-73.987495,40.75529,3032.2
12:01:00,0,128,34 St-Penn Station,-73.991057,40.750373,2903.2
12:09:00,0,129,28 St,-73.993365,40.747215,2934.7
12:09:00,0,130,23 St,-73.995657,40.744081,2855.6999999999994
12:09:00,0,131,18 St,-73.997871,40.74104,2778.7
12:01:00,0,132,14 St,-74.000201,40.737826,2695.7
12:01:00,0,133,Christopher St-Sheridan Sq,-74.002906,40.733422,2809.4999999999995
12:01:00,0,134,Houston St,-74.005367,40.728251,2913.5
12:01:00,0,135,Canal St,-74.006277,40.722854,2823.964706373215
12:01:00,0,136,Franklin St,-74.006886,40.719318,2750.964706373215
12:01:00,0,137,Chambers St,-74.009266,40.715478,2461.321951103211
12:17:00,0,138,WTC Cortlandt,-74.012188,40.711835,2579.564706373215
12:17:00,0,139,Rector St,-74.013783,40.707513,2477.564706373215
12:17:00,0,142,South Ferry,-74.013664,40.702068,2334.564706373215
13:37:00,0,201,Wakefield-241 St,-73.85062,40.903125,6406.222106409072
13:37:00,0,204,Nereid Av,-73.854376,40.898379,6145.579954576492
13:37:00,0,205,233 St,-73.857473,40.893193,5987.979954576493
13:37:00,0,206,225 St,-73.860341,40.888022,5887.979954576493
13:37:00,0,207,219 St,-73.862633,40.883895,5802.779954576492
13:37:00,0,208,Gun Hill Rd,-73.866256,40.87785,5687.479954576492
13:37:00,0,209,Burke Av,-73.867164,40.871356,5698.222106409073
13:37:00,0,210,Allerton Av,-73.867352,40.865462,5595.222106409072
13:37:00,0,211,Pelham Pkwy,-73.867615,40.857192,5470.222106409073
13:37:00,0,212,Bronx Park East,-73.868457,40.848828,5331.222106409073
13:37:00,0,213,E 180 St,-73.873488,40.841894,4836.16103978157
12:01:00,0,214,West Farms Sq-E Tremont Av,-73.880049,40.840295,5217.861039781569
12:01:00,0,215,174 St,-73.887734,40.837288,5068.861039781569
12:01:00,0,216,Freeman St,-73.891865,40.829993,4922.861039781569
12:01:00,0,217,Simpson St,-73.893064,40.824073,4795.861039781569
13:37:00,0,218,Intervale Av,-73.896736,40.822181,4709.861039781569
13:37:00,0,219,Prospect Av,-73.90177,40.819585,4606.861039781569
12:01:00,0,220,Jackson Av,-73.907807,40.81649,4482.861039781569
13:37:00,0,221,3 Av-149 St,-73.917757,40.816109,4110.16103978157
12:01:00,0,222,149 St-Grand Concourse,-73.926718,40.81841,3990.1610397815703
12:01:00,0,224,135 St,-73.94077,40.814229,4173.099999999999
12:01:00,0,225,125 St,-73.945495,40.807754,4036.1
12:01:00,0,226,116 St,-73.949625,40.802098,3920.0999999999995
12:01:00,0,227,Central Park North (110 St),-73.951822,40.799075,3835.9
12:01:00,0,228,Park Place,-74.008811,40.713051,2355.8882370471956
12:01:00,0,229,Fulton St,-74.006571,40.709416,2213.8882370471956
12:01:00,0,230,Wall St,-74.0091,40.706821,2116.8882370471956
12:01:00,0,231,Clark St,-73.993086,40.697466,1882.8882370471954
12:01:00,0,232,Borough Hall,-73.989998,40.693219,1779.8882370471956
12:01:00,0,233,Hoyt St,-73.985065,40.690545,1672.8882370471954
12:01:00,0,234,Nevins St,-73.980492,40.688246,1517.3
12:01:00,0,235,Atlantic Av-Barclays Ctr,-73.977666,40.684359,1401.3
12:01:00,0,236,Bergen St,-73.975098,40.680829,1472.6
12:01:00,0,237,Grand Army Plaza,-73.971046,40.675235,1352.0
12:01:00,0,238,Eastern Pkwy-Brooklyn Museum,-73.964375,40.671987,1220.8
12:01:00,0,239,Franklin Av-Medgar Evers College,-73.958131,40.670682,1015.5999999999999
12:01:00,0,241,President St-Medgar Evers College,-73.950683,40.667883,1273.3
12:01:00,0,242,Sterling St,-73.95085,40.662742,1379.3
12:01:00,0,243,Winthrop St,-73.9502,40.656652,1484.3
12:01:00,0,244,Church Av,-73.949575,40.650843,1588.3
12:01:00,0,245,Beverly Rd,-73.948959,40.645098,1692.3000000000002
12:01:00,0,246,Newkirk Av-Little Haiti,-73.948411,40.639967,1796.4000000000003
12:01:00,0,247,Flatbush Av-Brooklyn College,-73.947642,40.632836,2063.4000000000005
12:01:00,0,248,Nostrand Av,-73.950466,40.669847,910.8
12:01:00,0,249,Kingston Av,-73.942161,40.669399,797.8
12:01:00,0,250,Crown Hts-Utica Av,-73.932942,40.668897,662.8
12:01:00,0,251,Sutter Av-Rutland Rd,-73.92261,40.664717,504.99999999999994
12:01:00,0,252,Saratoga Av,-73.916327,40.661453,385.40000000000003
12:01:00,0,253,Rockaway Av,-73.908946,40.662549,282.0
12:01:00,0,254,Junius St,-73.902447,40.663515,194.0
12:01:00,0,255,Pennsylvania Av,-73.894895,40.664635,84.0
12:02:00,0,256,Van Siclen Av,-73.889395,40.665449,0.0
12:02:00,0,257,New Lots Av,-73.884079,40.666235,105.20000000000005
12:01:00,0,301,Harlem-148 St,-73.93647,40.82388,4562.4
12:01:00,0,302,145 St,-73.936245,40.820421,4395.4
13:37:00,0,401,Woodlawn,-73.878751,40.886037,5806.899134111404
13:37:00,0,402,Mosholu Pkwy,-73.884655,40.87975,5630.899134111403
12:01:00,0,405,Bedford Park Blvd-Lehman College,-73.890064,40.873412,5484.899134111403
12:01:00,0,406,Kingsbridge Rd,-73.897174,40.86776,5347.899134111403
12:01:00,0,407,Fordham Rd,-73.901034,40.862803,5242.899134111403
12:01:00,0,408,183 St,-73.903879,40.858407,5136.899134111403
12:01:00,0,409,Burnside Av,-73.907684,40.853453,5021.899134111403
12:01:00,0,410,176 St,-73.911794,40.84848,4913.899134111403
12:01:00,0,411,Mt Eden Av,-73.914685,40.844434,4814.899134111403
12:01:00,0,412,170 St,-73.917791,40.840075,4720.899134111403
12:01:00,0,413,167 St,-73.9214,40.835537,4613.899134111403
12:01:00,0,414,161 St-Yankee Stadium,-73.925831,40.827994,4471.66103978157
12:01:00,0,415,149 St-Grand Concourse,-73.927351,40.818375,4163.661039781569
12:01:00,0,416,138 St-Grand Concourse,-73.929849,40.813224,3784.6610397815703
12:01:00,0,418,Fulton St,-74.009509,40.710368,2196.3
12:01:00,0,419,Wall St,-74.011862,40.707557,2098.3
12:01:00,0,420,Bowling Green,-74.014065,40.704817,2000.3000000000002
12:01:00,0,423,Borough Hall,-73.990151,40.692404,1680.3000000000002
13:37:00,0,501,Eastchester-Dyre Av,-73.830834,40.8883,5586.16103978157
13:37:00,0,502,Baychester Av,-73.838591,40.878663,5436.16103978157
13:37:00,0,503,Gun Hill Rd,-73.846384,40.869526,5286.16103978157
13:37:00,0,504,Pelham Pkwy,-73.855359,40.858985,5136.16103978157
13:37:00,0,505,Morris Park,-73.860495,40.854364,5046.16103978157
13:13:00,0,601,Pelham Bay Park,-73.828121,40.852462,5835.922950220108
13:13:00,0,602,Buhre Av,-73.832569,40.84681,5616.222950220107
13:13:00,0,603,Middletown Rd,-73.836322,40.843863,5534.222950220108
13:13:00,0,604,Westchester Sq-E Tremont Av,-73.842952,40.839892,5346.00389828682
13:13:00,0,606,Zerega Av,-73.847036,40.836488,5228.00389828682
13:13:00,0,607,Castle Hill Av,-73.851222,40.834255,5146.10389828682
12:01:00,0,608,Parkchester,-73.860816,40.833226,4819.303898286819
12:01:00,0,609,St Lawrence Av,-73.867618,40.831509,5096.848210477829
12:01:00,0,610,Morrison Av-Soundview,-73.874516,40.829521,4963.848210477829
12:01:00,0,611,Elder Av,-73.879159,40.828584,4874.848210477829
12:01:00,0,612,Whitlock Av,-73.886283,40.826525,4737.848210477829
12:01:00,0,613,Hunts Point Av,-73.890549,40.820948,4466.90389828682
12:01:00,0,614,Longwood Av,-73.896435,40.816104,4635.512593317032
12:01:00,0,615,E 149 St,-73.904098,40.812118,4507.512593317031
12:01:00,0,616,E 143 St-St Mary's St,-73.907657,40.808719,4417.512593317031
12:01:00,0,617,Cypress Av,-73.914042,40.805368,4298.512593317031
12:01:00,0,618,Brook Av,-73.91924,40.807566,4219.512593317032
12:01:00,0,619,3 Av-138 St,-73.926138,40.810476,4062.9038982868196
12:01:00,0,621,125 St,-73.937594,40.804138,3591.1610397815703
12:01:00,0,622,116 St,-73.941617,40.798629,3880.3460123062127
12:01:00,0,623,110 St,-73.94425,40.79502,3778.3460123062127
12:01:00,0,624,103 St,-73.947478,40.7906,3690.3460123062127
12:01:00,0,625,96 St,-73.95107,40.785672,3583.3460123062127
12:01:00,0,626,86 St,-73.955589,40.779492,3231.1610397815703
12:01:00,0,627,77 St,-73.959874,40.77362,3453.7610397815697
12:01:00,0,628,68 St-Hunter College,-73.96387,40.768141,3340.073739480972
12:01:00,0,629,59 St,-73.967967,40.762526,2998.6610397815703
12:01:00,0,630,51 St,-73.97192,40.757107,3119.6610397815703
12:01:00,0,631,Grand Central-42 St,-73.976848,40.751776,2848.6610397815703
12:01:00,0,632,33 St,-73.982076,40.746081,2894.86103978157
12:01:00,0,633,28 St,-73.984264,40.74307,2818.86103978157
12:01:00,0,634,23 St,-73.986599,40.739864,2728.0809540271757
12:01:00,0,635,14 St-Union Sq,-73.989951,40.734673,2581.66103978157
12:01:00,0,636,Astor Pl,-73.99107,40.730054,2674.86103978157
12:01:00,0,637,Bleecker St,-73.994659,40.725915,2678.0882370471954
12:01:00,0,638,Spring St,-73.997141,40.722301,2593.1882370471953
12:01:00,0,639,Canal St,-74.000193,40.718803,2501.3882370471956
12:01:00,0,640,Brooklyn Bridge-City Hall,-74.004131,40.713065,2320.3882370471956
12:17:00,1,701,Flushing-Main St,-73.83003,40.7596,4192.215829535893
12:17:00,1,702,Mets-Willets Point,-73.845625,40.754622,3982.215829535893
12:17:00,1,705,111 St,-73.855334,40.75173,4104.072972393036
12:17:00,1,706,103 St-Corona Plaza,-73.8627,40.749865,4015.072972393036
12:17:00,1,707,Junction Blvd,-73.869527,40.749145,3735.072972393036
12:17:00,1,708,90 St-Elmhurst Av,-73.876613,40.748408,3938.0729723930363
12:09:00,2,709,82 St-Jackson Hts,-73.883697,40.747659,3983.558109627186
12:17:00,1,710,74 St-Broadway,-73.891394,40.746848,3790.76528058052
12:17:00,1,711,69 St,-73.896403,40.746325,3643.76528058052
12:17:00,1,712,61 St-Woodside,-73.902984,40.74563,3495.072972393036
12:17:00,1,713,52 St,-73.912549,40.744149,3375.872972393036
12:17:00,1,714,46 St-Bliss St,-73.918435,40.743132,3311.8729723930355
12:17:00,1,715,40 St-Lowery St,-73.924016,40.743781,3244.8729723930355
12:17:00,1,716,33 St-Rawson St,-73.930997,40.744587,3112.8729723930355
12:17:00,1,718,Queensboro Plaza,-73.940202,40.750582,2915.6729723930357
12:17:00,1,719,Court Sq,-73.945264,40.747023,2814.7729723930356
12:17:00,1,720,Hunters Point Av,-73.948916,40.742216,2917.1729723930357
12:17:00,1,721,Vernon Blvd-Jackson Av,-73.953581,40.742626,2963.472972393036
12:33:00,1,723,Grand Central-42 St,-73.976041,40.751431,2968.6610397815703
12:33:00,1,724,5 Av,-73.981963,40.753821,3116.6610397815703
12:33:00,1,725,Times Sq-42 St,-73.987691,40.755477,3045.26103978157
12:33:00,1,726,34 St-Hudson Yards,-74.00191,40.755882,3205.2610397815697
12:33:00,1,901,Grand Central-42 St,-73.979189,40.752769,2908.6610397815703
12:17:00,1,902,Times Sq-42 St,-73.986229,40.755983,2985.26103978157
13:05:00,1,A02,Inwood-207 St,-73.919899,40.868072,5204.761039781569
13:05:00,1,A03,Dyckman St,-73.927271,40.865491,5084.761039781569
13:05:00,1,A05,190 St,-73.93418,40.859022,4919.761039781569
13:05:00,1,A06,181 St,-73.937969,40.851695,4794.76103978157
13:05:00,1,A07,175 St,-73.939704,40.847391,4674.76103978157
12:01:00,2,A09,168 St,-73.939561,40.840719,4502.9610397815695
13:45:00,1,A10,163 St-Amsterdam Av,-73.939892,40.836013,4585.018936061858
13:45:00,1,A11,155 St,-73.941514,40.830518,4434.392997217178
12:01:00,2,A12,145 St,-73.944216,40.824783,4197.9610397815695
13:05:00,1,A14,135 St,-73.947649,40.817894,4122.26103978157
12:01:00,2,A15,125 St,-73.952343,40.811109,3952.26103978157
12:25:00,1,A16,116 St,-73.954882,40.805085,4117.418936061858
12:25:00,1,A17,Cathedral Pkwy (110 St),-73.958161,40.800603,4101.76103978157
12:25:00,1,A18,103 St,-73.961454,40.796092,3990.7610397815697
12:25:00,1,A19,96 St,-73.964696,40.791642,3872.7610397815697
12:25:00,1,A20,86 St,-73.968916,40.785868,3730.26103978157
12:25:00,1,A21,81 St-Museum of Natural History,-73.972143,40.781433,3610.26103978157
12:25:00,1,A22,72 St,-73.97641,40.775594,3479.76103978157
12:25:00,1,A24,59 St-Columbus Circle,-73.981736,40.768296,3232.26103978157
12:01:00,2,A25,50 St,-73.985984,40.762456,3167.2610397815697
12:01:00,2,A27,42 St-Port Authority Bus Terminal,-73.989735,40.757308,3045.26103978157
12:01:00,2,A28,34 St-Penn Station,-73.993391,40.752287,2923.6999999999994
12:01:00,2,A30,23 St,-73.998041,40.745906,2860.7
12:25:00,1,A31,14 St,-74.00169,40.740893,2740.7
12:25:00,1,A32,W 4 St-Wash Sq,-74.000495,40.732338,2836.995378780365
12:17:00,1,A33,Spring St,-74.003739,40.726227,2742.8882370471956
12:25:00,1,A34,Canal St,-74.005229,40.720824,2609.8882370471956
12:25:00,1,A36,Chambers St,-74.008585,40.714111,2539.231033372879
12:01:00,2,A38,Fulton St,-74.007691,40.710197,2419.231033372879
12:25:00,2,A40,High St,-73.990531,40.699337,2239.3999999999996
13:45:00,2,A41,Jay St-MetroTech,-73.987342,40.692338,2081.3999999999996
13:45:00,2,A42,Hoyt-Schermerhorn Sts,-73.985001,40.688484,1987.888887166977
13:45:00,2,A43,Lafayette Av,-73.973946,40.686113,1850.0000000000002
13:45:00,2,A44,Clinton-Washington Avs,-73.965838,40.683263,1735.0
13:45:00,2,A45,Franklin Av,-73.956848,40.68138,1615.0
13:45:00,2,A46,Nostrand Av,-73.950426,40.680438,1562.8888871669772
13:45:00,2,A47,Kingston-Throop Avs,-73.940858,40.679921,1541.7309930324557
13:45:00,2,A48,Utica Av,-73.930729,40.679364,1367.8888871669772
12:25:00,2,A49,Ralph Av,-73.920786,40.678822,1312.888887166977
12:25:00,2,A50,Rockaway Av,-73.911946,40.67834,1192.888887166977
13:21:00,2,A51,Broadway Junction,-73.905316,40.678334,1074.8888871669772
12:25:00,2,A52,Liberty Av,-73.896548,40.674542,1249.8888871669772
12:25:00,2,A53,Van Siclen Av,-73.890358,40.67271,1369.8888871669772
12:25:00,2,A54,Shepherd Av,-73.88075,40.67413,1489.8888871669772
13:05:00,2,A55,Euclid Av,-73.872106,40.675377,1494.8888871669772
13:05:00,2,A57,Grant Av,-73.86505,40.677044,1659.8888871669772
13:05:00,2,A59,80 St,-73.858992,40.679371,1781.8888871669772
13:05:00,2,A60,88 St,-73.85147,40.679843,1902.8888871669772
13:05:00,2,A61,Rockaway Blvd,-73.843853,40.680429,2022.8888871669772
13:05:00,2,A63,104 St,-73.837683,40.681711,2142.888887166977
13:05:00,2,A64,111 St,-73.832163,40.684331,2262.888887166977
13:05:00,2,A65,Ozone Park-Lefferts Blvd,-73.825798,40.685951,2394.8888871669774
13:37:00,1,B04,21 St-Queensbridge,-73.942836,40.754203,3625.7
13:37:00,1,B06,Roosevelt Island,-73.95326,40.759145,3505.7
13:05:00,1,B08,Lexington Av/63 St,-73.966113,40.764629,3355.7
13:05:00,1,B10,57 St,-73.97745,40.763972,3205.7
12:25:00,1,B12,9 Av,-73.994324,40.646292,2702.6396234512326
12:25:00,1,B13,Fort Hamilton Pkwy,-73.994304,40.640914,2822.6396234512326
12:25:00,1,B14,50 St,-73.994791,40.63626,2934.6396234512326
12:25:00,1,B15,55 St,-73.995476,40.631435,3061.6396234512326
12:25:00,1,B16,62 St,-73.996895,40.626472,3166.6396234512326
12:25:00,1,B17,71 St,-73.998864,40.619589,3286.6396234512326
12:25:00,1,B18,79 St,-74.00061,40.613501,3409.6396234512326
12:25:00,1,B19,18 Av,-74.001736,40.607954,3524.639623451232
12:25:00,1,B20,20 Av,-73.998168,40.604556,3639.639623451232
12:25:00,1,B21,Bay Pkwy,-73.993728,40.601875,3749.639623451232
13:45:00,1,B22,25 Av,-73.986829,40.597704,3779.8400017738345
13:45:00,1,B23,Bay 50 St,-73.983765,40.588841,3602.8400017738345
12:01:00,1,D01,Norwood-205 St,-73.878855,40.874811,5750.576832342147
12:01:00,1,D03,Bedford Park Blvd,-73.887138,40.873244,5522.576832342147
12:01:00,1,D04,Kingsbridge Rd,-73.893509,40.866978,5382.576832342147
12:01:00,1,D05,Fordham Rd,-73.897749,40.861296,5262.576832342147
12:01:00,1,D06,182-183 Sts,-73.900741,40.856093,5190.576832342148
13:21:00,1,D07,Tremont Av,-73.905227,40.85041,5077.576832342147
13:21:00,1,D08,174-175 Sts,-73.910136,40.8459,5061.8270184993735
13:21:00,1,D09,170 St,-73.9134,40.839306,4940.427018499373
13:21:00,1,D10,167 St,-73.91844,40.833771,4815.576832342148
13:21:00,1,D11,161 St-Yankee Stadium,-73.925651,40.827905,4637.576832342148
13:21:00,1,D12,155 St,-73.938209,40.830135,4470.576832342148
13:21:00,1,D13,145 St,-73.944216,40.824783,4292.576832342148
12:25:00,1,D14,7 Av,-73.981637,40.762862,3287.2610397815697
12:25:00,1,D15,47-50 Sts-Rockefeller Ctr,-73.981329,40.758663,3115.7
12:25:00,1,D16,42 St-Bryant Pk,-73.984569,40.754222,3025.7
12:25:00,1,D17,34 St-Herald Sq,-73.987823,40.749719,2935.7
12:01:00,2,D18,23 St,-73.992821,40.742878,2815.7
12:25:00,1,D19,14 St,-73.996209,40.738228,2710.7
12:25:00,1,D20,W 4 St-Wash Sq,-74.000495,40.732338,2767.561682510376
12:25:00,1,D21,Broadway-Lafayette St,-73.996204,40.725297,2587.561682510376
12:25:00,1,D22,Grand St,-73.993753,40.718267,2417.561682510376
12:17:00,1,D24,Atlantic Av-Barclays Ctr,-73.97689,40.68446,1628.5619032859802
12:17:00,1,D25,7 Av,-73.972367,40.67705,1773.6
12:17:00,1,D26,Prospect Park,-73.962246,40.661614,1420.6
12:25:00,1,D27,Parkside Av,-73.961495,40.655292,1798.923808956146
12:17:00,1,D28,Church Av,-73.962982,40.650527,1714.3999999999999
12:25:00,1,D29,Beverley Rd,-73.964492,40.644031,1863.0904776096343
12:25:00,1,D30,Cortelyou Rd,-73.963891,40.640927,1978.090477609634
12:17:00,1,D31,Newkirk Plaza,-73.962793,40.635082,1934.3999999999996
12:25:00,1,D32,Avenue H,-73.961639,40.62927,2088.7200008869168
12:25:00,1,D33,Avenue J,-73.960803,40.625039,2209.7200008869168
12:25:00,1,D34,Avenue M,-73.959399,40.617618,2337.7200008869168
12:17:00,1,D35,Kings Hwy,-73.957734,40.60867,2277.8999999999996
12:17:00,1,D37,Avenue U,-73.955929,40.5993,2522.910312080383
12:17:00,1,D38,Neck Rd,-73.955161,40.595246,2678.1103120803828
12:17:00,1,D39,Sheepshead Bay,-73.954155,40.586896,2617.640001773834
12:17:00,1,D40,Brighton Beach,-73.961376,40.577621,2797.640001773834
12:17:00,1,D41,Ocean Pkwy,-73.968501,40.576312,2977.740001773834
12:17:00,1,D42,W 8 St-NY Aquarium,-73.975939,40.576127,3142.740001773834
12:17:00,1,D43,Coney Island-Stillwell Av,-73.981233,40.577422,3260.7400017738346
13:13:00,1,E01,World Trade Center,-74.009781,40.712582,2415.8882370471956
12:25:00,2,F01,Jamaica-179 St,-73.783817,40.712646,3502.8888871669765
12:25:00,2,F02,169 St,-73.793604,40.71047,3412.8888871669765
12:25:00,2,F03,Parsons Blvd,-73.803326,40.707564,3277.8888871669765
12:25:00,2,F04,Sutphin Blvd,-73.810708,40.70546,3187.8888871669765
12:25:00,2,F05,Briarwood,-73.820574,40.709179,2917.8888871669765
12:25:00,2,F06,Kew Gardens-Union Tpke,-73.831008,40.714441,3072.888887166977
13:05:00,2,F07,75 Av,-73.837324,40.718331,3222.888887166977
12:49:00,1,F09,Court Sq-23 St,-73.946,40.747846,2814.7729723930356
12:25:00,1,F11,Lexington Av/53 St,-73.969055,40.757552,3018.3444009644645
12:25:00,1,F12,5 Av/53 St,-73.975224,40.760167,3117.5280744338525
12:01:00,2,F14,2 Av,-73.989938,40.723402,2534.240740299225
12:01:00,2,F15,Delancey St-Essex St,-73.988114,40.718611,2399.888887166977
12:01:00,2,F16,East Broadway,-73.990173,40.713715,2351.3999999999996
12:01:00,2,F18,York St,-73.986751,40.701397,2171.3999999999996
13:45:00,2,F20,Bergen St,-73.990862,40.686145,2261.3999999999996
12:57:00,2,F21,Carroll St,-73.995048,40.680303,2391.4
12:57:00,2,F22,Smith-9 Sts,-73.995959,40.67358,2315.105406951904
12:17:00,2,F23,4 Av-9 St,-73.989779,40.670272,2195.105406951904
12:17:00,2,F24,7 Av,-73.980305,40.666271,2327.8192684173587
12:17:00,2,F25,15 St-Prospect Park,-73.979493,40.660365,2452.8192684173587
12:17:00,2,F26,Fort Hamilton Pkwy,-73.975776,40.650782,2677.105406951904
12:17:00,2,F27,Church Av,-73.979678,40.644041,2615.9844073772433
12:17:00,2,F29,Ditmas Av,-73.978172,40.636119,2735.9844073772433
12:17:00,2,F30,18 Av,-73.976971,40.629755,2855.9844073772433
12:17:00,2,F31,Avenue I,-73.976127,40.625322,2915.9844073772433
12:17:00,2,F32,Bay Pkwy,-73.975264,40.620769,2975.9844073772433
12:17:00,2,F33,Avenue N,-73.974197,40.61514,3095.9844073772433
12:17:00,2,F34,Avenue P,-73.973022,40.608944,3185.9844073772433
12:17:00,1,F35,Kings Hwy,-73.972361,40.603217,3470.9844073772433
12:17:00,1,F36,Avenue U,-73.973357,40.596063,3591.8844073772434
12:17:00,1,F38,Avenue X,-73.97425,40.58962,3592.740001773834
12:17:00,1,F39,Neptune Av,-73.974574,40.581011,3457.740001773834
13:45:00,2,G05,Jamaica Center-Parsons/Archer,-73.801109,40.702147,2364.888887166977
13:45:00,2,G06,Sutphin Blvd-Archer Av-JFK Airport,-73.807969,40.700486,2304.888887166977
12:25:00,2,G07,Jamaica-Van Wyck,-73.816859,40.702566,2730.8888871669765
12:25:00,2,G08,Forest Hills-71 Av,-73.844521,40.721691,3342.888887166977
12:49:00,1,G09,67 Av,-73.852719,40.726523,3522.888887166977
12:49:00,1,G10,63 Dr-Rego Park,-73.861604,40.729846,3616.638887166977
12:49:00,1,G11,Woodhaven Blvd,-73.869229,40.733106,3706.638887166977
12:49:00,1,G12,Grand Av-Newtown,-73.877223,40.737015,3804.7855959991793
12:49:00,1,G13,Elmhurst Av,-73.882017,40.742454,3714.7855959991793
12:49:00,1,G14,Jackson Hts-Roosevelt Av,-73.891338,40.746644,3594.7855959991793
12:33:00,1,G15,65 St,-73.898453,40.749669,3504.7855959991793
13:13:00,1,G16,Northern Blvd,-73.906006,40.752885,3410.4556990919627
13:13:00,1,G18,46 St,-73.913333,40.756312,3320.4556990919627
13:13:00,1,G19,Steinway St,-73.92074,40.756879,3203.5484825971175
13:13:00,1,G20,36 St,-73.928781,40.752039,3083.5484825971175
12:49:00,1,G21,Queens Plaza,-73.937243,40.748973,2938.1403193318115
13:45:00,2,G22,Court Sq,-73.943832,40.746554,2721.0142841815946
13:45:00,2,G24,21 St,-73.949724,40.744065,2634.7729723930356
13:45:00,2,G26,Greenpoint Av,-73.954449,40.731352,2390.0142841815946
13:45:00,2,G28,Nassau Av,-73.951277,40.724635,2270.0142841815946
12:01:00,2,G29,Metropolitan Av,-73.951418,40.712792,2095.0142841815946
12:01:00,2,G30,Broadway,-73.950308,40.706092,2267.7729723930356
12:01:00,2,G31,Flushing Av,-73.950234,40.700377,2387.7729723930356
12:01:00,2,G32,Myrtle-Willoughby Avs,-73.949046,40.694568,2496.0142841815946
12:01:00,2,G33,Bedford-Nostrand Avs,-73.953522,40.689627,2621.0142841815946
13:37:00,2,G34,Classon Av,-73.96007,40.688873,2589.9870994091034
13:37:00,2,G35,Clinton-Washington Avs,-73.966839,40.688089,2474.9870994091034
13:37:00,2,G36,Fulton St,-73.975375,40.687119,2354.9870994091034
12:49:00,2,H01,Aqueduct Racetrack,-73.834058,40.668234,2264.888887166977
12:33:00,2,H02,Aqueduct-N Conduit Av,-73.834058,40.668234,2347.3891288280483
12:33:00,2,H03,Howard Beach-JFK Airport,-73.830301,40.660476,2509.888887166977
12:33:00,2,H04,Broad Channel,-73.815925,40.608382,3055.788887166977
12:33:00,2,H06,Beach 67 St,-73.796924,40.590927,3497.388887166977
13:13:00,2,H07,Beach 60 St,-73.788522,40.592374,3627.388887166977
13:13:00,2,H08,Beach 44 St,-73.776013,40.592943,3754.388887166977
13:13:00,2,H09,Beach 36 St,-73.768175,40.595398,3877.3888871669765
13:13:00,2,H10,Beach 25 St,-73.761353,40.600066,3997.3888871669765
13:13:00,2,H11,Far Rockaway-Mott Av,-73.755405,40.603995,4117.388887166977
13:13:00,2,H12,Beach 90 St,-73.813641,40.588034,3402.5888871669767
13:13:00,2,H13,Beach 98 St,-73.820558,40.585307,3525.5888871669767
13:13:00,2,H14,Beach 105 St,-73.827559,40.583209,3640.5888871669767
13:13:00,2,H15,Rockaway Park-Beach 116 St,-73.835592,40.580903,3763.5888871669763
13:45:00,2,J12,121 St,-73.828294,40.700492,2064.888887166977
13:45:00,2,J13,111 St,-73.836345,40.697418,2229.888887166977
13:45:00,2,J14,104 St,-73.84433,40.695178,1884.8888871669772
13:45:00,2,J15,Woodhaven Blvd,-73.851576,40.693879,1794.8888871669772
13:45:00,2,J16,85 St-Forest Pkwy,-73.86001,40.692435,1994.888887166977
13:45:00,2,J17,75 St-Elderts Ln,-73.867139,40.691324,1614.8888871669772
13:45:00,2,J19,Cypress Hills,-73.87255,40.689941,1859.722219705582
13:45:00,2,J20,Crescent St,-73.873785,40.683194,1464.8888871669772
13:45:00,2,J21,Norwood Av,-73.880039,40.68141,1374.8888871669772
13:45:00,2,J22,Cleveland St,-73.884639,40.679947,1430.8888871669772
13:45:00,2,J23,Van Siclen Av,-73.891688,40.678024,1224.8888871669772
13:45:00,2,J24,Alabama Av,-73.898654,40.676992,1164.8888871669772
13:05:00,2,J27,Broadway Junction,-73.904512,40.679498,1074.8888871669772
12:25:00,2,J28,Chauncey St,-73.910456,40.682893,1134.8888871669772
12:25:00,2,J29,Halsey St,-73.916559,40.68637,1309.8888871669772
12:25:00,2,J30,Gates Av,-73.92227,40.68963,1284.8888871669772
12:25:00,2,J31,Kosciuszko St,-73.928814,40.693342,1549.8888871669772
12:01:00,1,L01,8 Av,-74.002578,40.739777,2620.7
12:01:00,1,L02,6 Av,-73.996786,40.737335,2485.7
12:01:00,1,L03,14 St-Union Sq,-73.99073,40.734789,2367.6999999999994
12:01:00,1,L05,3 Av,-73.986122,40.732849,2275.7999999999997
12:01:00,1,L06,1 Av,-73.981628,40.730953,2222.7999999999997
12:01:00,1,L08,Bedford Av,-73.956872,40.717304,1996.7999999999997
12:01:00,1,L10,Lorimer St,-73.950275,40.714063,1881.7999999999997
12:01:00,1,L11,Graham Av,-73.944053,40.714565,1820.7999999999997
12:01:00,1,L12,Grand St,-73.94067,40.711926,1723.7999999999997
12:01:00,1,L13,Montrose Av,-73.93985,40.707739,1662.8
12:01:00,1,L14,Morgan Av,-73.933147,40.706152,1576.8
12:01:00,1,L15,Jefferson St,-73.922913,40.706607,1480.7999999999997
12:01:00,1,L16,DeKalb Av,-73.918425,40.703811,1401.7999999999997
12:01:00,1,L17,Myrtle-Wyckoff Avs,-73.911586,40.699814,1305.7999999999997
12:01:00,1,L19,Halsey St,-73.904084,40.695602,1230.7999999999997
12:01:00,1,L20,Wilson Av,-73.904046,40.688764,1087.249998807907
12:01:00,1,L21,Bushwick Av-Aberdeen St,-73.905249,40.682829,980.7999999999998
12:01:00,1,L22,Broadway Junction,-73.90324,40.678856,857.2499988079072
12:01:00,1,L24,Atlantic Av,-73.903097,40.675345,708.6999999999999
12:01:00,1,L25,Sutter Av,-73.901975,40.669367,609.6999999999999
12:17:00,1,L26,Livonia Av,-73.900571,40.664038,526.6999999999999
12:41:00,1,L27,New Lots Av,-73.899232,40.658733,603.5000000000001
12:41:00,1,L28,East 105 St,-73.899485,40.650573,757.5000000000001
12:09:00,1,L29,Canarsie-Rockaway Pkwy,-73.90185,40.646654,961.4499988079069
12:01:00,2,M01,Middle Village-Metropolitan Av,-73.889601,40.711396,2015.2
12:01:00,2,M04,Fresh Pond Rd,-73.895877,40.706186,1883.1999999999998
12:01:00,2,M05,Forest Av,-73.903077,40.704423,1772.1999999999998
12:01:00,2,M06,Seneca Av,-73.90774,40.702762,1652.1999999999998
12:25:00,2,M08,Myrtle-Wyckoff Avs,-73.912385,40.69943,1530.7999999999997
12:01:00,2,M09,Knickerbocker Av,-73.919711,40.698664,1650.7999999999997
12:01:00,2,M10,Central Av,-73.927397,40.697857,1725.8888919353487
12:25:00,2,M11,Myrtle Av,-73.935657,40.697207,1464.8888871669772
12:25:00,2,M12,Flushing Av,-73.941126,40.70026,1714.8888919353487
12:25:00,2,M13,Lorimer St,-73.947408,40.703869,1834.8888919353487
12:25:00,2,M14,Hewes St,-73.953431,40.70687,1954.8888919353485
12:25:00,2,M16,Marcy Av,-73.957757,40.708359,1724.888887166977
12:25:00,2,M18,Delancey St-Essex St,-73.987437,40.718315,2174.888887166977
12:01:00,2,M19,Bowery,-73.993915,40.72028,2294.888887166977
12:17:00,1,M20,Canal St,-73.999892,40.718092,2439.888887166977
12:17:00,1,M21,Chambers St,-74.003401,40.713243,2440.3882370471956
12:17:00,1,M22,Fulton St,-74.007582,40.710374,2539.231033372879
12:09:00,1,M23,Broad St,-74.011056,40.706476,2607.231033372879
12:33:00,1,N02,8 Av,-74.011719,40.635064,2903.2999999999997
12:33:00,1,N03,Fort Hamilton Pkwy,-74.005351,40.631386,3079.6999999999994
12:33:00,1,N04,New Utrecht Av,-73.996353,40.624842,3234.2
12:33:00,1,N05,18 Av,-73.990414,40.620671,3341.2
12:33:00,1,N06,20 Av,-73.985026,40.61741,3416.2
12:33:00,1,N07,Bay Pkwy,-73.981848,40.611815,3571.2
12:33:00,1,N08,Kings Hwy,-73.980353,40.603923,3723.3
12:33:00,1,N09,Avenue U,-73.979137,40.597473,3678.9400017738344
12:33:00,1,N10,86 St,-73.97823,40.592721,3563.740001773834
13:53:00,1,Q01,Canal St,-74.00046,40.718383,2420.7
12:01:00,1,Q03,72 St,-73.958424,40.768799,3500.0610397815703
12:01:00,1,Q04,86 St,-73.951787,40.777891,3678.6610397815703
12:01:00,1,Q05,96 St,-73.947152,40.784318,3798.6610397815703
12:09:00,1,R01,Astoria-Ditmars Blvd,-73.912034,40.775036,3796.1652805805206
12:09:00,1,R03,Astoria Blvd,-73.917843,40.770258,3681.1652805805206
12:09:00,1,R04,30 Av,-73.921479,40.766779,3557.16528058052
12:09:00,1,R05,Broadway,-73.925508,40.76182,3437.16528058052
12:09:00,1,R06,36 Av,-73.929575,40.756804,3307.1652805805206
12:09:00,1,R08,39 Av-Dutch Kills,-73.932755,40.752882,3162.3652805805204
12:09:00,1,R09,Queensboro Plaza,-73.940202,40.750582,2967.3652805805204
12:33:00,1,R11,Lexington Av/59 St,-73.967258,40.76266,3228.570129585266
12:33:00,1,R13,5 Av/59 St,-73.973347,40.764811,3348.570129585266
12:01:00,1,R14,57 St-7 Av,-73.980658,40.764664,3184.6610397815703
12:01:00,1,R15,49 St,-73.984139,40.759901,3141.66103978157
12:01:00,1,R16,Times Sq-42 St,-73.986754,40.754672,2925.26103978157
12:01:00,1,R17,34 St-Herald Sq,-73.98795,40.749567,2805.26103978157
12:01:00,1,R18,28 St,-73.988691,40.745494,2816.66103978157
12:01:00,1,R19,23 St,-73.989344,40.741303,2701.66103978157
13:53:00,1,R20,14 St-Union Sq,-73.990568,40.735736,2581.66103978157
13:45:00,1,R21,8 St-NYU,-73.992629,40.730328,2706.6610397815703
13:45:00,1,R22,Prince St,-73.997702,40.724329,2832.66103978157
13:45:00,1,R23,Canal St,-74.001775,40.719527,2715.342259407044
13:45:00,1,R24,City Hall,-74.006978,40.713282,2642.887285518646
13:45:00,1,R25,Cortlandt St,-74.011029,40.710668,2424.564706373215
13:45:00,1,R26,Rector St,-74.013342,40.70722,2222.564706373215
13:45:00,1,R27,Whitehall St-South Ferry,-74.012994,40.703087,2154.564706373215
13:21:00,1,R28,Court St,-73.991777,40.6941,1919.564706373215
12:17:00,1,R29,Jay St-MetroTech,-73.985942,40.69218,1946.3999999999999
12:25:00,1,R30,DeKalb Av,-73.981824,40.690635,1812.5619032859802
13:37:00,1,R31,Atlantic Av-Barclays Ctr,-73.97881,40.683666,1641.3
12:17:00,1,R32,Union St,-73.98311,40.677316,1820.3999999999999
12:17:00,1,R33,4 Av-9 St,-73.988302,40.670847,1954.7
12:17:00,1,R34,Prospect Av,-73.992872,40.665414,2089.7
12:17:00,1,R35,25 St,-73.998091,40.660397,2200.3
12:25:00,1,R36,36 St,-74.003549,40.655144,2263.2999999999997
12:17:00,1,R39,45 St,-74.010006,40.648939,2503.2999999999997
12:17:00,1,R40,53 St,-74.014034,40.645069,2633.2999999999997
12:33:00,1,R41,59 St,-74.017881,40.641362,2687.2999999999997
12:17:00,1,R42,Bay Ridge Av,-74.023377,40.634967,2867.840540218353
12:17:00,1,R43,77 St,-74.02551,40.629742,2982.8405402183525
12:17:00,1,R44,86 St,-74.028398,40.622687,3201.605553436279
12:57:00,1,R45,Bay Ridge-95 St,-74.030876,40.616622,3321.605553436279
12:25:00,1,S01,Franklin Av,-73.955827,40.680596,1531.6000000000001
12:25:00,1,S03,Park Pl,-73.957624,40.674772,1405.6
12:17:00,1,S04,Botanic Garden,-73.959245,40.670343,1240.6
