start_time,ntransfers,stop_id,stop_name,stop_lon,stop_lat,duration
12:02:00,2,101,Van Cortlandt Park-242 St,-73.898583,40.889248,3324.625169181824
12:02:00,2,103,238 St,-73.90087,40.884667,3158.625169181824
12:02:00,2,104,231 St,-73.904834,40.878856,3032.4315798282623
12:02:00,2,106,Marble Hill-225 St,-73.909831,40.874561,2922.4315798282623
12:02:00,2,107,215 St,-73.915279,40.869444,2769.2251691818237
12:02:00,2,108,207 St,-73.918822,40.864621,2676.4315798282623
12:02:00,2,109,Dyckman St,-73.925536,40.860531,2555.4315798282623
12:02:00,2,110,191 St,-73.929412,40.855225,2448.4315798282623
12:34:00,2,111,181 St,-73.933596,40.849505,2337.4315798282623
12:02:00,3,112,168 St-Washington Hts,-73.940133,40.840556,2202.4315798282623
13:14:00,2,113,157 St,-73.94489,40.834041,2314.4315798282623
12:02:00,3,114,145 St,-73.95036,40.826551,2444.431579828262
12:02:00,3,115,137 St-City College,-73.953676,40.822008,2558.431579828262
12:02:00,3,116,125 St,-73.958372,40.815581,2679.231579828262
13:56:00,1,117,116 St-Columbia University,-73.96411,40.807722,2844.231579828262
13:56:00,1,118,Cathedral Pkwy (110 St),-73.966847,40.803967,2866.502317428589
13:56:00,1,119,103 St,-73.968379,40.799446,2774.502317428589
13:56:00,1,120,96 St,-73.972323,40.793919,2372.9727274894717
13:56:00,1,121,86 St,-73.976218,40.788644,2568.5421874999993
13:56:00,1,122,79 St,-73.979917,40.783934,2657.9421874999994
13:56:00,1,123,72 St,-73.98197,40.778453,2627.272727489472
13:14:00,2,124,66 St-Lincoln Center,-73.982209,40.77344,2668.0394706726074
12:02:00,1,125,59 St-Columbus Circle,-73.981929,40.768247,2574.039470672607
12:34:00,2,126,50 St,-73.983849,40.761728,2702.039470672607
12:02:00,2,127,Times Sq-42 St,-73.987495,40.75529,2796.2380943298344
12:02:00,1,128,34 St-Penn Station,-73.991057,40.750373,2925.2380943298344
12:02:00,1,129,28 St,-73.993365,40.747215,3023.2380943298344
12:02:00,1,130,23 St,-73.995657,40.744081,3102.2380943298344
12:02:00,1,131,18 St,-73.997871,40.74104,3179.2380943298344
12:02:00,1,132,14 St,-74.000201,40.737826,3117.7380943298344
12:02:00,1,133,Christopher St-Sheridan Sq,-74.002906,40.733422,3376.2380943298344
12:02:00,1,134,Houston St,-74.005367,40.728251,3481.2380943298344
12:02:00,1,135,Canal St,-74.006277,40.722854,3589.238094329834
12:02:00,1,136,Franklin St,-74.006886,40.719318,3664.238094329834
12:02:00,1,137,Chambers St,-74.009266,40.715478,3413.738094329835
12:10:00,1,138,WTC Cortlandt,-74.012188,40.711835,3711.9921929836282
12:10:00,1,139,Rector St,-74.013783,40.707513,3813.9921929836282
12:10:00,1,142,South Ferry,-74.013664,40.702068,3956.9921929836282
12:02:00,1,201,Wakefield-241 St,-73.85062,40.903125,3850.811065196991
12:02:00,1,204,Nereid Av,-73.854376,40.898379,3590.1689133644104
12:02:00,1,205,233 St,-73.857473,40.893193,3432.5689133644105
12:02:00,1,206,225 St,-73.860341,40.888022,3332.5689133644105
12:02:00,1,207,219 St,-73.862633,40.883895,3247.36891336441
12:02:00,1,208,Gun Hill Rd,-73.866256,40.87785,3132.0689133644105
12:02:00,1,209,Burke Av,-73.867164,40.871356,3142.8110651969914
12:02:00,1,210,Allerton Av,-73.867352,40.865462,3039.8110651969914
12:02:00,1,211,Pelham Pkwy,-73.867615,40.857192,2914.811065196991
12:02:00,1,212,Bronx Park East,-73.868457,40.848828,2775.811065196991
12:02:00,1,213,E 180 St,-73.873488,40.841894,2280.7499985694885
12:02:00,1,214,West Farms Sq-E Tremont Av,-73.880049,40.840295,2523.2421874999995
12:02:00,1,215,174 St,-73.887734,40.837288,2375.2421874999995
12:02:00,1,216,Freeman St,-73.891865,40.829993,2229.2421875
12:02:00,1,217,Simpson St,-73.893064,40.824073,2099.2421875
12:02:00,1,218,Intervale Av,-73.896736,40.822181,2014.2421875
12:02:00,1,219,Prospect Av,-73.90177,40.819585,1915.2421875
12:02:00,1,220,Jackson Av,-73.907807,40.81649,1797.2421875
12:02:00,1,221,3 Av-149 St,-73.917757,40.816109,1554.7499985694885
13:56:00,0,222,149 St-Grand Concourse,-73.926718,40.81841,1431.9999976158142
13:56:00,1,224,135 St,-73.94077,40.814229,1743.2727274894714
13:56:00,1,225,125 St,-73.945495,40.807754,1880.2727274894714
13:56:00,1,226,116 St,-73.949625,40.802098,1997.2727274894717
13:56:00,1,227,Central Park North (110 St),-73.951822,40.799075,2081.2727274894714
13:56:00,1,228,Park Place,-74.008811,40.713051,3517.738094329835
12:02:00,1,229,Fulton St,-74.006571,40.709416,3573.2380936145787
12:02:00,1,230,Wall St,-74.0091,40.706821,3660.238093614579
12:02:00,1,231,Clark St,-73.993086,40.697466,3871.2380936145787
12:02:00,1,232,Borough Hall,-73.989998,40.693219,4003.238093614579
13:56:00,0,233,Hoyt St,-73.985065,40.690545,4001.9251189231873
12:02:00,0,234,Nevins St,-73.980492,40.688246,3861.2380943298344
12:02:00,0,235,Atlantic Av-Barclays Ctr,-73.977666,40.684359,3951.2380943298344
12:02:00,0,236,Bergen St,-73.975098,40.680829,4106.167101335526
12:02:00,0,237,Grand Army Plaza,-73.971046,40.675235,4218.925118923188
12:02:00,0,238,Eastern Pkwy-Brooklyn Museum,-73.964375,40.671987,4339.125118923188
12:02:00,0,239,Franklin Av-Medgar Evers College,-73.958131,40.670682,4279.738094329834
13:56:00,0,241,President St-Medgar Evers College,-73.950683,40.667883,4455.238094329834
13:56:00,0,242,Sterling St,-73.95085,40.662742,4546.738094329834
13:56:00,0,243,Winthrop St,-73.9502,40.656652,4659.238094329834
13:56:00,0,244,Church Av,-73.949575,40.650843,4755.238094329834
13:56:00,0,245,Beverly Rd,-73.948959,40.645098,4864.738094329834
13:56:00,0,246,Newkirk Av-Little Haiti,-73.948411,40.639967,4942.738094329834
13:56:00,0,247,Flatbush Av-Brooklyn College,-73.947642,40.632836,5080.738094329834
13:56:00,0,248,Nostrand Av,-73.950466,40.669847,4538.42633137703
13:56:00,0,249,Kingston Av,-73.942161,40.669399,4657.226331377031
12:02:00,0,250,Crown Hts-Utica Av,-73.932942,40.668897,4723.6263313770305
13:56:00,0,251,Sutter Av-Rutland Rd,-73.92261,40.664717,4894.52633137703
13:56:00,0,252,Saratoga Av,-73.916327,40.661453,5020.82633137703
13:56:00,0,253,Rockaway Av,-73.908946,40.662549,5116.1263313770305
13:56:00,0,254,Junius St,-73.902447,40.663515,5151.199134111404
13:56:00,0,255,Pennsylvania Av,-73.894895,40.664635,5263.899134111404
13:56:00,0,256,Van Siclen Av,-73.889395,40.665449,5347.899134111404
13:56:00,0,257,New Lots Av,-73.884079,40.666235,5494.399134111404
13:56:00,1,301,Harlem-148 St,-73.93647,40.82388,2357.5421874999993
13:56:00,1,302,145 St,-73.936245,40.820421,2190.5421874999997
12:01:30,0,401,Woodlawn,-73.878751,40.886037,459.0
12:01:30,0,402,Mosholu Pkwy,-73.884655,40.87975,283.0
12:01:30,0,405,Bedford Park Blvd-Lehman College,-73.890064,40.873412,137.0
13:56:00,0,406,Kingsbridge Rd,-73.897174,40.86776,0.0
12:02:00,0,407,Fordham Rd,-73.901034,40.862803,105.0
12:02:00,0,408,183 St,-73.903879,40.858407,203.0
12:02:00,0,409,Burnside Av,-73.907684,40.853453,316.0
12:02:00,0,410,176 St,-73.911794,40.84848,421.0
12:02:00,0,411,Mt Eden Av,-73.914685,40.844434,508.99999999999994
12:02:00,0,412,170 St,-73.917791,40.840075,600.0
12:02:00,0,413,167 St,-73.9214,40.835537,678.0
12:02:00,0,414,161 St-Yankee Stadium,-73.925831,40.827994,865.0
12:02:00,0,415,149 St-Grand Concourse,-73.927351,40.818375,1152.0
12:02:00,0,416,138 St-Grand Concourse,-73.929849,40.813224,1323.0
12:02:00,0,418,Fulton St,-74.009509,40.710368,3223.7380943298344
12:02:00,0,419,Wall St,-74.011862,40.707557,3322.7380943298344
12:02:00,0,420,Bowling Green,-74.014065,40.704817,3412.7380943298344
12:02:00,0,423,Borough Hall,-73.990151,40.692404,3741.2380943298344
13:46:00,0,501,Eastchester-Dyre Av,-73.830834,40.8883,3030.7499985694885
13:56:00,0,502,Baychester Av,-73.838591,40.878663,2880.7499985694885
13:56:00,0,503,Gun Hill Rd,-73.846384,40.869526,2730.7499985694885
13:56:00,0,504,Pelham Pkwy,-73.855359,40.858985,2580.7499985694885
13:56:00,0,505,Morris Park,-73.860495,40.854364,2490.7499985694885
13:56:00,0,601,Pelham Bay Park,-73.828121,40.852462,3730.761910438538
13:56:00,0,602,Buhre Av,-73.832569,40.84681,3511.061910438538
13:56:00,0,603,Middletown Rd,-73.836322,40.843863,3429.061910438538
13:56:00,0,604,Westchester Sq-E Tremont Av,-73.842952,40.839892,3240.8428585052493
13:56:00,0,606,Zerega Av,-73.847036,40.836488,3122.8428585052493
13:56:00,0,607,Castle Hill Av,-73.851222,40.834255,3040.942858505249
13:56:00,0,608,Parkchester,-73.860816,40.833226,2714.142858505249
13:56:00,0,609,St Lawrence Av,-73.867618,40.831509,2991.687170696259
13:56:00,0,610,Morrison Av-Soundview,-73.874516,40.829521,2858.6871706962584
13:56:00,0,611,Elder Av,-73.879159,40.828584,2769.6871706962584
13:56:00,0,612,Whitlock Av,-73.886283,40.826525,2632.687170696259
13:56:00,0,613,Hunts Point Av,-73.890549,40.820948,2361.742858505249
12:02:00,0,614,Longwood Av,-73.896435,40.816104,2530.351553535462
12:02:00,0,615,E 149 St,-73.904098,40.812118,2402.351553535462
12:02:00,0,616,E 143 St-St Mary's St,-73.907657,40.808719,2312.351553535462
12:02:00,0,617,Cypress Av,-73.914042,40.805368,2193.351553535462
12:02:00,0,618,Brook Av,-73.91924,40.807566,2114.3515535354613
12:02:00,0,619,3 Av-138 St,-73.926138,40.810476,1957.742858505249
12:02:00,0,621,125 St,-73.937594,40.804138,1486.0
13:56:00,0,622,116 St,-73.941617,40.798629,1831.142858505249
13:56:00,0,623,110 St,-73.94425,40.79502,1927.3428585052488
13:56:00,0,624,103 St,-73.947478,40.7906,2017.3428585052488
13:56:00,0,625,96 St,-73.95107,40.785672,2122.242858505249
12:02:00,0,626,86 St,-73.955589,40.779492,1928.0
13:56:00,0,627,77 St,-73.959874,40.77362,2280.184972524643
13:56:00,0,628,68 St-Hunter College,-73.96387,40.768141,2388.1849725246425
12:02:00,0,629,59 St,-73.967967,40.762526,2229.0
12:02:00,0,630,51 St,-73.97192,40.757107,2596.412699699402
12:02:00,0,631,Grand Central-42 St,-73.976848,40.751776,2467.0
12:02:00,0,632,33 St,-73.982076,40.746081,2754.2380943298344
12:02:00,0,633,28 St,-73.984264,40.74307,2832.238094329834
12:02:00,0,634,23 St,-73.986599,40.739864,2912.2380943298344
12:02:00,0,635,14 St-Union Sq,-73.989951,40.734673,2766.2380943298344
13:56:00,0,636,Astor Pl,-73.99107,40.730054,3084.6952376365666
13:56:00,0,637,Bleecker St,-73.994659,40.725915,3195.695237636567
13:56:00,0,638,Spring St,-73.997141,40.722301,3280.395237636567
12:02:00,0,639,Canal St,-74.000193,40.718803,3284.7380943298344
12:02:00,0,640,Brooklyn Bridge-City Hall,-74.004131,40.713065,3103.7380943298344
12:02:00,2,701,Flushing-Main St,-73.83003,40.7596,4183.999039050511
12:02:00,2,702,Mets-Willets Point,-73.845625,40.754622,3973.9990390505104
12:02:00,2,705,111 St,-73.855334,40.75173,4095.8561819076544
12:02:00,2,706,103 St-Corona Plaza,-73.8627,40.749865,4006.8561819076544
12:02:00,2,707,Junction Blvd,-73.869527,40.749145,3726.8561819076535
12:02:00,2,708,90 St-Elmhurst Av,-73.876613,40.748408,3885.022513628006
13:54:00,2,709,82 St-Jackson Hts,-73.883697,40.747659,3709.0225136280055
12:02:00,1,710,74 St-Broadway,-73.891394,40.746848,3531.2074484825134
12:10:00,2,711,69 St,-73.896403,40.746325,3621.754055404663
12:02:00,1,712,61 St-Woodside,-73.902984,40.74563,3455.4561819076534
12:02:00,1,713,52 St,-73.912549,40.744149,3291.5561802387238
12:02:00,1,714,46 St-Bliss St,-73.918435,40.743132,3227.5561802387238
12:02:00,1,715,40 St-Lowery St,-73.924016,40.743781,3160.5561802387238
12:02:00,1,716,33 St-Rawson St,-73.930997,40.744587,3028.5561802387233
12:02:00,1,718,Queensboro Plaza,-73.940202,40.750582,2860.456180238724
12:02:00,1,719,Court Sq,-73.945264,40.747023,2990.4561802387234
12:02:00,1,720,Hunters Point Av,-73.948916,40.742216,2939.238094329834
12:02:00,1,721,Vernon Blvd-Jackson Av,-73.953581,40.742626,2874.0380943298346
12:18:00,1,723,Grand Central-42 St,-73.976041,40.751431,2619.2380943298344
12:18:00,1,724,5 Av,-73.981963,40.753821,2767.2380943298344
12:18:00,1,725,Times Sq-42 St,-73.987691,40.755477,2796.2380943298344
12:18:00,1,726,34 St-Hudson Yards,-74.00191,40.755882,2956.2380943298344
12:18:00,1,901,Grand Central-42 St,-73.979189,40.752769,2559.2380943298344
12:18:00,1,902,Times Sq-42 St,-73.986229,40.755983,2676.2380943298344
12:02:00,2,A02,Inwood-207 St,-73.919899,40.868072,2678.7424486160276
12:02:00,2,A03,Dyckman St,-73.927271,40.865491,2558.7424486160276
12:02:00,2,A05,190 St,-73.93418,40.859022,2393.7424486160276
12:02:00,2,A06,181 St,-73.937969,40.851695,2268.7424486160276
12:02:00,2,A07,175 St,-73.939704,40.847391,2148.7424486160276
12:02:00,2,A09,168 St,-73.939561,40.840719,1976.9424486160276
12:02:00,2,A10,163 St-Amsterdam Av,-73.939892,40.836013,1910.1578962802885
12:02:00,2,A11,155 St,-73.941514,40.830518,1789.6774196624754
12:34:00,1,A12,145 St,-73.944216,40.824783,1610.1578962802885
12:34:00,1,A14,135 St,-73.947649,40.817894,1529.5166662693025
12:34:00,1,A15,125 St,-73.952343,40.811109,1684.9999999999998
12:34:00,1,A16,116 St,-73.954882,40.805085,1850.1578962802885
12:34:00,1,A17,Cathedral Pkwy (110 St),-73.958161,40.800603,1963.1578962802885
12:34:00,1,A18,103 St,-73.961454,40.796092,2078.1578962802882
12:34:00,1,A19,96 St,-73.964696,40.791642,2195.1578962802882
12:34:00,1,A20,86 St,-73.968916,40.785868,2315.1578962802882
12:34:00,1,A21,81 St-Museum of Natural History,-73.972143,40.781433,2435.1578962802882
12:34:00,1,A22,72 St,-73.97641,40.775594,2555.1578962802882
12:34:00,1,A24,59 St-Columbus Circle,-73.981736,40.768296,2349.039470672607
12:34:00,1,A25,50 St,-73.985984,40.762456,2756.407890558243
12:34:00,1,A27,42 St-Port Authority Bus Terminal,-73.989735,40.757308,2682.315792560577
12:34:00,1,A28,34 St-Penn Station,-73.993391,40.752287,2810.315792560577
12:34:00,1,A30,23 St,-73.998041,40.745906,3041.2380943298344
12:34:00,1,A31,14 St,-74.00169,40.740893,2993.315792560577
12:34:00,1,A32,W 4 St-Wash Sq,-74.000495,40.732338,3164.315792560577
12:34:00,1,A33,Spring St,-74.003739,40.726227,3367.915792560577
12:34:00,1,A34,Canal St,-74.005229,40.720824,3404.315792560577
12:34:00,1,A36,Chambers St,-74.008585,40.714111,3566.615792560577
12:34:00,1,A38,Fulton St,-74.007691,40.710197,3453.2380936145787
12:50:00,1,A40,High St,-73.990531,40.699337,3673.038093614579
12:50:00,1,A41,Jay St-MetroTech,-73.987342,40.692338,3831.038093614579
12:50:00,1,A42,Hoyt-Schermerhorn Sts,-73.985001,40.688484,4001.0380936145784
13:30:00,1,A43,Lafayette Av,-73.973946,40.686113,4192.738094329834
13:30:00,1,A44,Clinton-Washington Avs,-73.965838,40.683263,4307.738094329834
13:30:00,1,A45,Franklin Av,-73.956848,40.68138,4427.738094329834
12:50:00,1,A46,Nostrand Av,-73.950426,40.680438,4420.238093614579
12:10:00,1,A47,Kingston-Throop Avs,-73.940858,40.679921,4541.338093614579
12:10:00,1,A48,Utica Av,-73.930729,40.679364,4618.43809361458
12:10:00,1,A49,Ralph Av,-73.920786,40.678822,4741.43809361458
12:10:00,1,A50,Rockaway Av,-73.911946,40.67834,4817.517521381377
12:50:00,1,A51,Broadway Junction,-73.905316,40.678334,4699.517521381377
12:10:00,1,A52,Liberty Av,-73.896548,40.674542,4874.517521381377
12:10:00,1,A53,Van Siclen Av,-73.890358,40.67271,4994.517521381377
12:10:00,1,A54,Shepherd Av,-73.88075,40.67413,5114.517521381377
12:50:00,1,A55,Euclid Av,-73.872106,40.675377,5119.517521381377
12:50:00,1,A57,Grant Av,-73.86505,40.677044,5284.517521381377
12:50:00,1,A59,80 St,-73.858992,40.679371,5406.517521381377
12:50:00,1,A60,88 St,-73.85147,40.679843,5527.517521381377
12:50:00,1,A61,Rockaway Blvd,-73.843853,40.680429,5647.517521381377
13:54:00,1,A63,104 St,-73.837683,40.681711,5767.517521381377
13:54:00,1,A64,111 St,-73.832163,40.684331,5887.517521381377
13:54:00,1,A65,Ozone Park-Lefferts Blvd,-73.825798,40.685951,6019.517521381377
13:22:00,1,B04,21 St-Queensbridge,-73.942836,40.754203,2912.75
13:22:00,1,B06,Roosevelt Island,-73.95326,40.759145,2806.6499999999996
12:02:00,1,B08,Lexington Av/63 St,-73.966113,40.764629,2589.0
12:42:00,1,B10,57 St,-73.97745,40.763972,2810.25
12:34:00,1,B12,9 Av,-73.994324,40.646292,5135.430147743226
12:34:00,1,B13,Fort Hamilton Pkwy,-73.994304,40.640914,5255.430147743226
12:34:00,1,B14,50 St,-73.994791,40.63626,5367.430147743226
12:34:00,1,B15,55 St,-73.995476,40.631435,5494.4301477432255
12:34:00,1,B16,62 St,-73.996895,40.626472,5599.4301477432255
12:34:00,1,B17,71 St,-73.998864,40.619589,5719.4301477432255
12:34:00,1,B18,79 St,-74.00061,40.613501,5842.4301477432255
12:34:00,1,B19,18 Av,-74.001736,40.607954,5957.4301477432255
12:34:00,1,B20,20 Av,-73.998168,40.604556,6072.430147743226
12:34:00,1,B21,Bay Pkwy,-73.993728,40.601875,6182.4301477432255
13:14:00,1,B22,25 Av,-73.986829,40.597704,6340.430147743226
13:14:00,1,B23,Bay 50 St,-73.983765,40.588841,6476.038093614578
12:10:00,1,D01,Norwood-205 St,-73.878855,40.874811,2268.9394706726075
12:10:00,1,D03,Bedford Park Blvd,-73.887138,40.873244,2055.7394706726072
12:10:00,1,D04,Kingsbridge Rd,-73.893509,40.866978,1915.7394706726072
12:10:00,1,D05,Fordham Rd,-73.897749,40.861296,1795.7394706726072
12:10:00,1,D06,182-183 Sts,-73.900741,40.856093,1720.9394706726073
12:10:00,1,D07,Tremont Av,-73.905227,40.85041,1603.9394706726075
12:10:00,1,D08,174-175 Sts,-73.910136,40.8459,1483.9394706726075
12:10:00,1,D09,170 St,-73.9134,40.839306,1362.5394706726074
12:10:00,1,D10,167 St,-73.91844,40.833771,1239.5394706726074
13:54:00,1,D11,161 St-Yankee Stadium,-73.925651,40.827905,1089.9999999999998
12:34:00,1,D12,155 St,-73.938209,40.830135,1256.9999999999998
12:34:00,1,D13,145 St,-73.944216,40.824783,1384.9999999999998
12:34:00,1,D14,7 Av,-73.981637,40.762862,2474.0394706726074
12:34:00,1,D15,47-50 Sts-Rockefeller Ctr,-73.981329,40.758663,2599.0394706726074
12:34:00,1,D16,42 St-Bryant Pk,-73.984569,40.754222,2719.0394706726074
12:34:00,1,D17,34 St-Herald Sq,-73.987823,40.749719,2836.0394706726074
13:14:00,1,D18,23 St,-73.992821,40.742878,3154.0394706726074
13:14:00,1,D19,14 St,-73.996209,40.738228,3259.0394706726074
12:34:00,1,D20,W 4 St-Wash Sq,-74.000495,40.732338,3082.039470672608
12:34:00,1,D21,Broadway-Lafayette St,-73.996204,40.725297,3262.039470672608
12:34:00,1,D22,Grand St,-73.993753,40.718267,3437.0394706726074
12:26:00,1,D24,Atlantic Av-Barclays Ctr,-73.97689,40.68446,4178.499997615815
12:26:00,1,D25,7 Av,-73.972367,40.67705,4351.499997615815
12:26:00,1,D26,Prospect Park,-73.962246,40.661614,4599.499997615815
12:26:00,1,D27,Parkside Av,-73.961495,40.655292,4719.499997615815
12:26:00,1,D28,Church Av,-73.962982,40.650527,4827.9671013355255
12:26:00,1,D29,Beverley Rd,-73.964492,40.644031,4976.65757894516
12:26:00,1,D30,Cortelyou Rd,-73.963891,40.640927,5091.65757894516
12:18:00,1,D31,Newkirk Plaza,-73.962793,40.635082,5047.9671013355255
12:26:00,1,D32,Avenue H,-73.961639,40.62927,5202.287102222443
12:26:00,1,D33,Avenue J,-73.960803,40.625039,5323.287102222443
12:26:00,1,D34,Avenue M,-73.959399,40.617618,5451.287102222443
12:18:00,1,D35,Kings Hwy,-73.957734,40.60867,5391.467101335526
12:18:00,1,D37,Avenue U,-73.955929,40.5993,5636.477413415909
12:18:00,1,D38,Neck Rd,-73.955161,40.595246,5791.6774134159095
12:18:00,1,D39,Sheepshead Bay,-73.954155,40.586896,5731.20710310936
12:18:00,1,D40,Brighton Beach,-73.961376,40.577621,5911.20710310936
12:18:00,1,D41,Ocean Pkwy,-73.968501,40.576312,6091.30710310936
12:18:00,1,D42,W 8 St-NY Aquarium,-73.975939,40.576127,5999.438093614579
12:18:00,1,D43,Coney Island-Stillwell Av,-73.981233,40.577422,6133.938093614578
13:14:00,1,E01,World Trade Center,-74.009781,40.712582,3664.4229342937465
12:18:00,1,F01,Jamaica-179 St,-73.783817,40.712646,4490.25
13:06:00,1,F02,169 St,-73.793604,40.71047,4400.25
13:22:00,1,F03,Parsons Blvd,-73.803326,40.707564,4280.25
13:22:00,1,F04,Sutphin Blvd,-73.810708,40.70546,4190.25
13:22:00,1,F05,Briarwood,-73.820574,40.709179,4070.2500000000005
12:10:00,1,F06,Kew Gardens-Union Tpke,-73.831008,40.714441,3950.2500000000005
13:22:00,1,F07,75 Av,-73.837324,40.718331,3860.2500000000005
12:10:00,1,F09,Court Sq-23 St,-73.946,40.747846,3022.7979804602537
13:14:00,1,F11,Lexington Av/53 St,-73.969055,40.757552,2831.8888895511627
13:14:00,1,F12,5 Av/53 St,-73.975224,40.760167,2843.478724479675
13:54:00,1,F14,2 Av,-73.989938,40.723402,3532.923810005189
13:54:00,1,F15,Delancey St-Essex St,-73.988114,40.718611,3668.195237636567
13:54:00,1,F16,East Broadway,-73.990173,40.713715,3758.195237636567
13:54:00,1,F18,York St,-73.986751,40.701397,3938.195237636567
12:50:00,1,F20,Bergen St,-73.990862,40.686145,4148.6943424224855
12:50:00,1,F21,Carroll St,-73.995048,40.680303,4286.223278093338
12:50:00,1,F22,Smith-9 Sts,-73.995959,40.67358,4471.223278093337
12:50:00,1,F23,4 Av-9 St,-73.989779,40.670272,4559.203232574463
12:50:00,1,F24,7 Av,-73.980305,40.666271,4386.038093614578
12:50:00,1,F25,15 St-Prospect Park,-73.979493,40.660365,4559.203232574463
12:50:00,1,F26,Fort Hamilton Pkwy,-73.975776,40.650782,4799.203232574463
12:50:00,1,F27,Church Av,-73.979678,40.644041,4626.038093614578
12:50:00,1,F29,Ditmas Av,-73.978172,40.636119,4746.038093614578
12:50:00,1,F30,18 Av,-73.976971,40.629755,4866.038093614578
12:50:00,1,F31,Avenue I,-73.976127,40.625322,4926.038093614578
12:50:00,1,F32,Bay Pkwy,-73.975264,40.620769,4986.038093614578
12:50:00,1,F33,Avenue N,-73.974197,40.61514,5106.038093614578
12:50:00,1,F34,Avenue P,-73.973022,40.608944,5196.038093614578
12:50:00,1,F35,Kings Hwy,-73.972361,40.603217,5481.038093614578
12:50:00,1,F36,Avenue U,-73.973357,40.596063,5601.938093614579
12:50:00,1,F38,Avenue X,-73.97425,40.58962,5721.938093614579
12:58:00,1,F39,Neptune Av,-73.974574,40.581011,5874.438093614579
13:54:00,1,G05,Jamaica Center-Parsons/Archer,-73.801109,40.702147,4658.250000000001
12:10:00,1,G06,Sutphin Blvd-Archer Av-JFK Airport,-73.807969,40.700486,4528.250000000001
12:10:00,1,G07,Jamaica-Van Wyck,-73.816859,40.702566,4352.250000000001
12:10:00,1,G08,Forest Hills-71 Av,-73.844521,40.721691,3740.25
12:10:00,1,G09,67 Av,-73.852719,40.726523,3920.2500000000005
13:30:00,1,G10,63 Dr-Rego Park,-73.861604,40.729846,3980.2500000000005
13:30:00,1,G11,Woodhaven Blvd,-73.869229,40.733106,3890.2500000000005
13:30:00,1,G12,Grand Av-Newtown,-73.877223,40.737015,3770.25
13:30:00,1,G13,Elmhurst Av,-73.882017,40.742454,3680.25
12:10:00,1,G14,Jackson Hts-Roosevelt Av,-73.891338,40.746644,3320.25
13:22:00,1,G15,65 St,-73.898453,40.749669,3650.25
13:22:00,1,G16,Northern Blvd,-73.906006,40.752885,3558.909089803695
13:22:00,1,G18,46 St,-73.913333,40.756312,3438.909089803695
13:22:00,1,G19,Steinway St,-73.92074,40.756879,3318.909089803695
13:22:00,1,G20,36 St,-73.928781,40.752039,3188.9090898036957
12:42:00,1,G21,Queens Plaza,-73.937243,40.748973,3054.108924484253
12:26:00,2,G22,Court Sq,-73.943832,40.746554,3050.4561802387234
12:26:00,2,G24,21 St,-73.949724,40.744065,3170.4561802387234
12:26:00,2,G26,Greenpoint Av,-73.954449,40.731352,3345.4561802387234
12:26:00,2,G28,Nassau Av,-73.951277,40.724635,3470.4561802387234
12:26:00,2,G29,Metropolitan Av,-73.951418,40.712792,3655.456180238724
12:26:00,2,G30,Broadway,-73.950308,40.706092,3773.456180238724
12:26:00,2,G31,Flushing Av,-73.950234,40.700377,3893.4561802387243
12:26:00,2,G32,Myrtle-Willoughby Avs,-73.949046,40.694568,4010.4561802387243
13:30:00,1,G33,Bedford-Nostrand Avs,-73.953522,40.689627,4130.456180238724
13:30:00,1,G34,Classon Av,-73.96007,40.688873,4245.456180238724
13:30:00,1,G35,Clinton-Washington Avs,-73.966839,40.688089,4358.456180238725
13:30:00,1,G36,Fulton St,-73.975375,40.687119,4357.629397392273
12:10:00,1,H01,Aqueduct Racetrack,-73.834058,40.668234,5889.517521381377
12:50:00,1,H02,Aqueduct-N Conduit Av,-73.834058,40.668234,5951.338264131546
12:50:00,1,H03,Howard Beach-JFK Airport,-73.830301,40.660476,6127.338264131546
12:50:00,1,H04,Broad Channel,-73.815925,40.608382,6680.417521381377
12:50:00,1,H06,Beach 67 St,-73.796924,40.590927,7122.017521381377
12:50:00,1,H07,Beach 60 St,-73.788522,40.592374,7252.017521381377
12:50:00,1,H08,Beach 44 St,-73.776013,40.592943,7379.017521381377
12:50:00,1,H09,Beach 36 St,-73.768175,40.595398,7502.017521381377
12:50:00,1,H10,Beach 25 St,-73.761353,40.600066,7622.017521381377
12:50:00,1,H11,Far Rockaway-Mott Av,-73.755405,40.603995,7742.017521381377
12:10:00,1,H12,Beach 90 St,-73.813641,40.588034,7027.217521381377
12:10:00,1,H13,Beach 98 St,-73.820558,40.585307,7150.217521381377
12:10:00,1,H14,Beach 105 St,-73.827559,40.583209,7265.217521381377
12:10:00,1,H15,Rockaway Park-Beach 116 St,-73.835592,40.580903,7388.217521381377
13:54:00,1,J12,121 St,-73.828294,40.700492,4966.050000000001
13:54:00,1,J13,111 St,-73.836345,40.697418,5078.250000000001
13:54:00,1,J14,104 St,-73.84433,40.695178,5192.85
13:54:00,1,J15,Woodhaven Blvd,-73.851576,40.693879,5288.250000000001
13:54:00,1,J16,85 St-Forest Pkwy,-73.86001,40.692435,5619.517521381377
13:54:00,1,J17,75 St-Elderts Ln,-73.867139,40.691324,5239.517521381377
13:54:00,1,J19,Cypress Hills,-73.87255,40.689941,5484.350853919982
13:54:00,1,J20,Crescent St,-73.873785,40.683194,5089.517521381377
12:42:00,1,J21,Norwood Av,-73.880039,40.68141,4999.517521381377
12:42:00,1,J22,Cleveland St,-73.884639,40.679947,5067.393309354781
12:42:00,1,J23,Van Siclen Av,-73.891688,40.678024,4849.517521381377
12:26:00,2,J24,Alabama Av,-73.898654,40.676992,4789.517521381377
12:42:00,1,J27,Broadway Junction,-73.904512,40.679498,4686.1991341114035
12:42:00,1,J28,Chauncey St,-73.910456,40.682893,4648.738094329835
12:42:00,1,J29,Halsey St,-73.916559,40.68637,4700.179268836976
12:42:00,1,J30,Gates Av,-73.92227,40.68963,4498.738094329835
12:42:00,1,J31,Kosciuszko St,-73.928814,40.693342,4510.179268836975
12:34:00,1,L01,8 Av,-74.002578,40.739777,3053.315792560577
12:34:00,1,L02,6 Av,-73.996786,40.737335,3098.199134111405
12:34:00,1,L03,14 St-Union Sq,-73.99073,40.734789,2980.199134111405
12:02:00,1,L05,3 Av,-73.986122,40.732849,3072.099134111405
12:02:00,1,L06,1 Av,-73.981628,40.730953,3125.099134111405
12:02:00,1,L08,Bedford Av,-73.956872,40.717304,3351.099134111405
12:02:00,1,L10,Lorimer St,-73.950275,40.714063,3466.0991341114045
12:02:00,1,L11,Graham Av,-73.944053,40.714565,3527.0991341114045
12:02:00,1,L12,Grand St,-73.94067,40.711926,3624.0991341114045
12:02:00,1,L13,Montrose Av,-73.93985,40.707739,3685.0991341114045
12:02:00,1,L14,Morgan Av,-73.933147,40.706152,3771.0991341114045
12:02:00,1,L15,Jefferson St,-73.922913,40.706607,3867.099134111404
12:02:00,1,L16,DeKalb Av,-73.918425,40.703811,3946.099134111404
12:02:00,1,L17,Myrtle-Wyckoff Avs,-73.911586,40.699814,4042.0991341114036
12:02:00,1,L19,Halsey St,-73.904084,40.695602,4117.099134111403
12:02:00,1,L20,Wilson Av,-73.904046,40.688764,4253.099134111403
12:02:00,1,L21,Bushwick Av-Aberdeen St,-73.905249,40.682829,4367.099134111404
12:02:00,1,L22,Broadway Junction,-73.90324,40.678856,4461.1991341114035
12:02:00,1,L24,Atlantic Av,-73.903097,40.675345,4639.1991341114035
12:02:00,1,L25,Sutter Av,-73.901975,40.669367,4738.1991341114035
12:02:00,1,L26,Livonia Av,-73.900571,40.664038,4821.199134111404
12:02:00,1,L27,New Lots Av,-73.899232,40.658733,4897.999134111405
12:02:00,1,L28,East 105 St,-73.899485,40.650573,5051.999134111404
13:56:00,1,L29,Canarsie-Rockaway Pkwy,-73.90185,40.646654,5310.999134111404
12:02:00,2,M01,Middle Village-Metropolitan Av,-73.889601,40.711396,4751.499134111404
12:02:00,2,M04,Fresh Pond Rd,-73.895877,40.706186,4619.499134111404
12:02:00,2,M05,Forest Av,-73.903077,40.704423,4508.499134111404
12:42:00,2,M06,Seneca Av,-73.90774,40.702762,4388.499134111404
13:06:00,1,M08,Myrtle-Wyckoff Avs,-73.912385,40.69943,4267.099134111403
13:22:00,2,M09,Knickerbocker Av,-73.919711,40.698664,4387.099134111403
13:06:00,1,M10,Central Av,-73.927397,40.697857,4525.099134111403
12:42:00,1,M11,Myrtle Av,-73.935657,40.697207,4318.738094329835
13:06:00,1,M12,Flushing Av,-73.941126,40.70026,4365.038094329835
13:06:00,1,M13,Lorimer St,-73.947408,40.703869,4245.038094329835
13:06:00,1,M14,Hewes St,-73.953431,40.70687,4125.038094329835
13:06:00,1,M16,Marcy Av,-73.957757,40.708359,4001.5380943298346
13:06:00,1,M18,Delancey St-Essex St,-73.987437,40.718315,3579.5380943298346
12:02:00,1,M19,Bowery,-73.993915,40.72028,3464.5380943298346
12:02:00,1,M20,Canal St,-73.999892,40.718092,3343.7380943298344
12:58:00,1,M21,Chambers St,-74.003401,40.713243,3223.7380943298344
12:02:00,1,M22,Fulton St,-74.007582,40.710374,3343.7380943298344
12:02:00,1,M23,Broad St,-74.011056,40.706476,3411.7380943298344
12:34:00,1,N02,8 Av,-74.011719,40.635064,5336.090524291993
12:34:00,1,N03,Fort Hamilton Pkwy,-74.005351,40.631386,5512.257721233368
12:34:00,1,N04,New Utrecht Av,-73.996353,40.624842,5639.257721233368
12:34:00,1,N05,18 Av,-73.990414,40.620671,5759.257721233368
12:34:00,1,N06,20 Av,-73.985026,40.61741,5848.990524291992
12:34:00,1,N07,Bay Pkwy,-73.981848,40.611815,5997.257721233368
12:34:00,1,N08,Kings Hwy,-73.980353,40.603923,6127.257721233368
12:34:00,1,N09,Avenue U,-73.979137,40.597473,6260.257721233368
12:34:00,1,N10,86 St,-73.97823,40.592721,6435.890524291993
12:26:00,1,Q01,Canal St,-74.00046,40.718383,3336.9577212333684
13:56:00,1,Q03,72 St,-73.958424,40.768799,2730.4
13:56:00,1,Q04,86 St,-73.951787,40.777891,2909.0
13:56:00,1,Q05,96 St,-73.947152,40.784318,3029.0
12:34:00,1,R01,Astoria-Ditmars Blvd,-73.912034,40.775036,3734.05
12:34:00,1,R03,Astoria Blvd,-73.917843,40.770258,3619.05
12:34:00,1,R04,30 Av,-73.921479,40.766779,3495.05
12:34:00,1,R05,Broadway,-73.925508,40.76182,3375.05
12:34:00,1,R06,36 Av,-73.929575,40.756804,3178.456178569794
12:34:00,1,R08,39 Av-Dutch Kills,-73.932755,40.752882,3058.456178569794
12:34:00,1,R09,Queensboro Plaza,-73.940202,40.750582,2813.456178569794
12:02:00,1,R11,Lexington Av/59 St,-73.967258,40.76266,2458.9090898036957
12:02:00,1,R13,5 Av/59 St,-73.973347,40.764811,2578.9090898036957
12:02:00,1,R14,57 St-7 Av,-73.980658,40.764664,2748.9090898036957
12:02:00,1,R15,49 St,-73.984139,40.759901,2904.0561785697937
12:02:00,1,R16,Times Sq-42 St,-73.986754,40.754672,2796.2380943298344
12:02:00,1,R17,34 St-Herald Sq,-73.98795,40.749567,2916.2380943298344
12:02:00,1,R18,28 St,-73.988691,40.745494,3030.238094329835
12:02:00,1,R19,23 St,-73.989344,40.741303,3125.292147159577
12:18:00,1,R20,14 St-Union Sq,-73.990568,40.735736,2991.2380943298344
12:10:00,1,R21,8 St-NYU,-73.992629,40.730328,3122.2380943298344
12:10:00,1,R22,Prince St,-73.997702,40.724329,3242.2380943298344
12:10:00,1,R23,Canal St,-74.001775,40.719527,3362.2380943298344
12:18:00,1,R24,City Hall,-74.006978,40.713282,3537.238094329834
12:18:00,1,R25,Cortlandt St,-74.011029,40.710668,3672.238094329834
12:18:00,1,R26,Rector St,-74.013342,40.70722,3792.238094329834
12:18:00,1,R27,Whitehall St-South Ferry,-74.012994,40.703087,3912.238094329834
12:18:00,1,R28,Court St,-73.991777,40.6941,3981.2380943298344
13:06:00,1,R29,Jay St-MetroTech,-73.985942,40.69218,3966.038093614579
12:26:00,1,R30,DeKalb Av,-73.981824,40.690635,4052.923810005189
12:34:00,1,R31,Atlantic Av-Barclays Ctr,-73.97881,40.683666,4171.957721233369
12:26:00,1,R32,Union St,-73.98311,40.677316,4349.457721233368
12:26:00,1,R33,4 Av-9 St,-73.988302,40.670847,4479.167101335525
12:26:00,1,R34,Prospect Av,-73.992872,40.665414,4604.167101335525
12:26:00,1,R35,25 St,-73.998091,40.660397,4734.167101335525
12:34:00,1,R36,36 St,-74.003549,40.655144,4696.0905242919935
12:26:00,1,R39,45 St,-74.010006,40.648939,4917.257721233369
13:54:00,1,R40,53 St,-74.014034,40.645069,5037.257721233369
12:34:00,1,R41,59 St,-74.017881,40.641362,5120.090524291993
12:26:00,1,R42,Bay Ridge Av,-74.023377,40.634967,5300.631064510346
12:26:00,1,R43,77 St,-74.02551,40.629742,5415.631064510347
12:26:00,1,R44,86 St,-74.028398,40.622687,5634.396077728272
12:26:00,1,R45,Bay Ridge-95 St,-74.030876,40.616622,5754.396077728272
12:34:00,1,S01,Franklin Av,-73.955827,40.680596,4487.738094329834
12:34:00,1,S03,Park Pl,-73.957624,40.674772,4622.138094329834
12:18:00,1,S04,Botanic Garden,-73.959245,40.670343,4504.738094329834
