start_time,ntransfers,stop_id,stop_name,stop_lon,stop_lat,duration
12:06:00,4,101,Van Cortlandt Park-242 St,-73.898583,40.889248,4085.375167751312
12:06:00,4,103,238 St,-73.90087,40.884667,3919.375167751312
12:06:00,4,104,231 St,-73.904834,40.878856,3793.181578397751
12:06:00,4,106,Marble Hill-225 St,-73.909831,40.874561,3683.181578397751
12:06:00,4,107,215 St,-73.915279,40.869444,3529.9751677513123
12:06:00,4,108,207 St,-73.918822,40.864621,3437.181578397751
12:06:00,4,109,Dyckman St,-73.925536,40.860531,3316.181578397751
12:06:00,4,110,191 St,-73.929412,40.855225,3209.181578397751
12:06:00,4,111,181 St,-73.933596,40.849505,3098.181578397751
12:14:00,0,112,168 St-Washington Hts,-73.940133,40.840556,2963.181578397751
12:14:00,0,113,157 St,-73.94489,40.834041,3075.181578397751
12:14:00,0,114,145 St,-73.95036,40.826551,3205.181578397751
12:14:00,0,115,137 St-City College,-73.953676,40.822008,3171.579588508606
12:14:00,0,116,125 St,-73.958372,40.815581,3005.979588508606
12:14:00,0,117,116 St-Columbia University,-73.96411,40.807722,2841.979588508606
12:14:00,0,118,Cathedral Pkwy (110 St),-73.966847,40.803967,2760.979588508606
12:14:00,0,119,103 St,-73.968379,40.799446,2668.979588508606
12:06:00,0,120,96 St,-73.972323,40.793919,2267.4499985694883
12:14:00,0,121,86 St,-73.976218,40.788644,2457.0499985694883
12:14:00,0,122,79 St,-73.979917,40.783934,2546.4499985694883
12:06:00,0,123,72 St,-73.98197,40.778453,2521.7499985694885
12:22:00,0,124,66 St-Lincoln Center,-73.982209,40.77344,2651.147905826569
12:22:00,0,125,59 St-Columbus Circle,-73.981929,40.768247,2750.5
12:22:00,0,126,50 St,-73.983849,40.761728,2622.5
12:06:00,0,127,Times Sq-42 St,-73.987495,40.75529,2494.5
12:06:00,0,128,34 St-Penn Station,-73.991057,40.750373,2623.5
12:14:00,0,129,28 St,-73.993365,40.747215,2721.5
12:14:00,0,130,23 St,-73.995657,40.744081,2800.5000000000005
12:14:00,0,131,18 St,-73.997871,40.74104,2877.5
12:06:00,0,132,14 St,-74.000201,40.737826,2816.0
12:14:00,0,133,Christopher St-Sheridan Sq,-74.002906,40.733422,3074.5
12:14:00,0,134,Houston St,-74.005367,40.728251,3179.5
12:14:00,0,135,Canal St,-74.006277,40.722854,3287.5
12:06:00,0,136,Franklin St,-74.006886,40.719318,3362.5
12:06:00,0,137,Chambers St,-74.009266,40.715478,3112.0000000000005
12:06:00,0,138,WTC Cortlandt,-74.012188,40.711835,3410.254098653794
12:06:00,0,139,Rector St,-74.013783,40.707513,3512.2540986537942
12:06:00,0,142,South Ferry,-74.013664,40.702068,3655.2540986537942
12:46:00,0,201,Wakefield-241 St,-73.85062,40.903125,1622.5000000000002
12:46:00,0,204,Nereid Av,-73.854376,40.898379,1306.5000000000005
12:46:00,0,205,233 St,-73.857473,40.893193,1148.9000000000005
12:46:00,0,206,225 St,-73.860341,40.888022,1048.9000000000003
12:46:00,0,207,219 St,-73.862633,40.883895,963.7000000000003
12:46:00,0,208,Gun Hill Rd,-73.866256,40.87785,848.4000000000002
12:46:00,0,209,Burke Av,-73.867164,40.871356,922.9000000000001
12:46:00,0,210,Allerton Av,-73.867352,40.865462,821.9000000000001
12:46:00,0,211,Pelham Pkwy,-73.867615,40.857192,699.9000000000001
12:46:00,0,212,Bronx Park East,-73.868457,40.848828,555.9000000000001
12:06:00,0,213,E 180 St,-73.873488,40.841894,210.0
12:06:00,0,214,West Farms Sq-E Tremont Av,-73.880049,40.840295,463.9000000000001
12:06:00,0,215,174 St,-73.887734,40.837288,595.9000000000001
12:06:00,0,216,Freeman St,-73.891865,40.829993,760.9000000000001
12:06:00,0,217,Simpson St,-73.893064,40.824073,908.9000000000001
12:06:00,0,218,Intervale Av,-73.896736,40.822181,1003.0000000000001
12:06:00,0,219,Prospect Av,-73.90177,40.819585,1106.0
12:06:00,0,220,Jackson Av,-73.907807,40.81649,1230.0
12:06:00,0,221,3 Av-149 St,-73.917757,40.816109,936.0
12:06:00,0,222,149 St-Grand Concourse,-73.926718,40.81841,1056.0
12:06:00,0,224,135 St,-73.94077,40.814229,1637.7499985694888
12:06:00,0,225,125 St,-73.945495,40.807754,1774.7499985694885
12:06:00,0,226,116 St,-73.949625,40.802098,1891.7499985694885
12:06:00,0,227,Central Park North (110 St),-73.951822,40.799075,1975.7499985694885
12:06:00,0,228,Park Place,-74.008811,40.713051,3216.0000000000005
12:06:00,0,229,Fulton St,-74.006571,40.709416,3271.4999992847443
12:06:00,1,230,Wall St,-74.0091,40.706821,3358.4999992847447
12:06:00,1,231,Clark St,-73.993086,40.697466,3569.4999992847447
12:06:00,1,232,Borough Hall,-73.989998,40.693219,3701.4999992847447
12:06:00,0,233,Hoyt St,-73.985065,40.690545,3700.1870245933537
12:06:00,0,234,Nevins St,-73.980492,40.688246,3559.5
12:06:00,0,235,Atlantic Av-Barclays Ctr,-73.977666,40.684359,3649.5
12:06:00,0,236,Bergen St,-73.975098,40.680829,3804.4290070056923
12:06:00,0,237,Grand Army Plaza,-73.971046,40.675235,3917.187024593353
12:06:00,0,238,Eastern Pkwy-Brooklyn Museum,-73.964375,40.671987,4037.3870245933526
12:06:00,0,239,Franklin Av-Medgar Evers College,-73.958131,40.670682,3978.0
12:06:00,0,241,President St-Medgar Evers College,-73.950683,40.667883,4153.5
12:06:00,0,242,Sterling St,-73.95085,40.662742,4245.0
12:06:00,0,243,Winthrop St,-73.9502,40.656652,4357.5
12:06:00,0,244,Church Av,-73.949575,40.650843,4453.5
13:58:00,0,245,Beverly Rd,-73.948959,40.645098,4563.0
13:58:00,0,246,Newkirk Av-Little Haiti,-73.948411,40.639967,4641.0
13:58:00,0,247,Flatbush Av-Brooklyn College,-73.947642,40.632836,4778.999999999999
12:06:00,0,248,Nostrand Av,-73.950466,40.669847,4236.688237047195
12:06:00,0,249,Kingston Av,-73.942161,40.669399,4355.488237047195
12:06:00,0,250,Crown Hts-Utica Av,-73.932942,40.668897,4421.888237047196
12:06:00,0,251,Sutter Av-Rutland Rd,-73.92261,40.664717,4592.788237047195
12:06:00,0,252,Saratoga Av,-73.916327,40.661453,4719.088237047195
12:06:00,0,253,Rockaway Av,-73.908946,40.662549,4814.388237047196
12:06:00,0,254,Junius St,-73.902447,40.663515,4849.461039781571
12:06:00,0,255,Pennsylvania Av,-73.894895,40.664635,4962.161039781571
12:06:00,0,256,Van Siclen Av,-73.889395,40.665449,5046.161039781572
12:06:00,0,257,New Lots Av,-73.884079,40.666235,5192.661039781571
12:06:00,0,301,Harlem-148 St,-73.93647,40.82388,2246.0499985694883
12:06:00,0,302,145 St,-73.936245,40.820421,2079.0499985694887
12:06:00,1,401,Woodlawn,-73.878751,40.886037,2949.7499985694876
12:06:00,1,402,Mosholu Pkwy,-73.884655,40.87975,2773.749998569488
12:06:00,1,405,Bedford Park Blvd-Lehman College,-73.890064,40.873412,2627.749998569488
12:06:00,1,406,Kingsbridge Rd,-73.897174,40.86776,2490.7499985694885
12:06:00,1,407,Fordham Rd,-73.901034,40.862803,2385.7499985694885
12:06:00,1,408,183 St,-73.903879,40.858407,2279.7499985694885
12:06:00,1,409,Burnside Av,-73.907684,40.853453,2164.7499985694885
12:06:00,1,410,176 St,-73.911794,40.84848,2056.7499985694885
12:06:00,1,411,Mt Eden Av,-73.914685,40.844434,1957.7499985694888
12:06:00,1,412,170 St,-73.917791,40.840075,1863.7499985694885
12:06:00,1,413,167 St,-73.9214,40.835537,1756.7499985694885
12:06:00,1,414,161 St-Yankee Stadium,-73.925831,40.827994,1625.7499985694885
12:06:00,0,415,149 St-Grand Concourse,-73.927351,40.818375,1338.7499985694885
12:06:00,0,416,138 St-Grand Concourse,-73.929849,40.813224,1261.5000000000002
12:06:00,0,418,Fulton St,-74.009509,40.710368,2922.0
12:06:00,0,419,Wall St,-74.011862,40.707557,3021.0
12:06:00,0,420,Bowling Green,-74.014065,40.704817,3111.0
12:06:00,0,423,Borough Hall,-73.990151,40.692404,3439.5
13:59:30,0,501,Eastchester-Dyre Av,-73.830834,40.8883,540.0
12:01:00,0,502,Baychester Av,-73.838591,40.878663,385.70000000000005
12:01:00,0,503,Gun Hill Rd,-73.846384,40.869526,240.0
12:01:00,0,504,Pelham Pkwy,-73.855359,40.858985,90.0
12:01:00,0,505,Morris Park,-73.860495,40.854364,0.0
13:42:00,0,601,Pelham Bay Park,-73.828121,40.852462,3699.7619104385385
13:42:00,0,602,Buhre Av,-73.832569,40.84681,3480.0619104385382
13:42:00,0,603,Middletown Rd,-73.836322,40.843863,3398.0619104385382
13:42:00,0,604,Westchester Sq-E Tremont Av,-73.842952,40.839892,3209.8428585052498
13:42:00,0,606,Zerega Av,-73.847036,40.836488,3091.8428585052498
13:42:00,0,607,Castle Hill Av,-73.851222,40.834255,3009.9428585052497
12:30:00,0,608,Parkchester,-73.860816,40.833226,2683.1428585052495
12:30:00,0,609,St Lawrence Av,-73.867618,40.831509,2960.6871706962593
12:30:00,0,610,Morrison Av-Soundview,-73.874516,40.829521,2827.6871706962593
12:30:00,0,611,Elder Av,-73.879159,40.828584,2738.687170696259
12:30:00,0,612,Whitlock Av,-73.886283,40.826525,2601.6871706962593
12:30:00,0,613,Hunts Point Av,-73.890549,40.820948,2330.7428585052494
12:06:00,0,614,Longwood Av,-73.896435,40.816104,2499.3515535354622
12:06:00,0,615,E 149 St,-73.904098,40.812118,2371.3515535354622
12:06:00,0,616,E 143 St-St Mary's St,-73.907657,40.808719,2281.3515535354622
12:06:00,0,617,Cypress Av,-73.914042,40.805368,2162.3515535354622
12:06:00,0,618,Brook Av,-73.91924,40.807566,2083.351553535462
12:06:00,0,619,3 Av-138 St,-73.926138,40.810476,1926.7428585052494
12:06:00,0,621,125 St,-73.937594,40.804138,1455.0000000000002
12:06:00,0,622,116 St,-73.941617,40.798629,1800.1428585052493
12:06:00,0,623,110 St,-73.94425,40.79502,1896.3428585052493
12:06:00,0,624,103 St,-73.947478,40.7906,1986.3428585052493
12:06:00,0,625,96 St,-73.95107,40.785672,2091.2428585052494
12:06:00,0,626,86 St,-73.955589,40.779492,1815.0000000000002
12:06:00,0,627,77 St,-73.959874,40.77362,2167.184972524643
12:06:00,0,628,68 St-Hunter College,-73.96387,40.768141,2275.1849725246425
12:06:00,0,629,59 St,-73.967967,40.762526,2047.5
12:06:00,0,630,51 St,-73.97192,40.757107,2384.3
12:06:00,0,631,Grand Central-42 St,-73.976848,40.751776,2197.5
12:06:00,0,632,33 St,-73.982076,40.746081,2452.5
12:06:00,0,633,28 St,-73.984264,40.74307,2530.5
12:06:00,0,634,23 St,-73.986599,40.739864,2610.5
12:06:00,0,635,14 St-Union Sq,-73.989951,40.734673,2464.5
12:06:00,0,636,Astor Pl,-73.99107,40.730054,2782.9571433067326
12:06:00,0,637,Bleecker St,-73.994659,40.725915,2893.9571433067326
12:06:00,0,638,Spring St,-73.997141,40.722301,2978.657143306733
12:06:00,0,639,Canal St,-74.000193,40.718803,2983.0
12:06:00,0,640,Brooklyn Bridge-City Hall,-74.004131,40.713065,2802.0
12:14:00,2,701,Flushing-Main St,-73.83003,40.7596,3995.7351653303426
12:14:00,2,702,Mets-Willets Point,-73.845625,40.754622,3785.735165330342
12:14:00,2,705,111 St,-73.855334,40.75173,3907.592308187485
12:14:00,2,706,103 St-Corona Plaza,-73.8627,40.749865,3818.592308187485
12:14:00,2,707,Junction Blvd,-73.869527,40.749145,3538.592308187485
12:14:00,2,708,90 St-Elmhurst Av,-73.876613,40.748408,3647.2725136280055
12:46:00,2,709,82 St-Jackson Hts,-73.883697,40.747659,3471.272513628006
12:06:00,2,710,74 St-Broadway,-73.891394,40.746848,3293.4574484825134
13:02:00,2,711,69 St,-73.896403,40.746325,3423.6872352600094
12:06:00,2,712,61 St-Woodside,-73.902984,40.74563,3273.956181907654
12:06:00,2,713,52 St,-73.912549,40.744149,3110.0561802387238
12:06:00,2,714,46 St-Bliss St,-73.918435,40.743132,3046.0561802387238
12:06:00,2,715,40 St-Lowery St,-73.924016,40.743781,2979.0561802387238
12:06:00,2,716,33 St-Rawson St,-73.930997,40.744587,2847.0561802387233
12:14:00,1,718,Queensboro Plaza,-73.940202,40.750582,2678.956180238724
12:06:00,2,719,Court Sq,-73.945264,40.747023,2742.4999999999995
12:14:00,1,720,Hunters Point Av,-73.948916,40.742216,2637.4999999999995
12:14:00,1,721,Vernon Blvd-Jackson Av,-73.953581,40.742626,2572.3
12:30:00,1,723,Grand Central-42 St,-73.976041,40.751431,2317.5
12:30:00,1,724,5 Av,-73.981963,40.753821,2465.5
12:30:00,1,725,Times Sq-42 St,-73.987691,40.755477,2494.5
12:30:00,1,726,34 St-Hudson Yards,-74.00191,40.755882,2654.5
12:30:00,1,901,Grand Central-42 St,-73.979189,40.752769,2257.5
12:30:00,1,902,Times Sq-42 St,-73.986229,40.755983,2374.5
12:06:00,3,A02,Inwood-207 St,-73.919899,40.868072,3439.492447185516
12:06:00,3,A03,Dyckman St,-73.927271,40.865491,3319.492447185516
12:06:00,3,A05,190 St,-73.93418,40.859022,3154.492447185516
12:06:00,3,A06,181 St,-73.937969,40.851695,3029.492447185516
12:06:00,3,A07,175 St,-73.939704,40.847391,2909.492447185516
12:06:00,3,A09,168 St,-73.939561,40.840719,2737.6924471855164
12:06:00,3,A10,163 St-Amsterdam Av,-73.939892,40.836013,2670.907894849777
12:06:00,3,A11,155 St,-73.941514,40.830518,2550.427418231964
12:38:00,2,A12,145 St,-73.944216,40.824783,2370.907894849777
12:38:00,2,A14,135 St,-73.947649,40.817894,2290.266664838791
13:58:00,2,A15,125 St,-73.952343,40.811109,2445.7499985694885
12:06:00,2,A16,116 St,-73.954882,40.805085,2610.907894849777
12:06:00,2,A17,Cathedral Pkwy (110 St),-73.958161,40.800603,2723.907894849777
12:06:00,2,A18,103 St,-73.961454,40.796092,2838.9078948497768
12:06:00,2,A19,96 St,-73.964696,40.791642,2955.907894849777
12:06:00,2,A20,86 St,-73.968916,40.785868,3075.907894849777
12:06:00,2,A21,81 St-Museum of Natural History,-73.972143,40.781433,3059.5000000000005
12:14:00,1,A22,72 St,-73.97641,40.775594,2929.0
12:38:00,2,A24,59 St-Columbus Circle,-73.981736,40.768296,2681.5
12:30:00,1,A25,50 St,-73.985984,40.762456,2616.5
13:58:00,1,A27,42 St-Port Authority Bus Terminal,-73.989735,40.757308,2494.5
13:58:00,1,A28,34 St-Penn Station,-73.993391,40.752287,2619.5000000000005
13:58:00,1,A30,23 St,-73.998041,40.745906,2739.5000000000005
13:58:00,1,A31,14 St,-74.00169,40.740893,2805.5
12:06:00,2,A32,W 4 St-Wash Sq,-74.000495,40.732338,2976.5
13:58:00,1,A33,Spring St,-74.003739,40.726227,3129.5000000000005
12:06:00,2,A34,Canal St,-74.005229,40.720824,3216.5
12:54:00,1,A36,Chambers St,-74.008585,40.714111,3271.4999992847443
13:58:00,1,A38,Fulton St,-74.007691,40.710197,3151.4999992847443
13:18:00,1,A40,High St,-73.990531,40.699337,3371.2999992847444
13:18:00,1,A41,Jay St-MetroTech,-73.987342,40.692338,3529.2999992847444
13:18:00,1,A42,Hoyt-Schermerhorn Sts,-73.985001,40.688484,3699.2999992847444
12:38:00,1,A43,Lafayette Av,-73.973946,40.686113,3891.0000000000005
12:38:00,1,A44,Clinton-Washington Avs,-73.965838,40.683263,4006.000000000001
12:38:00,1,A45,Franklin Av,-73.956848,40.68138,4126.000000000001
13:18:00,1,A46,Nostrand Av,-73.950426,40.680438,4118.499999284744
12:38:00,1,A47,Kingston-Throop Avs,-73.940858,40.679921,4239.599999284744
13:18:00,1,A48,Utica Av,-73.930729,40.679364,4316.699999284745
12:38:00,1,A49,Ralph Av,-73.920786,40.678822,4439.699999284744
13:02:00,1,A50,Rockaway Av,-73.911946,40.67834,4515.779427051545
13:18:00,1,A51,Broadway Junction,-73.905316,40.678334,4397.779427051544
12:54:00,1,A52,Liberty Av,-73.896548,40.674542,4572.779427051545
12:54:00,1,A53,Van Siclen Av,-73.890358,40.67271,4692.779427051545
12:54:00,1,A54,Shepherd Av,-73.88075,40.67413,4812.779427051545
13:18:00,1,A55,Euclid Av,-73.872106,40.675377,4817.779427051544
13:18:00,1,A57,Grant Av,-73.86505,40.677044,4982.779427051544
13:18:00,1,A59,80 St,-73.858992,40.679371,5104.779427051544
13:18:00,1,A60,88 St,-73.85147,40.679843,5225.779427051544
13:18:00,1,A61,Rockaway Blvd,-73.843853,40.680429,5345.779427051544
13:18:00,1,A63,104 St,-73.837683,40.681711,5465.779427051544
13:18:00,1,A64,111 St,-73.832163,40.684331,5585.779427051544
13:18:00,1,A65,Ozone Park-Lefferts Blvd,-73.825798,40.685951,5717.779427051544
12:30:00,1,B04,21 St-Queensbridge,-73.942836,40.754203,2675.0
12:30:00,1,B06,Roosevelt Island,-73.95326,40.759145,2568.9925898551937
12:06:00,1,B08,Lexington Av/63 St,-73.966113,40.764629,2407.5
13:18:00,1,B10,57 St,-73.97745,40.763972,2572.5
12:06:00,1,B12,9 Av,-73.994324,40.646292,4833.692053413392
12:06:00,1,B13,Fort Hamilton Pkwy,-73.994304,40.640914,4953.692053413392
12:06:00,1,B14,50 St,-73.994791,40.63626,5065.6920534133915
12:06:00,1,B15,55 St,-73.995476,40.631435,5192.6920534133915
12:06:00,1,B16,62 St,-73.996895,40.626472,5297.6920534133915
12:06:00,1,B17,71 St,-73.998864,40.619589,5417.6920534133915
12:06:00,1,B18,79 St,-74.00061,40.613501,5540.6920534133915
12:06:00,1,B19,18 Av,-74.001736,40.607954,5655.6920534133915
12:06:00,1,B20,20 Av,-73.998168,40.604556,5770.6920534133915
12:06:00,1,B21,Bay Pkwy,-73.993728,40.601875,5880.6920534133915
13:26:00,1,B22,25 Av,-73.986829,40.597704,6038.6920534133915
13:26:00,1,B23,Bay 50 St,-73.983765,40.588841,6174.299999284744
12:06:00,2,D01,Norwood-205 St,-73.878855,40.874811,3029.6894692420956
12:06:00,2,D03,Bedford Park Blvd,-73.887138,40.873244,2816.489469242096
12:06:00,2,D04,Kingsbridge Rd,-73.893509,40.866978,2676.4894692420958
12:06:00,2,D05,Fordham Rd,-73.897749,40.861296,2556.4894692420958
12:06:00,2,D06,182-183 Sts,-73.900741,40.856093,2481.6894692420956
12:06:00,2,D07,Tremont Av,-73.905227,40.85041,2364.6894692420956
12:06:00,2,D08,174-175 Sts,-73.910136,40.8459,2244.6894692420956
12:06:00,2,D09,170 St,-73.9134,40.839306,2123.2894692420955
12:06:00,2,D10,167 St,-73.91844,40.833771,2000.2894692420957
13:34:00,2,D11,161 St-Yankee Stadium,-73.925651,40.827905,1850.7499985694885
12:38:00,2,D12,155 St,-73.938209,40.830135,2017.7499985694883
12:38:00,2,D13,145 St,-73.944216,40.824783,2145.7499985694885
12:30:00,1,D14,7 Av,-73.981637,40.762862,2736.5
12:46:00,1,D15,47-50 Sts-Rockefeller Ctr,-73.981329,40.758663,2662.5
12:46:00,1,D16,42 St-Bryant Pk,-73.984569,40.754222,2690.5
12:46:00,1,D17,34 St-Herald Sq,-73.987823,40.749719,2780.5
12:46:00,1,D18,23 St,-73.992821,40.742878,2900.5
12:46:00,1,D19,14 St,-73.996209,40.738228,3005.5
13:18:00,1,D20,W 4 St-Wash Sq,-74.000495,40.732338,3025.5
13:18:00,1,D21,Broadway-Lafayette St,-73.996204,40.725297,3106.1857156753545
12:22:00,1,D22,Grand St,-73.993753,40.718267,3276.1857156753545
12:22:00,1,D24,Atlantic Av-Barclays Ctr,-73.97689,40.68446,3876.76190328598
12:22:00,1,D25,7 Av,-73.972367,40.67705,4049.7619032859807
12:22:00,1,D26,Prospect Park,-73.962246,40.661614,4297.761903285981
12:22:00,1,D27,Parkside Av,-73.961495,40.655292,4417.761903285981
12:22:00,1,D28,Church Av,-73.962982,40.650527,4526.2290070056915
12:22:00,1,D29,Beverley Rd,-73.964492,40.644031,4674.919484615326
12:22:00,1,D30,Cortelyou Rd,-73.963891,40.640927,4789.919484615327
12:22:00,1,D31,Newkirk Plaza,-73.962793,40.635082,4746.229007005692
12:22:00,1,D32,Avenue H,-73.961639,40.62927,4900.549007892609
12:22:00,1,D33,Avenue J,-73.960803,40.625039,5021.549007892609
12:22:00,1,D34,Avenue M,-73.959399,40.617618,5149.54900789261
12:22:00,1,D35,Kings Hwy,-73.957734,40.60867,5089.729007005692
12:22:00,1,D37,Avenue U,-73.955929,40.5993,5334.739319086076
12:22:00,1,D38,Neck Rd,-73.955161,40.595246,5489.9393190860765
12:22:00,1,D39,Sheepshead Bay,-73.954155,40.586896,5429.469008779526
12:22:00,1,D40,Brighton Beach,-73.961376,40.577621,5609.469008779526
12:22:00,1,D41,Ocean Pkwy,-73.968501,40.576312,5789.5690087795265
12:22:00,1,D42,W 8 St-NY Aquarium,-73.975939,40.576127,5697.699999284744
12:22:00,1,D43,Coney Island-Stillwell Av,-73.981233,40.577422,5832.199999284744
12:06:00,2,E01,World Trade Center,-74.009781,40.712582,3465.467210769654
13:58:00,1,F01,Jamaica-179 St,-73.783817,40.712646,4252.5
12:30:00,1,F02,169 St,-73.793604,40.71047,4162.5
12:30:00,1,F03,Parsons Blvd,-73.803326,40.707564,4042.5
12:30:00,1,F04,Sutphin Blvd,-73.810708,40.70546,3952.5
12:30:00,1,F05,Briarwood,-73.820574,40.709179,3832.5
12:46:00,1,F06,Kew Gardens-Union Tpke,-73.831008,40.714441,3712.5
12:30:00,1,F07,75 Av,-73.837324,40.718331,3622.5
12:46:00,1,F09,Court Sq-23 St,-73.946,40.747846,2815.209090909091
12:30:00,1,F11,Lexington Av/53 St,-73.969055,40.757552,2613.247367668152
12:30:00,1,F12,5 Av/53 St,-73.975224,40.760167,2722.1787878787877
12:22:00,1,F14,2 Av,-73.989938,40.723402,3231.1857156753545
12:22:00,1,F15,Delancey St-Essex St,-73.988114,40.718611,3366.4571433067326
12:22:00,1,F16,East Broadway,-73.990173,40.713715,3456.4571433067326
13:02:00,1,F18,York St,-73.986751,40.701397,3636.4571433067326
13:18:00,1,F20,Bergen St,-73.990862,40.686145,3846.9562480926515
13:18:00,1,F21,Carroll St,-73.995048,40.680303,3984.4851837635038
13:18:00,1,F22,Smith-9 Sts,-73.995959,40.67358,4169.485183763503
13:18:00,1,F23,4 Av-9 St,-73.989779,40.670272,4257.465138244629
13:18:00,1,F24,7 Av,-73.980305,40.666271,4084.2999992847444
13:18:00,1,F25,15 St-Prospect Park,-73.979493,40.660365,4257.465138244629
13:18:00,1,F26,Fort Hamilton Pkwy,-73.975776,40.650782,4497.465138244629
13:18:00,1,F27,Church Av,-73.979678,40.644041,4324.299999284744
13:18:00,1,F29,Ditmas Av,-73.978172,40.636119,4444.299999284744
13:18:00,1,F30,18 Av,-73.976971,40.629755,4564.299999284744
13:18:00,1,F31,Avenue I,-73.976127,40.625322,4624.299999284744
13:18:00,1,F32,Bay Pkwy,-73.975264,40.620769,4684.299999284744
13:18:00,1,F33,Avenue N,-73.974197,40.61514,4804.299999284744
13:18:00,1,F34,Avenue P,-73.973022,40.608944,4894.299999284744
13:18:00,1,F35,Kings Hwy,-73.972361,40.603217,5179.299999284744
13:42:00,1,F36,Avenue U,-73.973357,40.596063,5300.199999284744
13:42:00,1,F38,Avenue X,-73.97425,40.58962,5420.199999284744
12:22:00,1,F39,Neptune Av,-73.974574,40.581011,5572.699999284745
12:46:00,1,G05,Jamaica Center-Parsons/Archer,-73.801109,40.702147,4420.500000000001
12:46:00,1,G06,Sutphin Blvd-Archer Av-JFK Airport,-73.807969,40.700486,4290.5
12:46:00,1,G07,Jamaica-Van Wyck,-73.816859,40.702566,4114.5
12:46:00,1,G08,Forest Hills-71 Av,-73.844521,40.721691,3502.5
13:58:00,1,G09,67 Av,-73.852719,40.726523,3682.5
13:58:00,1,G10,63 Dr-Rego Park,-73.861604,40.729846,3742.5
13:58:00,1,G11,Woodhaven Blvd,-73.869229,40.733106,3652.5
13:58:00,1,G12,Grand Av-Newtown,-73.877223,40.737015,3532.5
13:58:00,1,G13,Elmhurst Av,-73.882017,40.742454,3442.5
12:46:00,1,G14,Jackson Hts-Roosevelt Av,-73.891338,40.746644,3082.5
12:38:00,1,G15,65 St,-73.898453,40.749669,3412.5
12:14:00,1,G16,Northern Blvd,-73.906006,40.752885,3369.6090909090913
12:14:00,1,G18,46 St,-73.913333,40.756312,3257.409089803695
12:14:00,1,G19,Steinway St,-73.92074,40.756879,3137.409089803695
12:14:00,1,G20,36 St,-73.928781,40.752039,3007.4090898036957
12:14:00,1,G21,Queens Plaza,-73.937243,40.748973,2872.608924484253
13:18:00,2,G22,Court Sq,-73.943832,40.746554,2802.4999999999995
13:18:00,2,G24,21 St,-73.949724,40.744065,2922.4999999999995
13:18:00,2,G26,Greenpoint Av,-73.954449,40.731352,3097.4999999999995
13:18:00,2,G28,Nassau Av,-73.951277,40.724635,3222.4999999999995
13:18:00,2,G29,Metropolitan Av,-73.951418,40.712792,3377.5753239631654
13:18:00,2,G30,Broadway,-73.950308,40.706092,3525.5
13:18:00,2,G31,Flushing Av,-73.950234,40.700377,3645.5
13:18:00,2,G32,Myrtle-Willoughby Avs,-73.949046,40.694568,3762.5
12:38:00,1,G33,Bedford-Nostrand Avs,-73.953522,40.689627,3882.5000000000005
12:38:00,1,G34,Classon Av,-73.96007,40.688873,3997.500000000001
12:38:00,1,G35,Clinton-Washington Avs,-73.966839,40.688089,4110.500000000001
12:38:00,1,G36,Fulton St,-73.975375,40.687119,4055.891303062438
13:42:00,1,H01,Aqueduct Racetrack,-73.834058,40.668234,5587.779427051544
12:22:00,1,H02,Aqueduct-N Conduit Av,-73.834058,40.668234,5649.600169801713
12:22:00,1,H03,Howard Beach-JFK Airport,-73.830301,40.660476,5825.600169801713
12:22:00,1,H04,Broad Channel,-73.815925,40.608382,6378.679427051545
12:22:00,1,H06,Beach 67 St,-73.796924,40.590927,6820.279427051544
12:22:00,1,H07,Beach 60 St,-73.788522,40.592374,6950.279427051545
12:22:00,1,H08,Beach 44 St,-73.776013,40.592943,7077.279427051544
12:22:00,1,H09,Beach 36 St,-73.768175,40.595398,7200.279427051544
12:22:00,1,H10,Beach 25 St,-73.761353,40.600066,7320.279427051544
12:22:00,1,H11,Far Rockaway-Mott Av,-73.755405,40.603995,7440.279427051544
12:22:00,1,H12,Beach 90 St,-73.813641,40.588034,6725.479427051545
12:22:00,1,H13,Beach 98 St,-73.820558,40.585307,6848.479427051545
12:22:00,1,H14,Beach 105 St,-73.827559,40.583209,6963.479427051545
12:22:00,1,H15,Rockaway Park-Beach 116 St,-73.835592,40.580903,7086.479427051545
12:46:00,1,J12,121 St,-73.828294,40.700492,4728.3
12:46:00,1,J13,111 St,-73.836345,40.697418,4840.500000000001
12:46:00,1,J14,104 St,-73.84433,40.695178,4955.1
12:46:00,1,J15,Woodhaven Blvd,-73.851576,40.693879,5050.500000000001
12:46:00,1,J16,85 St-Forest Pkwy,-73.86001,40.692435,5317.779427051544
12:46:00,1,J17,75 St-Elderts Ln,-73.867139,40.691324,4937.779427051544
12:46:00,1,J19,Cypress Hills,-73.87255,40.689941,5182.612759590149
12:46:00,1,J20,Crescent St,-73.873785,40.683194,4787.779427051544
12:06:00,2,J21,Norwood Av,-73.880039,40.68141,4697.779427051544
12:06:00,2,J22,Cleveland St,-73.884639,40.679947,4765.655215024949
12:06:00,2,J23,Van Siclen Av,-73.891688,40.678024,4547.779427051544
12:38:00,2,J24,Alabama Av,-73.898654,40.676992,4487.779427051544
12:54:00,1,J27,Broadway Junction,-73.904512,40.679498,4384.46103978157
12:54:00,1,J28,Chauncey St,-73.910456,40.682893,4347.0
12:54:00,1,J29,Halsey St,-73.916559,40.68637,4398.441174507141
12:54:00,1,J30,Gates Av,-73.92227,40.68963,4197.0
12:54:00,1,J31,Kosciuszko St,-73.928814,40.693342,4208.441174507141
12:06:00,1,L01,8 Av,-74.002578,40.739777,2865.5
12:06:00,1,L02,6 Av,-73.996786,40.737335,2796.461039781571
12:06:00,1,L03,14 St-Union Sq,-73.99073,40.734789,2678.4610397815704
12:14:00,1,L05,3 Av,-73.986122,40.732849,2770.3610397815705
12:14:00,1,L06,1 Av,-73.981628,40.730953,2823.3610397815705
12:14:00,1,L08,Bedford Av,-73.956872,40.717304,3049.3610397815705
12:14:00,1,L10,Lorimer St,-73.950275,40.714063,3164.3610397815705
12:14:00,1,L11,Graham Av,-73.944053,40.714565,3225.36103978157
12:14:00,1,L12,Grand St,-73.94067,40.711926,3322.3610397815705
12:14:00,1,L13,Montrose Av,-73.93985,40.707739,3383.36103978157
12:14:00,1,L14,Morgan Av,-73.933147,40.706152,3469.36103978157
12:14:00,1,L15,Jefferson St,-73.922913,40.706607,3565.36103978157
12:14:00,1,L16,DeKalb Av,-73.918425,40.703811,3644.3610397815705
12:14:00,1,L17,Myrtle-Wyckoff Avs,-73.911586,40.699814,3740.3610397815705
12:14:00,1,L19,Halsey St,-73.904084,40.695602,3815.3610397815705
12:14:00,1,L20,Wilson Av,-73.904046,40.688764,3951.361039781571
12:14:00,1,L21,Bushwick Av-Aberdeen St,-73.905249,40.682829,4065.361039781571
12:14:00,1,L22,Broadway Junction,-73.90324,40.678856,4159.46103978157
12:14:00,1,L24,Atlantic Av,-73.903097,40.675345,4337.461039781571
12:14:00,1,L25,Sutter Av,-73.901975,40.669367,4436.461039781571
12:14:00,1,L26,Livonia Av,-73.900571,40.664038,4519.461039781571
12:14:00,1,L27,New Lots Av,-73.899232,40.658733,4596.2610397815715
12:14:00,1,L28,East 105 St,-73.899485,40.650573,4750.2610397815715
13:34:00,1,L29,Canarsie-Rockaway Pkwy,-73.90185,40.646654,5009.2610397815715
12:14:00,2,M01,Middle Village-Metropolitan Av,-73.889601,40.711396,4449.7610397815715
12:14:00,2,M04,Fresh Pond Rd,-73.895877,40.706186,4317.761039781571
12:14:00,2,M05,Forest Av,-73.903077,40.704423,4206.7610397815715
12:54:00,2,M06,Seneca Av,-73.90774,40.702762,4086.7610397815715
13:50:00,1,M08,Myrtle-Wyckoff Avs,-73.912385,40.69943,3965.361039781571
12:14:00,2,M09,Knickerbocker Av,-73.919711,40.698664,4085.361039781571
13:50:00,1,M10,Central Av,-73.927397,40.697857,4223.361039781571
12:54:00,1,M11,Myrtle Av,-73.935657,40.697207,4017.0
13:50:00,1,M12,Flushing Av,-73.941126,40.70026,4063.2999999999997
13:50:00,1,M13,Lorimer St,-73.947408,40.703869,3943.2999999999997
13:50:00,1,M14,Hewes St,-73.953431,40.70687,3823.2999999999997
13:50:00,1,M16,Marcy Av,-73.957757,40.708359,3699.8
13:50:00,1,M18,Delancey St-Essex St,-73.987437,40.718315,3277.8
12:14:00,1,M19,Bowery,-73.993915,40.72028,3162.8
12:14:00,1,M20,Canal St,-73.999892,40.718092,3042.0
12:30:00,1,M21,Chambers St,-74.003401,40.713243,2922.0
12:54:00,1,M22,Fulton St,-74.007582,40.710374,3042.0
12:54:00,1,M23,Broad St,-74.011056,40.706476,3110.0
12:06:00,1,N02,8 Av,-74.011719,40.635064,5034.352429962159
12:06:00,1,N03,Fort Hamilton Pkwy,-74.005351,40.631386,5210.519626903534
12:06:00,1,N04,New Utrecht Av,-73.996353,40.624842,5337.519626903533
12:06:00,1,N05,18 Av,-73.990414,40.620671,5457.519626903533
12:06:00,1,N06,20 Av,-73.985026,40.61741,5547.252429962158
12:06:00,1,N07,Bay Pkwy,-73.981848,40.611815,5695.519626903533
12:06:00,1,N08,Kings Hwy,-73.980353,40.603923,5825.519626903534
12:06:00,1,N09,Avenue U,-73.979137,40.597473,5958.519626903534
12:06:00,1,N10,86 St,-73.97823,40.592721,6134.152429962158
12:06:00,1,Q01,Canal St,-74.00046,40.718383,3035.219626903534
12:06:00,1,Q03,72 St,-73.958424,40.768799,2548.9
12:06:00,1,Q04,86 St,-73.951787,40.777891,2727.5
12:06:00,1,Q05,96 St,-73.947152,40.784318,2847.5
12:06:00,1,R01,Astoria-Ditmars Blvd,-73.912034,40.775036,3496.3
12:06:00,1,R03,Astoria Blvd,-73.917843,40.770258,3381.3
12:06:00,1,R04,30 Av,-73.921479,40.766779,3257.3
12:06:00,1,R05,Broadway,-73.925508,40.76182,3137.3
12:06:00,1,R06,36 Av,-73.929575,40.756804,2996.956178569794
12:06:00,1,R08,39 Av-Dutch Kills,-73.932755,40.752882,2862.5
12:06:00,1,R09,Queensboro Plaza,-73.940202,40.750582,2631.956178569794
12:14:00,1,R11,Lexington Av/59 St,-73.967258,40.76266,2277.4090898036957
12:06:00,1,R13,5 Av/59 St,-73.973347,40.764811,2397.4090898036957
12:06:00,1,R14,57 St-7 Av,-73.980658,40.764664,2567.4090898036957
12:06:00,1,R15,49 St,-73.984139,40.759901,2614.5
12:06:00,1,R16,Times Sq-42 St,-73.986754,40.754672,2494.5
12:06:00,1,R17,34 St-Herald Sq,-73.98795,40.749567,2614.5
12:14:00,1,R18,28 St,-73.988691,40.745494,2728.5000000000005
12:14:00,1,R19,23 St,-73.989344,40.741303,2823.5540528297424
12:38:00,1,R20,14 St-Union Sq,-73.990568,40.735736,2689.5
12:22:00,1,R21,8 St-NYU,-73.992629,40.730328,2820.5
12:22:00,1,R22,Prince St,-73.997702,40.724329,2940.5
12:22:00,1,R23,Canal St,-74.001775,40.719527,3060.5
12:30:00,1,R24,City Hall,-74.006978,40.713282,3235.5
12:30:00,1,R25,Cortlandt St,-74.011029,40.710668,3370.5
12:30:00,1,R26,Rector St,-74.013342,40.70722,3490.5
12:30:00,1,R27,Whitehall St-South Ferry,-74.012994,40.703087,3610.5
12:30:00,1,R28,Court St,-73.991777,40.6941,3679.5
12:30:00,1,R29,Jay St-MetroTech,-73.985942,40.69218,3664.2999992847444
12:22:00,1,R30,DeKalb Av,-73.981824,40.690635,3751.1857156753545
12:06:00,1,R31,Atlantic Av-Barclays Ctr,-73.97881,40.683666,3870.2196269035344
13:18:00,1,R32,Union St,-73.98311,40.677316,4047.719626903534
13:18:00,1,R33,4 Av-9 St,-73.988302,40.670847,4177.429007005692
13:18:00,1,R34,Prospect Av,-73.992872,40.665414,4302.429007005691
13:18:00,1,R35,25 St,-73.998091,40.660397,4432.429007005692
12:06:00,1,R36,36 St,-74.003549,40.655144,4394.352429962159
13:18:00,1,R39,45 St,-74.010006,40.648939,4615.519626903534
12:06:00,1,R40,53 St,-74.014034,40.645069,4735.519626903534
12:06:00,1,R41,59 St,-74.017881,40.641362,4818.352429962159
13:18:00,1,R42,Bay Ridge Av,-74.023377,40.634967,4998.892970180512
13:18:00,1,R43,77 St,-74.02551,40.629742,5113.892970180512
13:18:00,1,R44,86 St,-74.028398,40.622687,5332.657983398438
13:18:00,1,R45,Bay Ridge-95 St,-74.030876,40.616622,5452.657983398438
12:06:00,1,S01,Franklin Av,-73.955827,40.680596,4186.000000000001
12:06:00,1,S03,Park Pl,-73.957624,40.674772,4320.400000000001
12:22:00,1,S04,Botanic Garden,-73.959245,40.670343,4203.0
