start_time,ntransfers,stop_id,stop_name,stop_lon,stop_lat,duration
12:11:00,2,101,Van Cortlandt Park-242 St,-73.898583,40.889248,3611.9680276870727
12:11:00,2,103,238 St,-73.90087,40.884667,3445.968027687073
12:11:00,2,104,231 St,-73.904834,40.878856,3319.7744383335116
12:11:00,2,106,Marble Hill-225 St,-73.909831,40.874561,3209.774438333511
12:11:00,2,107,215 St,-73.915279,40.869444,3056.5680276870726
12:11:00,2,108,207 St,-73.918822,40.864621,2963.774438333511
12:11:00,2,109,Dyckman St,-73.925536,40.860531,2842.774438333511
12:11:00,2,110,191 St,-73.929412,40.855225,2735.774438333511
12:11:00,2,111,181 St,-73.933596,40.849505,2624.774438333511
12:01:30,2,112,168 St-Washington Hts,-73.940133,40.840556,2489.774438333511
12:11:00,2,113,157 St,-73.94489,40.834041,2601.774438333511
12:01:30,2,114,145 St,-73.95036,40.826551,2595.5577023983005
12:01:30,2,115,137 St-City College,-73.953676,40.822008,2481.5577023983005
12:01:30,2,116,125 St,-73.958372,40.815581,2358.9577023983006
12:01:30,2,117,116 St-Columbia University,-73.96411,40.807722,2194.9577023983
12:01:30,2,118,Cathedral Pkwy (110 St),-73.966847,40.803967,2110.757702398301
12:01:30,2,119,103 St,-73.968379,40.799446,2021.9577023983004
12:01:30,2,120,96 St,-73.972323,40.793919,1641.384972524643
12:01:30,2,121,86 St,-73.976218,40.788644,1758.9577023983004
12:01:30,2,122,79 St,-73.979917,40.783934,1662.9577023983004
12:01:30,2,123,72 St,-73.98197,40.778453,1423.684972524643
12:17:30,2,124,66 St-Lincoln Center,-73.982209,40.77344,1488.684972524643
12:17:30,2,125,59 St-Columbus Circle,-73.981929,40.768247,1394.684972524643
12:17:30,2,126,50 St,-73.983849,40.761728,1266.684972524643
12:21:30,2,127,Times Sq-42 St,-73.987495,40.75529,1138.684972524643
12:17:30,2,128,34 St-Penn Station,-73.991057,40.750373,1267.684972524643
12:17:30,2,129,28 St,-73.993365,40.747215,1365.6849725246432
12:17:30,2,130,23 St,-73.995657,40.744081,1444.6849725246432
12:17:30,2,131,18 St,-73.997871,40.74104,1521.6849725246432
12:17:30,2,132,14 St,-74.000201,40.737826,1460.184972524643
12:17:30,2,133,Christopher St-Sheridan Sq,-74.002906,40.733422,1718.6849725246432
12:01:30,2,134,Houston St,-74.005367,40.728251,1823.6849725246432
12:01:30,2,135,Canal St,-74.006277,40.722854,1931.684972524643
12:05:30,1,136,Franklin St,-74.006886,40.719318,2006.684972524643
12:17:30,2,137,Chambers St,-74.009266,40.715478,1756.184972524643
12:05:30,2,138,WTC Cortlandt,-74.012188,40.711835,2054.4390711784363
12:05:30,2,139,Rector St,-74.013783,40.707513,2156.4390711784363
12:05:30,2,142,South Ferry,-74.013664,40.702068,2299.4390711784363
12:23:00,0,201,Wakefield-241 St,-73.85062,40.903125,3346.4039251327517
12:23:00,0,204,Nereid Av,-73.854376,40.898379,3085.7617733001707
12:23:00,0,205,233 St,-73.857473,40.893193,2928.161773300171
12:23:00,0,206,225 St,-73.860341,40.888022,2828.161773300171
12:23:00,0,207,219 St,-73.862633,40.883895,2742.961773300171
12:23:00,0,208,Gun Hill Rd,-73.866256,40.87785,2627.661773300171
12:23:00,0,209,Burke Av,-73.867164,40.871356,2638.4039251327517
12:23:00,0,210,Allerton Av,-73.867352,40.865462,2535.4039251327517
12:23:00,0,211,Pelham Pkwy,-73.867615,40.857192,2410.4039251327517
12:23:00,0,212,Bronx Park East,-73.868457,40.848828,2271.4039251327513
12:23:00,0,213,E 180 St,-73.873488,40.841894,1776.3428585052488
12:23:00,0,214,West Farms Sq-E Tremont Av,-73.880049,40.840295,2103.042858505249
12:23:00,0,215,174 St,-73.887734,40.837288,1954.042858505249
12:23:00,0,216,Freeman St,-73.891865,40.829993,1808.042858505249
12:23:00,0,217,Simpson St,-73.893064,40.824073,1681.042858505249
12:07:00,0,218,Intervale Av,-73.896736,40.822181,1595.042858505249
12:07:00,0,219,Prospect Av,-73.90177,40.819585,1492.042858505249
12:23:00,0,220,Jackson Av,-73.907807,40.81649,1368.042858505249
12:07:00,0,221,3 Av-149 St,-73.917757,40.816109,1050.342858505249
12:07:00,0,222,149 St-Grand Concourse,-73.926718,40.81841,930.3428585052491
12:07:00,0,224,135 St,-73.94077,40.814229,1439.6652261734012
12:07:00,0,225,125 St,-73.945495,40.807754,1576.665226173401
12:07:00,0,226,116 St,-73.949625,40.802098,1693.665226173401
12:07:00,0,227,Central Park North (110 St),-73.951822,40.799075,1777.6652261734007
12:01:30,1,228,Park Place,-74.008811,40.713051,1860.184972524643
12:01:30,1,229,Fulton St,-74.006571,40.709416,1915.6849718093872
12:05:30,1,230,Wall St,-74.0091,40.706821,2002.6849718093872
12:05:30,1,231,Clark St,-73.993086,40.697466,2213.684971809387
12:05:30,1,232,Borough Hall,-73.989998,40.693219,2345.684971809387
13:57:30,1,233,Hoyt St,-73.985065,40.690545,2344.371997117996
12:01:30,0,234,Nevins St,-73.980492,40.688246,2203.684972524643
12:01:30,0,235,Atlantic Av-Barclays Ctr,-73.977666,40.684359,2293.684972524643
12:01:30,0,236,Bergen St,-73.975098,40.680829,2448.6139795303347
12:01:30,0,237,Grand Army Plaza,-73.971046,40.675235,2561.3719971179958
12:01:30,0,238,Eastern Pkwy-Brooklyn Museum,-73.964375,40.671987,2681.571997117996
12:01:30,0,239,Franklin Av-Medgar Evers College,-73.958131,40.670682,2622.184972524643
12:01:30,0,241,President St-Medgar Evers College,-73.950683,40.667883,2797.684972524643
12:01:30,0,242,Sterling St,-73.95085,40.662742,2889.1849725246425
12:01:30,0,243,Winthrop St,-73.9502,40.656652,3001.6849725246425
12:01:30,0,244,Church Av,-73.949575,40.650843,3097.684972524643
12:01:30,0,245,Beverly Rd,-73.948959,40.645098,3207.184972524643
12:01:30,0,246,Newkirk Av-Little Haiti,-73.948411,40.639967,3285.184972524643
12:01:30,0,247,Flatbush Av-Brooklyn College,-73.947642,40.632836,3423.1849725246425
12:01:30,0,248,Nostrand Av,-73.950466,40.669847,2880.873209571838
12:01:30,0,249,Kingston Av,-73.942161,40.669399,2999.673209571838
12:05:30,0,250,Crown Hts-Utica Av,-73.932942,40.668897,3066.073209571838
12:05:30,0,251,Sutter Av-Rutland Rd,-73.92261,40.664717,3236.973209571838
12:05:30,0,252,Saratoga Av,-73.916327,40.661453,3363.273209571838
12:05:30,0,253,Rockaway Av,-73.908946,40.662549,3458.5732095718377
12:05:30,0,254,Junius St,-73.902447,40.663515,3493.6460123062134
12:05:30,0,255,Pennsylvania Av,-73.894895,40.664635,3606.346012306213
12:05:30,0,256,Van Siclen Av,-73.889395,40.665449,3690.346012306213
12:05:30,0,257,New Lots Av,-73.884079,40.666235,3836.8460123062137
12:07:00,0,301,Harlem-148 St,-73.93647,40.82388,2047.9652261734007
12:07:00,0,302,145 St,-73.936245,40.820421,1880.9652261734009
12:03:00,0,401,Woodlawn,-73.878751,40.886037,2476.3428585052484
12:03:00,0,402,Mosholu Pkwy,-73.884655,40.87975,2300.3428585052484
12:03:00,0,405,Bedford Park Blvd-Lehman College,-73.890064,40.873412,2154.342858505249
12:03:00,0,406,Kingsbridge Rd,-73.897174,40.86776,2017.3428585052488
12:03:00,0,407,Fordham Rd,-73.901034,40.862803,1912.342858505249
12:03:00,0,408,183 St,-73.903879,40.858407,1806.342858505249
12:03:00,0,409,Burnside Av,-73.907684,40.853453,1691.342858505249
12:03:00,0,410,176 St,-73.911794,40.84848,1583.342858505249
12:03:00,0,411,Mt Eden Av,-73.914685,40.844434,1484.342858505249
12:03:00,0,412,170 St,-73.917791,40.840075,1390.342858505249
12:03:00,0,413,167 St,-73.9214,40.835537,1283.342858505249
12:03:00,0,414,161 St-Yankee Stadium,-73.925831,40.827994,1152.342858505249
12:03:00,0,415,149 St-Grand Concourse,-73.927351,40.818375,865.342858505249
12:07:00,0,416,138 St-Grand Concourse,-73.929849,40.813224,694.3428585052491
12:01:30,0,418,Fulton St,-74.009509,40.710368,1566.184972524643
12:01:30,0,419,Wall St,-74.011862,40.707557,1665.184972524643
12:01:30,0,420,Bowling Green,-74.014065,40.704817,1755.184972524643
12:01:30,0,423,Borough Hall,-73.990151,40.692404,2083.684972524643
13:59:00,0,501,Eastchester-Dyre Av,-73.830834,40.8883,2526.342858505249
12:23:00,0,502,Baychester Av,-73.838591,40.878663,2376.342858505249
12:23:00,0,503,Gun Hill Rd,-73.846384,40.869526,2226.342858505249
12:23:00,0,504,Pelham Pkwy,-73.855359,40.858985,2076.342858505249
12:23:00,0,505,Morris Park,-73.860495,40.854364,1986.3428585052488
13:59:00,0,601,Pelham Bay Park,-73.828121,40.852462,2311.8190519332884
13:59:00,0,602,Buhre Av,-73.832569,40.84681,2092.1190519332886
13:59:00,0,603,Middletown Rd,-73.836322,40.843863,2010.1190519332888
13:59:00,0,604,Westchester Sq-E Tremont Av,-73.842952,40.839892,1821.9
13:59:00,0,606,Zerega Av,-73.847036,40.836488,1703.9000000000003
13:59:00,0,607,Castle Hill Av,-73.851222,40.834255,1622.0000000000002
12:55:00,0,608,Parkchester,-73.860816,40.833226,1295.2000000000003
12:55:00,0,609,St Lawrence Av,-73.867618,40.831509,1572.74431219101
12:55:00,0,610,Morrison Av-Soundview,-73.874516,40.829521,1439.7443121910098
12:55:00,0,611,Elder Av,-73.879159,40.828584,1350.7443121910098
12:55:00,0,612,Whitlock Av,-73.886283,40.826525,1213.7443121910098
12:55:00,0,613,Hunts Point Av,-73.890549,40.820948,942.8000000000001
12:03:00,0,614,Longwood Av,-73.896435,40.816104,1111.4086950302124
12:03:00,0,615,E 149 St,-73.904098,40.812118,983.4086950302125
12:03:00,0,616,E 143 St-St Mary's St,-73.907657,40.808719,893.4086950302125
12:03:00,0,617,Cypress Av,-73.914042,40.805368,774.4086950302124
12:03:00,0,618,Brook Av,-73.91924,40.807566,695.4086950302124
12:03:00,0,619,3 Av-138 St,-73.926138,40.810476,538.8000000000001
12:03:00,0,621,125 St,-73.937594,40.804138,299.2
12:03:00,0,622,116 St,-73.941617,40.798629,186.20000000000002
12:03:00,0,623,110 St,-73.94425,40.79502,88.0
12:03:00,0,624,103 St,-73.947478,40.7906,0.0
12:01:30,0,625,96 St,-73.95107,40.785672,104.9
12:01:30,0,626,86 St,-73.955589,40.779492,214.30000000000004
12:01:30,0,627,77 St,-73.959874,40.77362,331.5
12:01:30,0,628,68 St-Hunter College,-73.96387,40.768141,437.6
12:01:30,0,629,59 St,-73.967967,40.762526,561.5999999999999
12:01:30,0,630,51 St,-73.97192,40.757107,673.4
12:01:30,0,631,Grand Central-42 St,-73.976848,40.751776,827.4
12:01:30,0,632,33 St,-73.982076,40.746081,962.4
12:01:30,0,633,28 St,-73.984264,40.74307,1038.3999999999999
12:01:30,0,634,23 St,-73.986599,40.739864,1117.6
12:01:30,0,635,14 St-Union Sq,-73.989951,40.734673,1108.684972524643
12:01:30,0,636,Astor Pl,-73.99107,40.730054,1368.8
12:01:30,0,637,Bleecker St,-73.994659,40.725915,1476.8
12:01:30,0,638,Spring St,-73.997141,40.722301,1568.8000000000002
12:01:30,0,639,Canal St,-74.000193,40.718803,1627.184972524643
12:01:30,0,640,Brooklyn Bridge-City Hall,-74.004131,40.713065,1446.184972524643
13:13:30,2,701,Flushing-Main St,-73.83003,40.7596,2479.8351653303416
13:13:30,2,702,Mets-Willets Point,-73.845625,40.754622,2269.8351653303416
13:13:30,2,705,111 St,-73.855334,40.75173,2391.6923081874843
13:13:30,2,706,103 St-Corona Plaza,-73.8627,40.749865,2302.6923081874843
13:13:30,2,707,Junction Blvd,-73.869527,40.749145,2022.6923081874843
13:13:30,2,708,90 St-Elmhurst Av,-73.876613,40.748408,2131.3725136280054
13:13:30,2,709,82 St-Jackson Hts,-73.883697,40.747659,1955.3725136280057
12:05:30,2,710,74 St-Broadway,-73.891394,40.746848,1777.5574484825133
12:29:30,2,711,69 St,-73.896403,40.746325,1907.78723526001
12:05:30,2,712,61 St-Woodside,-73.902984,40.74563,1779.3872352600097
12:05:30,2,713,52 St,-73.912549,40.744149,1624.1561802387237
12:05:30,2,714,46 St-Bliss St,-73.918435,40.743132,1560.1561802387237
12:05:30,2,715,40 St-Lowery St,-73.924016,40.743781,1493.1561802387237
12:05:30,2,716,33 St-Rawson St,-73.930997,40.744587,1361.1561802387237
12:01:30,1,718,Queensboro Plaza,-73.940202,40.750582,1193.0561802387238
12:13:30,2,719,Court Sq,-73.945264,40.747023,1257.5024619443077
12:01:30,1,720,Hunters Point Av,-73.948916,40.742216,1281.684972524643
12:01:30,1,721,Vernon Blvd-Jackson Av,-73.953581,40.742626,1216.4849725246431
12:17:30,1,723,Grand Central-42 St,-73.976041,40.751431,961.6849725246431
12:17:30,1,724,5 Av,-73.981963,40.753821,1109.6849725246432
12:17:30,1,725,Times Sq-42 St,-73.987691,40.755477,1138.684972524643
12:17:30,1,726,34 St-Hudson Yards,-74.00191,40.755882,1298.6849725246432
12:17:30,1,901,Grand Central-42 St,-73.979189,40.752769,901.684972524643
12:17:30,1,902,Times Sq-42 St,-73.986229,40.755983,1018.6849725246431
12:51:00,1,A02,Inwood-207 St,-73.919899,40.868072,2966.085307121277
12:51:00,1,A03,Dyckman St,-73.927271,40.865491,2846.085307121277
12:51:00,1,A05,190 St,-73.93418,40.859022,2681.085307121277
12:51:00,1,A06,181 St,-73.937969,40.851695,2556.0853071212764
12:51:00,1,A07,175 St,-73.939704,40.847391,2436.0853071212764
12:11:00,2,A09,168 St,-73.939561,40.840719,2264.2853071212767
12:11:00,2,A10,163 St-Amsterdam Av,-73.939892,40.836013,2197.5007547855375
12:11:00,2,A11,155 St,-73.941514,40.830518,2077.0202781677244
12:11:00,1,A12,145 St,-73.944216,40.824783,1897.5007547855375
12:11:00,1,A14,135 St,-73.947649,40.817894,1816.8595247745516
12:11:00,1,A15,125 St,-73.952343,40.811109,1972.3428585052488
12:11:00,1,A16,116 St,-73.954882,40.805085,2137.5007547855375
12:01:30,1,A17,Cathedral Pkwy (110 St),-73.958161,40.800603,2195.184972524643
12:01:30,1,A18,103 St,-73.961454,40.796092,2084.184972524643
12:01:30,1,A19,96 St,-73.964696,40.791642,1966.1849725246427
12:01:30,1,A20,86 St,-73.968916,40.785868,1823.684972524643
12:01:30,1,A21,81 St-Museum of Natural History,-73.972143,40.781433,1703.684972524643
12:01:30,1,A22,72 St,-73.97641,40.775594,1573.184972524643
12:01:30,1,A24,59 St-Columbus Circle,-73.981736,40.768296,1325.684972524643
12:57:30,1,A25,50 St,-73.985984,40.762456,1260.6849725246432
13:33:30,1,A27,42 St-Port Authority Bus Terminal,-73.989735,40.757308,1138.684972524643
12:17:30,2,A28,34 St-Penn Station,-73.993391,40.752287,1263.684972524643
12:17:30,2,A30,23 St,-73.998041,40.745906,1383.684972524643
12:49:30,1,A31,14 St,-74.00169,40.740893,1449.684972524643
12:13:30,2,A32,W 4 St-Wash Sq,-74.000495,40.732338,1620.6849725246432
12:25:30,1,A33,Spring St,-74.003739,40.726227,1773.684972524643
12:13:30,2,A34,Canal St,-74.005229,40.720824,1860.6849725246432
13:21:30,1,A36,Chambers St,-74.008585,40.714111,1915.6849718093872
12:05:30,1,A38,Fulton St,-74.007691,40.710197,1795.6849718093872
13:09:30,1,A40,High St,-73.990531,40.699337,2015.4849718093876
13:09:30,1,A41,Jay St-MetroTech,-73.987342,40.692338,2173.4849718093874
13:09:30,1,A42,Hoyt-Schermerhorn Sts,-73.985001,40.688484,2343.484971809388
13:49:30,1,A43,Lafayette Av,-73.973946,40.686113,2535.1849725246434
13:49:30,1,A44,Clinton-Washington Avs,-73.965838,40.683263,2650.1849725246434
13:49:30,1,A45,Franklin Av,-73.956848,40.68138,2770.1849725246434
13:09:30,1,A46,Nostrand Av,-73.950426,40.680438,2762.684971809387
12:09:30,1,A47,Kingston-Throop Avs,-73.940858,40.679921,2883.784971809387
12:09:30,1,A48,Utica Av,-73.930729,40.679364,2960.884971809387
12:09:30,1,A49,Ralph Av,-73.920786,40.678822,3083.884971809387
12:09:30,1,A50,Rockaway Av,-73.911946,40.67834,3159.964399576187
13:09:30,1,A51,Broadway Junction,-73.905316,40.678334,3041.964399576187
13:21:30,1,A52,Liberty Av,-73.896548,40.674542,3216.964399576187
13:21:30,1,A53,Van Siclen Av,-73.890358,40.67271,3336.964399576187
13:21:30,1,A54,Shepherd Av,-73.88075,40.67413,3456.964399576187
13:09:30,1,A55,Euclid Av,-73.872106,40.675377,3461.964399576187
13:09:30,1,A57,Grant Av,-73.86505,40.677044,3626.964399576187
13:09:30,1,A59,80 St,-73.858992,40.679371,3748.964399576187
13:09:30,1,A60,88 St,-73.85147,40.679843,3869.9643995761876
13:09:30,1,A61,Rockaway Blvd,-73.843853,40.680429,3989.9643995761876
13:45:30,1,A63,104 St,-73.837683,40.681711,4109.964399576187
13:45:30,1,A64,111 St,-73.832163,40.684331,4229.964399576187
13:45:30,1,A65,Ozone Park-Lefferts Blvd,-73.825798,40.685951,4361.964399576188
12:57:30,1,B04,21 St-Queensbridge,-73.942836,40.754203,1159.1
12:57:30,1,B06,Roosevelt Island,-73.95326,40.759145,1056.6
12:21:30,1,B08,Lexington Av/63 St,-73.966113,40.764629,906.5999999999999
12:01:30,1,B10,57 St,-73.97745,40.763972,1056.6
12:05:30,1,B12,9 Av,-73.994324,40.646292,3477.877025938034
12:05:30,1,B13,Fort Hamilton Pkwy,-73.994304,40.640914,3597.877025938034
12:05:30,1,B14,50 St,-73.994791,40.63626,3709.877025938034
12:05:30,1,B15,55 St,-73.995476,40.631435,3836.877025938034
12:05:30,1,B16,62 St,-73.996895,40.626472,3941.8770259380335
12:05:30,1,B17,71 St,-73.998864,40.619589,4061.8770259380335
12:05:30,1,B18,79 St,-74.00061,40.613501,4184.8770259380335
12:05:30,1,B19,18 Av,-74.001736,40.607954,4299.8770259380335
12:05:30,1,B20,20 Av,-73.998168,40.604556,4414.8770259380335
12:05:30,1,B21,Bay Pkwy,-73.993728,40.601875,4524.8770259380335
12:05:30,1,B22,25 Av,-73.986829,40.597704,4682.877025938034
12:05:30,1,B23,Bay 50 St,-73.983765,40.588841,4772.990477609634
12:19:00,1,D01,Norwood-205 St,-73.878855,40.874811,2556.282329177857
12:19:00,1,D03,Bedford Park Blvd,-73.887138,40.873244,2343.0823291778565
12:19:00,1,D04,Kingsbridge Rd,-73.893509,40.866978,2203.0823291778565
12:19:00,1,D05,Fordham Rd,-73.897749,40.861296,2083.0823291778565
12:19:00,1,D06,182-183 Sts,-73.900741,40.856093,2008.2823291778568
12:19:00,1,D07,Tremont Av,-73.905227,40.85041,1891.2823291778566
12:19:00,1,D08,174-175 Sts,-73.910136,40.8459,1771.2823291778566
12:19:00,1,D09,170 St,-73.9134,40.839306,1649.8823291778565
12:19:00,1,D10,167 St,-73.91844,40.833771,1526.8823291778565
13:47:00,1,D11,161 St-Yankee Stadium,-73.925651,40.827905,1377.342858505249
12:11:00,1,D12,155 St,-73.938209,40.830135,1544.3428585052488
12:11:00,1,D13,145 St,-73.944216,40.824783,1672.3428585052488
12:57:30,1,D14,7 Av,-73.981637,40.762862,1152.347367668152
12:01:30,1,D15,47-50 Sts-Rockefeller Ctr,-73.981329,40.758663,1146.6
12:01:30,1,D16,42 St-Bryant Pk,-73.984569,40.754222,1236.6
12:01:30,1,D17,34 St-Herald Sq,-73.987823,40.749719,1326.6
12:01:30,1,D18,23 St,-73.992821,40.742878,1446.6
12:01:30,1,D19,14 St,-73.996209,40.738228,1551.6
13:45:30,1,D20,W 4 St-Wash Sq,-74.000495,40.732338,1669.6849725246434
13:45:30,1,D21,Broadway-Lafayette St,-73.996204,40.725297,1692.9904776096344
13:41:30,1,D22,Grand St,-73.993753,40.718267,1862.9904776096344
12:09:30,1,D24,Atlantic Av-Barclays Ctr,-73.97689,40.68446,2520.946875810623
12:09:30,1,D25,7 Av,-73.972367,40.67705,2693.946875810623
12:09:30,1,D26,Prospect Park,-73.962246,40.661614,2941.946875810623
12:09:30,1,D27,Parkside Av,-73.961495,40.655292,3061.946875810623
12:09:30,1,D28,Church Av,-73.962982,40.650527,3170.4139795303345
12:09:30,1,D29,Beverley Rd,-73.964492,40.644031,3319.104457139969
12:09:30,1,D30,Cortelyou Rd,-73.963891,40.640927,3434.104457139969
12:09:30,1,D31,Newkirk Plaza,-73.962793,40.635082,3390.4139795303345
12:09:30,1,D32,Avenue H,-73.961639,40.62927,3544.733980417251
12:09:30,1,D33,Avenue J,-73.960803,40.625039,3665.733980417251
12:09:30,1,D34,Avenue M,-73.959399,40.617618,3793.733980417251
12:09:30,1,D35,Kings Hwy,-73.957734,40.60867,3733.9139795303345
12:09:30,1,D37,Avenue U,-73.955929,40.5993,3978.924291610717
12:09:30,1,D38,Neck Rd,-73.955161,40.595246,4134.124291610718
12:09:30,1,D39,Sheepshead Bay,-73.954155,40.586896,4073.6539813041686
12:09:30,1,D40,Brighton Beach,-73.961376,40.577621,4253.653981304168
12:09:30,1,D41,Ocean Pkwy,-73.968501,40.576312,4433.7539813041685
12:09:30,1,D42,W 8 St-NY Aquarium,-73.975939,40.576127,4296.390477609634
12:09:30,1,D43,Coney Island-Stillwell Av,-73.981233,40.577422,4430.890477609634
12:53:30,1,E01,World Trade Center,-74.009781,40.712582,2109.6521832942963
12:37:30,1,F01,Jamaica-179 St,-73.783817,40.712646,2736.6
12:57:30,1,F02,169 St,-73.793604,40.71047,2646.6
12:57:30,1,F03,Parsons Blvd,-73.803326,40.707564,2526.6
12:57:30,1,F04,Sutphin Blvd,-73.810708,40.70546,2436.6
12:57:30,1,F05,Briarwood,-73.820574,40.709179,2316.6
12:29:30,1,F06,Kew Gardens-Union Tpke,-73.831008,40.714441,2196.6
12:57:30,1,F07,75 Av,-73.837324,40.718331,2106.6
12:29:30,1,F09,Court Sq-23 St,-73.946,40.747846,1104.309090909091
12:57:30,1,F11,Lexington Av/53 St,-73.969055,40.757552,902.3473676681518
12:57:30,1,F12,5 Av/53 St,-73.975224,40.760167,1011.2787878787879
12:49:30,1,F14,2 Av,-73.989938,40.723402,1782.9904776096344
12:49:30,1,F15,Delancey St-Essex St,-73.988114,40.718611,1902.9904776096344
12:49:30,1,F16,East Broadway,-73.990173,40.713715,1992.9904776096341
13:29:30,1,F18,York St,-73.986751,40.701397,2172.990477609634
13:09:30,1,F20,Bergen St,-73.990862,40.686145,2491.1412206172945
13:09:30,1,F21,Carroll St,-73.995048,40.680303,2628.6701562881476
13:09:30,1,F22,Smith-9 Sts,-73.995959,40.67358,2813.6701562881476
13:09:30,1,F23,4 Av-9 St,-73.989779,40.670272,2856.1556165695188
13:09:30,1,F24,7 Av,-73.980305,40.666271,2682.990477609634
13:09:30,1,F25,15 St-Prospect Park,-73.979493,40.660365,2856.1556165695188
13:09:30,1,F26,Fort Hamilton Pkwy,-73.975776,40.650782,3096.1556165695188
13:09:30,1,F27,Church Av,-73.979678,40.644041,2922.990477609634
13:45:30,1,F29,Ditmas Av,-73.978172,40.636119,3042.990477609634
13:45:30,1,F30,18 Av,-73.976971,40.629755,3162.990477609634
13:45:30,1,F31,Avenue I,-73.976127,40.625322,3222.990477609634
13:45:30,1,F32,Bay Pkwy,-73.975264,40.620769,3282.990477609634
13:45:30,1,F33,Avenue N,-73.974197,40.61514,3402.990477609634
13:45:30,1,F34,Avenue P,-73.973022,40.608944,3492.990477609634
13:45:30,1,F35,Kings Hwy,-73.972361,40.603217,3777.990477609634
13:09:30,1,F36,Avenue U,-73.973357,40.596063,3898.890477609634
13:09:30,1,F38,Avenue X,-73.97425,40.58962,4018.890477609634
12:49:30,1,F39,Neptune Av,-73.974574,40.581011,4171.390477609634
12:29:30,1,G05,Jamaica Center-Parsons/Archer,-73.801109,40.702147,2904.6
12:29:30,1,G06,Sutphin Blvd-Archer Av-JFK Airport,-73.807969,40.700486,2774.6
12:29:30,1,G07,Jamaica-Van Wyck,-73.816859,40.702566,2598.6000000000004
12:29:30,1,G08,Forest Hills-71 Av,-73.844521,40.721691,1986.6
12:29:30,1,G09,67 Av,-73.852719,40.726523,2166.6
12:05:30,1,G10,63 Dr-Rego Park,-73.861604,40.729846,2226.6
12:05:30,1,G11,Woodhaven Blvd,-73.869229,40.733106,2136.6
12:05:30,1,G12,Grand Av-Newtown,-73.877223,40.737015,2016.6
12:05:30,1,G13,Elmhurst Av,-73.882017,40.742454,1926.6
12:29:30,1,G14,Jackson Hts-Roosevelt Av,-73.891338,40.746644,1566.6
12:01:30,1,G15,65 St,-73.898453,40.749669,1761.009090909091
12:01:30,1,G16,Northern Blvd,-73.906006,40.752885,1658.709090909091
12:01:30,1,G18,46 St,-73.913333,40.756312,1568.709090909091
12:01:30,1,G19,Steinway St,-73.92074,40.756879,1448.709090909091
12:01:30,1,G20,36 St,-73.928781,40.752039,1328.709090909091
12:01:30,1,G21,Queens Plaza,-73.937243,40.748973,1208.709090909091
12:05:30,2,G22,Court Sq,-73.943832,40.746554,1197.5024619443077
12:05:30,2,G24,21 St,-73.949724,40.744065,1317.5024619443077
12:05:30,2,G26,Greenpoint Av,-73.954449,40.731352,1492.5024619443077
12:05:30,2,G28,Nassau Av,-73.951277,40.724635,1617.5024619443077
12:05:30,2,G29,Metropolitan Av,-73.951418,40.712792,1802.5024619443075
12:05:30,2,G30,Broadway,-73.950308,40.706092,1920.5024619443077
12:05:30,2,G31,Flushing Av,-73.950234,40.700377,2040.5024619443077
12:05:30,2,G32,Myrtle-Willoughby Avs,-73.949046,40.694568,2157.502461944308
12:05:30,2,G33,Bedford-Nostrand Avs,-73.953522,40.689627,2277.502461944308
12:05:30,2,G34,Classon Av,-73.96007,40.688873,2392.502461944308
13:49:30,1,G35,Clinton-Washington Avs,-73.966839,40.688089,2505.5024619443075
13:49:30,1,G36,Fulton St,-73.975375,40.687119,2625.5024619443075
12:29:30,1,H01,Aqueduct Racetrack,-73.834058,40.668234,4231.964399576187
13:09:30,1,H02,Aqueduct-N Conduit Av,-73.834058,40.668234,4293.785142326355
13:09:30,1,H03,Howard Beach-JFK Airport,-73.830301,40.660476,4469.7851423263555
13:09:30,1,H04,Broad Channel,-73.815925,40.608382,5022.864399576188
13:09:30,1,H06,Beach 67 St,-73.796924,40.590927,5464.464399576188
13:09:30,1,H07,Beach 60 St,-73.788522,40.592374,5594.464399576188
13:09:30,1,H08,Beach 44 St,-73.776013,40.592943,5721.464399576187
13:09:30,1,H09,Beach 36 St,-73.768175,40.595398,5844.464399576187
13:09:30,1,H10,Beach 25 St,-73.761353,40.600066,5964.464399576187
13:09:30,1,H11,Far Rockaway-Mott Av,-73.755405,40.603995,6084.464399576187
12:29:30,1,H12,Beach 90 St,-73.813641,40.588034,5369.664399576188
12:29:30,1,H13,Beach 98 St,-73.820558,40.585307,5492.664399576188
12:29:30,1,H14,Beach 105 St,-73.827559,40.583209,5607.664399576188
12:29:30,1,H15,Rockaway Park-Beach 116 St,-73.835592,40.580903,5730.664399576188
13:13:30,1,J12,121 St,-73.828294,40.700492,3212.4
13:13:30,1,J13,111 St,-73.836345,40.697418,3324.6
13:13:30,1,J14,104 St,-73.84433,40.695178,3439.2
13:13:30,1,J15,Woodhaven Blvd,-73.851576,40.693879,3534.6
13:13:30,1,J16,85 St-Forest Pkwy,-73.86001,40.692435,3882.7818187236785
13:13:30,1,J17,75 St-Elderts Ln,-73.867139,40.691324,3581.964399576187
13:13:30,1,J19,Cypress Hills,-73.87255,40.689941,3826.797732114792
13:05:30,2,J20,Crescent St,-73.873785,40.683194,3431.964399576187
13:05:30,2,J21,Norwood Av,-73.880039,40.68141,3341.964399576187
13:05:30,2,J22,Cleveland St,-73.884639,40.679947,3409.840187549591
13:05:30,2,J23,Van Siclen Av,-73.891688,40.678024,3191.964399576187
13:05:30,2,J24,Alabama Av,-73.898654,40.676992,3131.964399576187
13:01:30,1,J27,Broadway Junction,-73.904512,40.679498,3028.6460123062134
13:45:30,2,J28,Chauncey St,-73.910456,40.682893,2991.1849725246434
13:01:30,1,J29,Halsey St,-73.916559,40.68637,3042.626147031784
13:01:30,1,J30,Gates Av,-73.92227,40.68963,2841.1849725246434
13:01:30,1,J31,Kosciuszko St,-73.928814,40.693342,2852.626147031784
12:13:30,1,L01,8 Av,-74.002578,40.739777,1509.684972524643
12:13:30,1,L02,6 Av,-73.996786,40.737335,1440.6460123062134
12:13:30,1,L03,14 St-Union Sq,-73.99073,40.734789,1322.6460123062134
12:01:30,1,L05,3 Av,-73.986122,40.732849,1414.5460123062137
12:01:30,1,L06,1 Av,-73.981628,40.730953,1467.5460123062137
12:01:30,1,L08,Bedford Av,-73.956872,40.717304,1693.5460123062135
12:01:30,1,L10,Lorimer St,-73.950275,40.714063,1808.5460123062137
12:01:30,1,L11,Graham Av,-73.944053,40.714565,1869.5460123062135
12:01:30,1,L12,Grand St,-73.94067,40.711926,1966.5460123062135
12:01:30,1,L13,Montrose Av,-73.93985,40.707739,2027.5460123062132
12:01:30,1,L14,Morgan Av,-73.933147,40.706152,2113.546012306213
12:01:30,1,L15,Jefferson St,-73.922913,40.706607,2209.546012306213
12:01:30,1,L16,DeKalb Av,-73.918425,40.703811,2288.5460123062135
12:01:30,1,L17,Myrtle-Wyckoff Avs,-73.911586,40.699814,2384.5460123062135
12:01:30,1,L19,Halsey St,-73.904084,40.695602,2459.5460123062135
12:01:30,1,L20,Wilson Av,-73.904046,40.688764,2595.5460123062135
12:01:30,1,L21,Bushwick Av-Aberdeen St,-73.905249,40.682829,2709.5460123062135
12:01:30,1,L22,Broadway Junction,-73.90324,40.678856,2803.6460123062134
12:01:30,1,L24,Atlantic Av,-73.903097,40.675345,2981.6460123062134
12:01:30,1,L25,Sutter Av,-73.901975,40.669367,3080.6460123062134
12:01:30,1,L26,Livonia Av,-73.900571,40.664038,3163.6460123062134
12:01:30,1,L27,New Lots Av,-73.899232,40.658733,3240.4460123062136
12:01:30,1,L28,East 105 St,-73.899485,40.650573,3394.4460123062136
12:01:30,1,L29,Canarsie-Rockaway Pkwy,-73.90185,40.646654,3653.4460123062136
12:25:30,2,M01,Middle Village-Metropolitan Av,-73.889601,40.711396,3093.9460123062136
12:25:30,2,M04,Fresh Pond Rd,-73.895877,40.706186,2961.9460123062136
12:25:30,2,M05,Forest Av,-73.903077,40.704423,2850.9460123062136
12:25:30,2,M06,Seneca Av,-73.90774,40.702762,2730.9460123062136
13:05:30,1,M08,Myrtle-Wyckoff Avs,-73.912385,40.69943,2609.5460123062135
12:41:30,2,M09,Knickerbocker Av,-73.919711,40.698664,2729.5460123062135
13:05:30,1,M10,Central Av,-73.927397,40.697857,2867.5460123062135
12:25:30,1,M11,Myrtle Av,-73.935657,40.697207,2661.1849725246434
12:25:30,1,M12,Flushing Av,-73.941126,40.70026,2703.9904776096346
12:25:30,1,M13,Lorimer St,-73.947408,40.703869,2579.9904776096346
12:25:30,1,M14,Hewes St,-73.953431,40.70687,2459.9904776096346
12:25:30,1,M16,Marcy Av,-73.957757,40.708359,2343.9849725246427
12:25:30,1,M18,Delancey St-Essex St,-73.987437,40.718315,1921.9849725246427
12:01:30,1,M19,Bowery,-73.993915,40.72028,1806.984972524643
12:01:30,1,M20,Canal St,-73.999892,40.718092,1686.184972524643
12:17:30,1,M21,Chambers St,-74.003401,40.713243,1566.184972524643
12:01:30,1,M22,Fulton St,-74.007582,40.710374,1686.184972524643
12:01:30,1,M23,Broad St,-74.011056,40.706476,1754.184972524643
12:05:30,1,N02,8 Av,-74.011719,40.635064,3678.537402486801
12:05:30,1,N03,Fort Hamilton Pkwy,-74.005351,40.631386,3854.704599428177
12:05:30,1,N04,New Utrecht Av,-73.996353,40.624842,3981.7045994281766
12:05:30,1,N05,18 Av,-73.990414,40.620671,4101.704599428176
12:05:30,1,N06,20 Av,-73.985026,40.61741,4191.437402486801
12:05:30,1,N07,Bay Pkwy,-73.981848,40.611815,4339.704599428176
12:05:30,1,N08,Kings Hwy,-73.980353,40.603923,4469.704599428177
12:05:30,1,N09,Avenue U,-73.979137,40.597473,4602.704599428177
12:05:30,1,N10,86 St,-73.97823,40.592721,4756.290477609635
12:05:30,1,Q01,Canal St,-74.00046,40.718383,1679.4045994281769
12:13:30,1,Q03,72 St,-73.958424,40.768799,1043.4
12:13:30,1,Q04,86 St,-73.951787,40.777891,1229.7999999999997
12:13:30,1,Q05,96 St,-73.947152,40.784318,1346.7999999999997
12:13:30,1,R01,Astoria-Ditmars Blvd,-73.912034,40.775036,1980.4
12:13:30,1,R03,Astoria Blvd,-73.917843,40.770258,1865.4
12:13:30,1,R04,30 Av,-73.921479,40.766779,1741.4
12:13:30,1,R05,Broadway,-73.925508,40.76182,1621.4
12:13:30,1,R06,36 Av,-73.929575,40.756804,1491.3999999999999
12:13:30,1,R08,39 Av-Dutch Kills,-73.932755,40.752882,1346.6
12:13:30,1,R09,Queensboro Plaza,-73.940202,40.750582,1146.0561785697937
12:01:30,1,R11,Lexington Av/59 St,-73.967258,40.76266,786.5999999999999
12:01:30,1,R13,5 Av/59 St,-73.973347,40.764811,906.5999999999999
12:01:30,1,R14,57 St-7 Av,-73.980658,40.764664,1076.6
12:01:30,1,R15,49 St,-73.984139,40.759901,1221.6000000000001
12:01:30,1,R16,Times Sq-42 St,-73.986754,40.754672,1138.684972524643
12:01:30,1,R17,34 St-Herald Sq,-73.98795,40.749567,1258.684972524643
12:21:30,1,R18,28 St,-73.988691,40.745494,1372.684972524643
12:21:30,1,R19,23 St,-73.989344,40.741303,1467.7390253543854
12:17:30,1,R20,14 St-Union Sq,-73.990568,40.735736,1333.684972524643
12:09:30,1,R21,8 St-NYU,-73.992629,40.730328,1464.684972524643
12:09:30,1,R22,Prince St,-73.997702,40.724329,1584.684972524643
12:09:30,1,R23,Canal St,-74.001775,40.719527,1704.684972524643
12:17:30,1,R24,City Hall,-74.006978,40.713282,1879.6849725246432
12:17:30,1,R25,Cortlandt St,-74.011029,40.710668,2014.684972524643
12:17:30,1,R26,Rector St,-74.013342,40.70722,2134.684972524643
12:17:30,1,R27,Whitehall St-South Ferry,-74.012994,40.703087,2254.684972524643
12:17:30,1,R28,Court St,-73.991777,40.6941,2323.684972524643
12:17:30,1,R29,Jay St-MetroTech,-73.985942,40.69218,2308.4849718093874
12:09:30,1,R30,DeKalb Av,-73.981824,40.690635,2337.990477609634
12:05:30,1,R31,Atlantic Av-Barclays Ctr,-73.97881,40.683666,2514.404599428177
12:05:30,1,R32,Union St,-73.98311,40.677316,2691.904599428177
12:05:30,1,R33,4 Av-9 St,-73.988302,40.670847,2821.6139795303347
12:05:30,1,R34,Prospect Av,-73.992872,40.665414,2946.613979530335
12:05:30,1,R35,25 St,-73.998091,40.660397,3076.6139795303347
12:05:30,1,R36,36 St,-74.003549,40.655144,3038.537402486801
12:05:30,1,R39,45 St,-74.010006,40.648939,3259.704599428177
12:05:30,1,R40,53 St,-74.014034,40.645069,3379.704599428177
12:05:30,1,R41,59 St,-74.017881,40.641362,3462.537402486801
12:05:30,1,R42,Bay Ridge Av,-74.023377,40.634967,3643.0779427051543
12:05:30,1,R43,77 St,-74.02551,40.629742,3758.077942705154
12:05:30,1,R44,86 St,-74.028398,40.622687,3976.8429559230804
12:45:30,1,R45,Bay Ridge-95 St,-74.030876,40.616622,4096.84295592308
12:13:30,1,S01,Franklin Av,-73.955827,40.680596,2830.1849725246434
12:13:30,1,S03,Park Pl,-73.957624,40.674772,2964.5849725246435
12:09:30,1,S04,Botanic Garden,-73.959245,40.670343,2847.184972524643
