start_time,ntransfers,stop_id,stop_name,stop_lon,stop_lat,duration
12:03:30,2,101,Van Cortlandt Park-242 St,-73.898583,40.889248,4728.406108685903
12:03:30,2,103,238 St,-73.90087,40.884667,4548.471535941533
12:03:30,2,104,231 St,-73.904834,40.878856,4407.471535941533
12:03:30,2,106,Marble Hill-225 St,-73.909831,40.874561,4297.471535941533
12:03:30,2,107,215 St,-73.915279,40.869444,4169.471535941533
12:03:30,2,108,207 St,-73.918822,40.864621,4051.471535941533
12:03:30,2,109,Dyckman St,-73.925536,40.860531,3930.471535941533
12:03:30,2,110,191 St,-73.929412,40.855225,3823.471535941533
12:18:30,2,111,181 St,-73.933596,40.849505,3712.471535941533
12:18:30,1,112,168 St-Washington Hts,-73.940133,40.840556,3577.471535941533
12:18:30,1,113,157 St,-73.94489,40.834041,3465.471535941533
12:18:30,1,114,145 St,-73.95036,40.826551,3335.471535941533
12:18:30,1,115,137 St-City College,-73.953676,40.822008,3221.471535941533
12:18:30,1,116,125 St,-73.958372,40.815581,3100.6715359415334
12:18:30,1,117,116 St-Columbia University,-73.96411,40.807722,2935.6715359415334
12:18:30,1,118,Cathedral Pkwy (110 St),-73.966847,40.803967,2850.6715359415334
12:18:30,1,119,103 St,-73.968379,40.799446,2762.6715359415334
12:18:30,1,120,96 St,-73.972323,40.793919,2468.2428588117878
12:58:30,1,121,86 St,-73.976218,40.788644,2499.5715359415335
12:58:30,1,122,79 St,-73.979917,40.783934,2405.871535941533
12:18:30,1,123,72 St,-73.98197,40.778453,2250.5428588117875
12:03:30,2,124,66 St-Lincoln Center,-73.982209,40.77344,2315.5428588117875
12:08:30,1,125,59 St-Columbus Circle,-73.981929,40.768247,2215.1803571428572
12:08:30,1,126,50 St,-73.983849,40.761728,2093.5428588117875
13:18:30,1,127,Times Sq-42 St,-73.987495,40.75529,1930.1803571428575
12:33:30,1,128,34 St-Penn Station,-73.991057,40.750373,2039.1803571428577
13:13:30,1,129,28 St,-73.993365,40.747215,2120.1803571428577
13:13:30,1,130,23 St,-73.995657,40.744081,2197.1803571428577
13:13:30,1,131,18 St,-73.997871,40.74104,2271.1803571428577
12:33:30,1,132,14 St,-74.000201,40.737826,2287.0428588117875
12:38:30,1,133,Christopher St-Sheridan Sq,-74.002906,40.733422,2458.980357142858
12:38:30,1,134,Houston St,-74.005367,40.728251,2562.980357142858
12:38:30,1,135,Canal St,-74.006277,40.722854,2692.980357142858
12:38:30,1,136,Franklin St,-74.006886,40.719318,2765.980357142858
12:33:30,1,137,Chambers St,-74.009266,40.715478,2583.0428588117875
13:53:30,1,138,WTC Cortlandt,-74.012188,40.711835,2881.2969574655813
13:53:30,1,139,Rector St,-74.013783,40.707513,2983.2969574655813
13:53:30,1,142,South Ferry,-74.013664,40.702068,3126.2969574655813
12:13:30,2,201,Wakefield-241 St,-73.85062,40.903125,5145.796231957844
12:13:30,2,204,Nereid Av,-73.854376,40.898379,4885.154080125264
12:13:30,2,205,233 St,-73.857473,40.893193,4727.554080125264
12:13:30,2,206,225 St,-73.860341,40.888022,4627.554080125264
12:13:30,2,207,219 St,-73.862633,40.883895,4542.354080125264
12:13:30,2,208,Gun Hill Rd,-73.866256,40.87785,4427.054080125264
12:13:30,2,209,Burke Av,-73.867164,40.871356,4437.796231957844
12:13:30,2,210,Allerton Av,-73.867352,40.865462,4334.796231957844
12:13:30,2,211,Pelham Pkwy,-73.867615,40.857192,4209.796231957844
12:13:30,2,212,Bronx Park East,-73.868457,40.848828,4070.796231957844
12:13:30,2,213,E 180 St,-73.873488,40.841894,3575.7351653303417
12:13:30,2,214,West Farms Sq-E Tremont Av,-73.880049,40.840295,3911.6990390505107
12:13:30,2,215,174 St,-73.887734,40.837288,3762.699039050511
12:13:30,2,216,Freeman St,-73.891865,40.829993,3616.6990390505116
12:13:30,2,217,Simpson St,-73.893064,40.824073,3489.6990390505116
12:13:30,2,218,Intervale Av,-73.896736,40.822181,3403.6990390505116
12:13:30,2,219,Prospect Av,-73.90177,40.819585,3300.6990390505116
12:13:30,2,220,Jackson Av,-73.907807,40.81649,3176.699039050511
12:13:30,2,221,3 Av-149 St,-73.917757,40.816109,2849.7351653303417
12:13:30,2,222,149 St-Grand Concourse,-73.926718,40.81841,2729.7351653303417
12:18:30,1,224,135 St,-73.94077,40.814229,3109.9428588117876
12:18:30,1,225,125 St,-73.945495,40.807754,2970.9428588117876
12:18:30,1,226,116 St,-73.949625,40.802098,2857.9428588117876
12:18:30,1,227,Central Park North (110 St),-73.951822,40.799075,2769.2428588117878
12:33:30,1,228,Park Place,-74.008811,40.713051,2687.042858811788
12:33:30,1,229,Fulton St,-74.006571,40.709416,2826.042858811788
12:33:30,1,230,Wall St,-74.0091,40.706821,2914.8428564276023
12:33:30,1,231,Clark St,-73.993086,40.697466,3124.042858811788
12:33:30,1,232,Borough Hall,-73.989998,40.693219,3256.0428588117884
12:33:30,1,233,Hoyt St,-73.985065,40.690545,3256.529881736211
12:08:30,1,234,Nevins St,-73.980492,40.688246,3115.8428571428576
12:08:30,1,235,Atlantic Av-Barclays Ctr,-73.977666,40.684359,3205.8428571428576
12:18:30,2,236,Bergen St,-73.975098,40.680829,3360.77186414855
12:28:30,1,237,Grand Army Plaza,-73.971046,40.675235,3473.529881736211
12:28:30,1,238,Eastern Pkwy-Brooklyn Museum,-73.964375,40.671987,3593.729881736211
12:08:30,1,239,Franklin Av-Medgar Evers College,-73.958131,40.670682,3534.3428571428576
12:28:30,1,241,President St-Medgar Evers College,-73.950683,40.667883,3709.8428571428576
12:28:30,1,242,Sterling St,-73.95085,40.662742,3801.3428571428576
12:28:30,1,243,Winthrop St,-73.9502,40.656652,3913.842857142858
12:28:30,1,244,Church Av,-73.949575,40.650843,4009.8428571428576
12:28:30,1,245,Beverly Rd,-73.948959,40.645098,4119.342857142858
12:28:30,1,246,Newkirk Av-Little Haiti,-73.948411,40.639967,4197.342857142858
12:28:30,1,247,Flatbush Av-Brooklyn College,-73.947642,40.632836,4335.342857142858
12:28:30,1,248,Nostrand Av,-73.950466,40.669847,3793.031094190053
12:28:30,1,249,Kingston Av,-73.942161,40.669399,3911.831094190053
12:08:30,1,250,Crown Hts-Utica Av,-73.932942,40.668897,3978.231094190053
12:08:30,1,251,Sutter Av-Rutland Rd,-73.92261,40.664717,4101.615829535894
12:03:30,4,252,Saratoga Av,-73.916327,40.661453,3982.615829535893
12:03:30,4,253,Rockaway Av,-73.908946,40.662549,3877.5158295358933
12:03:30,4,254,Junius St,-73.902447,40.663515,3785.5158295358933
12:03:30,4,255,Pennsylvania Av,-73.894895,40.664635,3898.2158295358936
12:03:30,4,256,Van Siclen Av,-73.889395,40.665449,3982.2158295358936
12:03:30,4,257,New Lots Av,-73.884079,40.666235,4128.715829535893
12:18:30,1,301,Harlem-148 St,-73.93647,40.82388,3501.1736286844525
12:18:30,1,302,145 St,-73.936245,40.820421,3334.1736286844525
12:03:30,2,401,Woodlawn,-73.878751,40.886037,4432.999039050511
12:03:30,2,402,Mosholu Pkwy,-73.884655,40.87975,4256.999039050511
12:03:30,2,405,Bedford Park Blvd-Lehman College,-73.890064,40.873412,4110.99903905051
12:03:30,2,406,Kingsbridge Rd,-73.897174,40.86776,3973.9990390505104
12:03:30,2,407,Fordham Rd,-73.901034,40.862803,3868.9990390505104
12:03:30,2,408,183 St,-73.903879,40.858407,3762.9990390505104
12:03:30,2,409,Burnside Av,-73.907684,40.853453,3647.999039050511
12:03:30,2,410,176 St,-73.911794,40.84848,3539.999039050511
12:03:30,2,411,Mt Eden Av,-73.914685,40.844434,3440.999039050511
12:03:30,2,412,170 St,-73.917791,40.840075,3346.999039050511
12:03:30,2,413,167 St,-73.9214,40.835537,3239.999039050511
12:03:30,2,414,161 St-Yankee Stadium,-73.925831,40.827994,3097.4417461599623
12:03:30,2,415,149 St-Grand Concourse,-73.927351,40.818375,2789.441746159963
12:03:30,2,416,138 St-Grand Concourse,-73.929849,40.813224,2524.2351653303417
12:08:30,1,418,Fulton St,-74.009509,40.710368,2478.3428571428576
12:08:30,1,419,Wall St,-74.011862,40.707557,2577.3428571428576
12:08:30,1,420,Bowling Green,-74.014065,40.704817,2667.3428571428576
12:08:30,1,423,Borough Hall,-73.990151,40.692404,2995.8428571428576
12:13:30,2,501,Eastchester-Dyre Av,-73.830834,40.8883,4325.735165330341
12:13:30,2,502,Baychester Av,-73.838591,40.878663,4175.735165330341
12:13:30,2,503,Gun Hill Rd,-73.846384,40.869526,4025.7351653303417
12:13:30,2,504,Pelham Pkwy,-73.855359,40.858985,3875.7351653303417
12:13:30,2,505,Morris Park,-73.860495,40.854364,3785.7351653303417
13:58:30,1,601,Pelham Bay Park,-73.828121,40.852462,4575.497075768879
13:58:30,1,602,Buhre Av,-73.832569,40.84681,4355.797075768879
13:58:30,1,603,Middletown Rd,-73.836322,40.843863,4273.797075768879
13:58:30,1,604,Westchester Sq-E Tremont Av,-73.842952,40.839892,4085.5780238355906
13:58:30,1,606,Zerega Av,-73.847036,40.836488,3967.5780238355906
13:58:30,1,607,Castle Hill Av,-73.851222,40.834255,3885.6780238355905
12:18:30,2,608,Parkchester,-73.860816,40.833226,3558.8780238355907
12:18:30,2,609,St Lawrence Av,-73.867618,40.831509,3836.4223360266005
12:18:30,2,610,Morrison Av-Soundview,-73.874516,40.829521,3703.4223360266005
12:18:30,2,611,Elder Av,-73.879159,40.828584,3614.4223360266
12:18:30,2,612,Whitlock Av,-73.886283,40.826525,3477.4223360266005
12:18:30,2,613,Hunts Point Av,-73.890549,40.820948,3206.4780238355906
12:03:30,2,614,Longwood Av,-73.896435,40.816104,3375.0867188658035
12:03:30,2,615,E 149 St,-73.904098,40.812118,3247.0867188658035
12:03:30,2,616,E 143 St-St Mary's St,-73.907657,40.808719,3157.0867188658035
12:03:30,2,617,Cypress Av,-73.914042,40.805368,3038.0867188658035
12:03:30,2,618,Brook Av,-73.91924,40.807566,2959.086718865803
12:03:30,2,619,3 Av-138 St,-73.926138,40.810476,2802.4780238355906
12:03:30,2,621,125 St,-73.937594,40.804138,2330.7351653303417
12:18:30,2,622,116 St,-73.941617,40.798629,2456.0351653303414
12:18:30,2,623,110 St,-73.94425,40.79502,2359.8351653303416
12:18:30,2,624,103 St,-73.947478,40.7906,2269.8351653303416
12:18:30,2,625,96 St,-73.95107,40.785672,2164.9351653303415
12:48:30,2,626,86 St,-73.955589,40.779492,1966.999039050511
12:18:30,2,627,77 St,-73.959874,40.77362,1938.3351653303416
12:18:30,2,628,68 St-Hunter College,-73.96387,40.768141,1824.6478650297438
12:18:30,2,629,59 St,-73.967967,40.762526,1708.235165330342
12:18:30,2,630,51 St,-73.97192,40.757107,1726.4904755660468
12:18:30,2,631,Grand Central-42 St,-73.976848,40.751776,1753.8428571428576
12:03:30,2,632,33 St,-73.982076,40.746081,1888.8428571428576
12:03:30,2,633,28 St,-73.984264,40.74307,1966.8428571428574
12:03:30,2,634,23 St,-73.986599,40.739864,2046.8428571428576
12:08:30,1,635,14 St-Union Sq,-73.989951,40.734673,2020.8428571428576
12:03:30,1,636,Astor Pl,-73.99107,40.730054,2307.8428571428576
12:03:30,1,637,Bleecker St,-73.994659,40.725915,2418.8428571428576
12:03:30,1,638,Spring St,-73.997141,40.722301,2503.542857142858
12:03:30,1,639,Canal St,-74.000193,40.718803,2539.3428571428576
12:08:30,1,640,Brooklyn Bridge-City Hall,-74.004131,40.713065,2358.3428571428576
12:00:30,0,701,Flushing-Main St,-73.83003,40.7596,166.39999999999998
12:03:30,0,702,Mets-Willets Point,-73.845625,40.754622,0.0
12:03:30,0,705,111 St,-73.855334,40.75173,224.40000000000055
12:03:30,0,706,103 St-Corona Plaza,-73.8627,40.749865,320.00000000000006
12:03:30,0,707,Junction Blvd,-73.869527,40.749145,247.1428571428571
12:03:30,0,708,90 St-Elmhurst Av,-73.876613,40.748408,450.1428571428571
12:03:30,0,709,82 St-Jackson Hts,-73.883697,40.747659,626.1428571428571
12:03:30,0,710,74 St-Broadway,-73.891394,40.746848,787.1428571428571
12:03:30,0,711,69 St,-73.896403,40.746325,756.1428571428571
12:03:30,0,712,61 St-Woodside,-73.902984,40.74563,487.1428571428571
12:03:30,0,713,52 St,-73.912549,40.744149,756.1428571428571
12:03:30,0,714,46 St-Bliss St,-73.918435,40.743132,826.142857142857
12:03:30,0,715,40 St-Lowery St,-73.924016,40.743781,904.5428571428571
12:03:30,0,716,33 St-Rawson St,-73.930997,40.744587,1012.5428571428571
12:03:30,0,718,Queensboro Plaza,-73.940202,40.750582,1066.5428571428572
12:03:30,0,719,Court Sq,-73.945264,40.747023,1167.4428571428573
12:03:30,0,720,Hunters Point Av,-73.948916,40.742216,1269.8428571428574
12:03:30,0,721,Vernon Blvd-Jackson Av,-73.953581,40.742626,1316.1428571428573
12:03:30,0,723,Grand Central-42 St,-73.976041,40.751431,1528.8428571428576
12:03:30,0,724,5 Av,-73.981963,40.753821,1616.8428571428574
12:03:30,0,725,Times Sq-42 St,-73.987691,40.755477,1704.2428571428575
12:03:30,0,726,34 St-Hudson Yards,-74.00191,40.755882,1834.2428571428575
12:03:30,1,901,Grand Central-42 St,-73.979189,40.752769,1728.5428588117873
12:03:30,1,902,Times Sq-42 St,-73.986229,40.755983,1845.5428588117873
13:33:30,1,A02,Inwood-207 St,-73.919899,40.868072,4082.523388120107
13:33:30,1,A03,Dyckman St,-73.927271,40.865491,3962.523388120107
13:33:30,1,A05,190 St,-73.93418,40.859022,3797.5233881201066
13:33:30,1,A06,181 St,-73.937969,40.851695,3672.5233881201066
13:33:30,1,A07,175 St,-73.939704,40.847391,3552.5233881201066
12:18:30,1,A09,168 St,-73.939561,40.840719,3380.7233881201064
13:33:30,1,A10,163 St-Amsterdam Av,-73.939892,40.836013,3372.465491839818
13:33:30,1,A11,155 St,-73.941514,40.830518,3221.8395529951376
12:18:30,1,A12,145 St,-73.944216,40.824783,3072.465491839818
12:03:30,1,A14,135 St,-73.947649,40.817894,2947.465491839818
12:18:30,1,A15,125 St,-73.952343,40.811109,2739.707595559529
12:03:30,1,A16,116 St,-73.954882,40.805085,2904.865491839818
12:03:30,1,A17,Cathedral Pkwy (110 St),-73.958161,40.800603,2934.407595559529
12:03:30,1,A18,103 St,-73.961454,40.796092,2818.407595559529
12:03:30,1,A19,96 St,-73.964696,40.791642,2700.407595559529
12:03:30,1,A20,86 St,-73.968916,40.785868,2580.407595559529
12:03:30,1,A21,81 St-Museum of Natural History,-73.972143,40.781433,2460.407595559529
12:03:30,1,A22,72 St,-73.97641,40.775594,2340.407595559529
12:03:30,1,A24,59 St-Columbus Circle,-73.981736,40.768296,2152.5428588117875
12:03:30,1,A25,50 St,-73.985984,40.762456,2012.942857142858
13:18:30,1,A27,42 St-Port Authority Bus Terminal,-73.989735,40.757308,1965.5428588117875
13:18:30,1,A28,34 St-Penn Station,-73.993391,40.752287,2090.5428588117875
13:18:30,1,A30,23 St,-73.998041,40.745906,2210.5428588117875
13:18:30,1,A31,14 St,-74.00169,40.740893,2276.542858811787
13:18:30,1,A32,W 4 St-Wash Sq,-74.000495,40.732338,2424.4729120935713
13:18:30,1,A33,Spring St,-74.003739,40.726227,2569.8428571428576
13:18:30,1,A34,Canal St,-74.005229,40.720824,2628.842857142857
13:18:30,1,A36,Chambers St,-74.008585,40.714111,2783.8428571428576
13:18:30,1,A38,Fulton St,-74.007691,40.710197,2707.842856427602
13:18:30,1,A40,High St,-73.990531,40.699337,2927.642856427602
12:03:30,2,A41,Jay St-MetroTech,-73.987342,40.692338,3011.842857142857
12:03:30,2,A42,Hoyt-Schermerhorn Sts,-73.985001,40.688484,2780.4428571428575
12:03:30,2,A43,Lafayette Av,-73.973946,40.686113,3178.0386034216203
12:03:30,2,A44,Clinton-Washington Avs,-73.965838,40.683263,3293.0386034216203
12:03:30,2,A45,Franklin Av,-73.956848,40.68138,3413.0386034216203
12:03:30,2,A46,Nostrand Av,-73.950426,40.680438,3422.834160920552
12:03:30,2,A47,Kingston-Throop Avs,-73.940858,40.679921,3543.934160920552
12:03:30,2,A48,Utica Av,-73.930729,40.679364,3621.034160920552
12:03:30,2,A49,Ralph Av,-73.920786,40.678822,3571.834216805867
12:03:30,2,A50,Rockaway Av,-73.911946,40.67834,3451.834216805867
12:58:30,1,A51,Broadway Junction,-73.905316,40.678334,3333.834216805867
13:03:30,1,A52,Liberty Av,-73.896548,40.674542,3508.8342168058666
13:03:30,1,A53,Van Siclen Av,-73.890358,40.67271,3628.8342168058666
12:58:30,1,A54,Shepherd Av,-73.88075,40.67413,3748.8342168058666
12:58:30,1,A55,Euclid Av,-73.872106,40.675377,3753.834216805867
12:58:30,1,A57,Grant Av,-73.86505,40.677044,3918.8342168058666
12:58:30,1,A59,80 St,-73.858992,40.679371,4040.834216805866
12:58:30,1,A60,88 St,-73.85147,40.679843,4161.834216805866
12:58:30,1,A61,Rockaway Blvd,-73.843853,40.680429,4281.834216805866
12:58:30,1,A63,104 St,-73.837683,40.681711,4401.834216805866
13:58:30,1,A64,111 St,-73.832163,40.684331,4521.834216805866
13:58:30,1,A65,Ozone Park-Lefferts Blvd,-73.825798,40.685951,4653.834216805866
13:53:30,1,B04,21 St-Queensbridge,-73.942836,40.754203,1374.9153707708633
13:53:30,1,B06,Roosevelt Island,-73.95326,40.759145,1524.9153707708633
13:53:30,1,B08,Lexington Av/63 St,-73.966113,40.764629,1674.9153707708633
13:53:30,1,B10,57 St,-73.97745,40.763972,1824.9153707708633
12:18:30,1,B12,9 Av,-73.994324,40.646292,4202.315080424718
12:18:30,1,B13,Fort Hamilton Pkwy,-73.994304,40.640914,4392.315080424719
12:18:30,1,B14,50 St,-73.994791,40.63626,4512.315080424719
12:18:30,1,B15,55 St,-73.995476,40.631435,4632.315080424719
12:18:30,1,B16,62 St,-73.996895,40.626472,4766.375826617649
12:18:30,1,B17,71 St,-73.998864,40.619589,4886.375826617649
12:18:30,1,B18,79 St,-74.00061,40.613501,5009.375826617649
12:18:30,1,B19,18 Av,-74.001736,40.607954,5124.37582661765
12:18:30,1,B20,20 Av,-73.998168,40.604556,5239.37582661765
12:18:30,1,B21,Bay Pkwy,-73.993728,40.601875,5349.37582661765
13:18:30,1,B22,25 Av,-73.986829,40.597704,5504.615080424718
13:18:30,1,B23,Bay 50 St,-73.983765,40.588841,5521.842857142857
12:08:30,1,D01,Norwood-205 St,-73.878855,40.874811,4447.707595559529
12:08:30,1,D03,Bedford Park Blvd,-73.887138,40.873244,4219.707595559529
12:08:30,1,D04,Kingsbridge Rd,-73.893509,40.866978,4079.707595559529
12:08:30,1,D05,Fordham Rd,-73.897749,40.861296,3959.707595559529
12:08:30,1,D06,182-183 Sts,-73.900741,40.856093,3887.707595559529
13:08:30,1,D07,Tremont Av,-73.905227,40.85041,3774.707595559529
13:08:30,1,D08,174-175 Sts,-73.910136,40.8459,3725.649693795613
13:08:30,1,D09,170 St,-73.9134,40.839306,3604.249693795613
13:08:30,1,D10,167 St,-73.91844,40.833771,3481.249693795613
13:08:30,1,D11,161 St-Yankee Stadium,-73.925651,40.827905,3333.999039050511
13:08:30,1,D12,155 St,-73.938209,40.830135,3247.7075955595287
13:08:30,1,D13,145 St,-73.944216,40.824783,2989.707595559529
12:03:30,1,D14,7 Av,-73.981637,40.762862,1802.4428571428573
13:53:30,1,D15,47-50 Sts-Rockefeller Ctr,-73.981329,40.758663,1741.7285714285717
13:53:30,1,D16,42 St-Bryant Pk,-73.984569,40.754222,1841.8428571428574
13:53:30,1,D17,34 St-Herald Sq,-73.987823,40.749719,1931.8428571428572
13:53:30,1,D18,23 St,-73.992821,40.742878,2051.842857142857
13:53:30,1,D19,14 St,-73.996209,40.738228,2156.842857142857
13:53:30,1,D20,W 4 St-Wash Sq,-74.000495,40.732338,2176.842857142857
12:18:30,1,D21,Broadway-Lafayette St,-73.996204,40.725297,2355.8428571428576
12:18:30,1,D22,Grand St,-73.993753,40.718267,2530.842857142857
13:13:30,1,D24,Atlantic Av-Barclays Ctr,-73.97689,40.68446,3316.842857142857
13:13:30,1,D25,7 Av,-73.972367,40.67705,3496.842857142857
13:13:30,1,D26,Prospect Park,-73.962246,40.661614,3783.842857142857
13:13:30,1,D27,Parkside Av,-73.961495,40.655292,3974.1047604288383
12:03:30,1,D28,Church Av,-73.962982,40.650527,3967.642857142858
13:13:30,1,D29,Beverley Rd,-73.964492,40.644031,4116.333334752492
13:13:30,1,D30,Cortelyou Rd,-73.963891,40.640927,4231.333334752492
12:03:30,1,D31,Newkirk Plaza,-73.962793,40.635082,4187.642857142858
12:03:30,1,D32,Avenue H,-73.961639,40.62927,4341.962858029775
12:03:30,1,D33,Avenue J,-73.960803,40.625039,4462.962858029775
12:03:30,1,D34,Avenue M,-73.959399,40.617618,4590.962858029775
12:03:30,1,D35,Kings Hwy,-73.957734,40.60867,4531.142857142859
13:33:30,1,D37,Avenue U,-73.955929,40.5993,4776.153169223242
13:33:30,1,D38,Neck Rd,-73.955161,40.595246,4931.353169223242
12:03:30,1,D39,Sheepshead Bay,-73.954155,40.586896,4870.882858916692
13:33:30,1,D40,Brighton Beach,-73.961376,40.577621,5050.882858916692
13:33:30,1,D41,Ocean Pkwy,-73.968501,40.576312,5230.982858916692
13:33:30,1,D42,W 8 St-NY Aquarium,-73.975939,40.576127,5045.242857142857
13:33:30,1,D43,Coney Island-Stillwell Av,-73.981233,40.577422,5179.742857142857
12:03:30,1,E01,World Trade Center,-74.009781,40.712582,2867.9499988760267
12:48:30,1,F01,Jamaica-179 St,-73.783817,40.712646,2184.9153707708633
13:08:30,1,F02,169 St,-73.793604,40.71047,2094.9153707708633
12:43:30,1,F03,Parsons Blvd,-73.803326,40.707564,1974.9153707708633
12:43:30,1,F04,Sutphin Blvd,-73.810708,40.70546,1884.9153707708633
12:43:30,1,F05,Briarwood,-73.820574,40.709179,1764.9153707708633
12:18:30,1,F06,Kew Gardens-Union Tpke,-73.831008,40.714441,1644.9153707708633
12:43:30,1,F07,75 Av,-73.837324,40.718331,1554.9153707708633
12:03:30,1,F09,Court Sq-23 St,-73.946,40.747846,1287.4428571428573
12:03:30,1,F11,Lexington Av/53 St,-73.969055,40.757552,1491.014285714286
12:03:30,1,F12,5 Av/53 St,-73.975224,40.760167,1590.1979591836737
13:53:30,1,F14,2 Av,-73.989938,40.723402,2531.842857142857
13:53:30,1,F15,Delancey St-Essex St,-73.988114,40.718611,2651.842857142857
13:53:30,1,F16,East Broadway,-73.990173,40.713715,2741.842857142857
13:53:30,1,F18,York St,-73.986751,40.701397,2921.842857142857
12:03:30,2,F20,Bergen St,-73.990862,40.686145,3025.4428571428575
12:03:30,2,F21,Carroll St,-73.995048,40.680303,3150.442857142858
12:03:30,2,F22,Smith-9 Sts,-73.995959,40.67358,3335.442857142858
12:03:30,2,F23,4 Av-9 St,-73.989779,40.670272,3455.442857142858
12:03:30,2,F24,7 Av,-73.980305,40.666271,3431.842857142857
12:03:30,2,F25,15 St-Prospect Park,-73.979493,40.660365,3605.007996102742
12:03:30,2,F26,Fort Hamilton Pkwy,-73.975776,40.650782,3845.0079961027413
12:03:30,2,F27,Church Av,-73.979678,40.644041,3671.842857142857
12:03:30,2,F29,Ditmas Av,-73.978172,40.636119,3791.842857142857
12:03:30,2,F30,18 Av,-73.976971,40.629755,3911.842857142857
12:03:30,2,F31,Avenue I,-73.976127,40.625322,3971.842857142857
12:03:30,2,F32,Bay Pkwy,-73.975264,40.620769,4031.842857142857
12:03:30,2,F33,Avenue N,-73.974197,40.61514,4151.842857142858
12:03:30,2,F34,Avenue P,-73.973022,40.608944,4241.842857142858
12:03:30,2,F35,Kings Hwy,-73.972361,40.603217,4526.842857142858
12:03:30,2,F36,Avenue U,-73.973357,40.596063,4647.742857142857
12:03:30,2,F38,Avenue X,-73.97425,40.58962,4767.742857142857
12:13:30,1,F39,Neptune Av,-73.974574,40.581011,4920.242857142857
12:18:30,1,G05,Jamaica Center-Parsons/Archer,-73.801109,40.702147,2352.915370770863
12:18:30,1,G06,Sutphin Blvd-Archer Av-JFK Airport,-73.807969,40.700486,2222.9153707708633
12:18:30,1,G07,Jamaica-Van Wyck,-73.816859,40.702566,2046.9153707708633
12:18:30,1,G08,Forest Hills-71 Av,-73.844521,40.721691,1434.9153707708633
12:08:30,1,G09,67 Av,-73.852719,40.726523,1528.6653707708633
12:08:30,1,G10,63 Dr-Rego Park,-73.861604,40.729846,1434.9153707708633
12:08:30,1,G11,Woodhaven Blvd,-73.869229,40.733106,1344.9153707708633
12:08:30,1,G12,Grand Av-Newtown,-73.877223,40.737015,1224.9153707708633
12:08:30,1,G13,Elmhurst Av,-73.882017,40.742454,1134.9153707708633
12:03:30,1,G14,Jackson Hts-Roosevelt Av,-73.891338,40.746644,1014.9153707708632
12:08:30,1,G15,65 St,-73.898453,40.749669,1104.9153707708633
12:08:30,1,G16,Northern Blvd,-73.906006,40.752885,1199.2452676780797
12:08:30,1,G18,46 St,-73.913333,40.756312,1289.2452676780797
12:08:30,1,G19,Steinway St,-73.92074,40.756879,1406.1524841729251
12:33:30,1,G20,36 St,-73.928781,40.752039,1526.1524841729251
12:03:30,1,G21,Queens Plaza,-73.937243,40.748973,1410.810204081633
12:03:30,2,G22,Court Sq,-73.943832,40.746554,1227.4428571428573
12:03:30,2,G24,21 St,-73.949724,40.744065,1347.4428571428573
12:03:30,2,G26,Greenpoint Av,-73.954449,40.731352,1522.4428571428573
12:03:30,2,G28,Nassau Av,-73.951277,40.724635,1647.4428571428573
12:03:30,2,G29,Metropolitan Av,-73.951418,40.712792,1832.4428571428573
12:03:30,2,G30,Broadway,-73.950308,40.706092,1950.4428571428573
12:03:30,2,G31,Flushing Av,-73.950234,40.700377,2070.4428571428575
12:03:30,2,G32,Myrtle-Willoughby Avs,-73.949046,40.694568,2187.4428571428575
12:03:30,2,G33,Bedford-Nostrand Avs,-73.953522,40.689627,2307.4428571428575
12:03:30,2,G34,Classon Av,-73.96007,40.688873,2422.4428571428575
12:03:30,2,G35,Clinton-Washington Avs,-73.966839,40.688089,2535.4428571428575
12:03:30,2,G36,Fulton St,-73.975375,40.687119,2655.4428571428575
12:08:30,1,H01,Aqueduct Racetrack,-73.834058,40.668234,4523.834216805866
13:53:30,1,H02,Aqueduct-N Conduit Av,-73.834058,40.668234,4585.654959556035
13:53:30,1,H03,Howard Beach-JFK Airport,-73.830301,40.660476,4761.654959556035
13:53:30,1,H04,Broad Channel,-73.815925,40.608382,5314.734216805867
13:53:30,1,H06,Beach 67 St,-73.796924,40.590927,5756.334216805866
13:53:30,1,H07,Beach 60 St,-73.788522,40.592374,5886.334216805867
13:53:30,1,H08,Beach 44 St,-73.776013,40.592943,6013.334216805866
13:53:30,1,H09,Beach 36 St,-73.768175,40.595398,6136.334216805866
13:53:30,1,H10,Beach 25 St,-73.761353,40.600066,6256.334216805866
13:53:30,1,H11,Far Rockaway-Mott Av,-73.755405,40.603995,6376.334216805866
13:53:30,1,H12,Beach 90 St,-73.813641,40.588034,5661.534216805867
13:53:30,1,H13,Beach 98 St,-73.820558,40.585307,5784.534216805867
13:53:30,1,H14,Beach 105 St,-73.827559,40.583209,5899.534216805867
13:53:30,1,H15,Rockaway Park-Beach 116 St,-73.835592,40.580903,6022.534216805867
12:03:30,1,J12,121 St,-73.828294,40.700492,2660.715370770863
12:03:30,1,J13,111 St,-73.836345,40.697418,2772.915370770863
12:03:30,1,J14,104 St,-73.84433,40.695178,2887.5153707708632
12:03:30,1,J15,Woodhaven Blvd,-73.851576,40.693879,2982.915370770863
12:03:30,1,J16,85 St-Forest Pkwy,-73.86001,40.692435,3331.0971894945415
12:03:30,1,J17,75 St-Elderts Ln,-73.867139,40.691324,3162.915370770863
12:03:30,1,J19,Cypress Hills,-73.87255,40.689941,3522.915370770863
12:03:30,1,J20,Crescent St,-73.873785,40.683194,3312.915370770863
12:03:30,1,J21,Norwood Av,-73.880039,40.68141,3402.915370770863
12:03:30,1,J22,Cleveland St,-73.884639,40.679947,3701.7100047792705
12:03:30,1,J23,Van Siclen Av,-73.891688,40.678024,3483.834216805867
12:03:30,1,J24,Alabama Av,-73.898654,40.676992,3423.834216805867
12:03:30,1,J27,Broadway Junction,-73.904512,40.679498,3320.5158295358933
12:03:30,1,J28,Chauncey St,-73.910456,40.682893,3393.834216805867
12:03:30,1,J29,Halsey St,-73.916559,40.68637,3568.8342168058666
12:03:30,1,J30,Gates Av,-73.92227,40.68963,3543.834216805867
12:33:30,1,J31,Kosciuszko St,-73.928814,40.693342,3519.9188353742866
12:03:30,2,L01,8 Av,-74.002578,40.739777,2336.542858811787
12:03:30,2,L02,6 Av,-73.996786,40.737335,2352.803896924428
12:03:30,2,L03,14 St-Union Sq,-73.99073,40.734789,2234.803896924428
12:03:30,3,L05,3 Av,-73.986122,40.732849,2326.703896924428
12:03:30,3,L06,1 Av,-73.981628,40.730953,2379.703896924428
12:03:30,3,L08,Bedford Av,-73.956872,40.717304,2186.415829535893
12:03:30,3,L10,Lorimer St,-73.950275,40.714063,2100.415829535893
12:03:30,3,L11,Graham Av,-73.944053,40.714565,2156.215829535893
12:03:30,3,L12,Grand St,-73.94067,40.711926,2256.215829535893
12:03:30,3,L13,Montrose Av,-73.93985,40.707739,2304.2158295358927
12:03:30,3,L14,Morgan Av,-73.933147,40.706152,2396.2158295358927
12:03:30,3,L15,Jefferson St,-73.922913,40.706607,2501.415829535893
12:03:30,3,L16,DeKalb Av,-73.918425,40.703811,2580.415829535893
12:03:30,3,L17,Myrtle-Wyckoff Avs,-73.911586,40.699814,2676.4158295358934
12:03:30,3,L19,Halsey St,-73.904084,40.695602,2751.4158295358934
12:03:30,3,L20,Wilson Av,-73.904046,40.688764,2887.415829535893
12:03:30,3,L21,Bushwick Av-Aberdeen St,-73.905249,40.682829,3001.415829535893
12:03:30,3,L22,Broadway Junction,-73.90324,40.678856,3095.5158295358933
12:03:30,3,L24,Atlantic Av,-73.903097,40.675345,3273.5158295358933
12:03:30,3,L25,Sutter Av,-73.901975,40.669367,3372.5158295358933
12:03:30,3,L26,Livonia Av,-73.900571,40.664038,3455.5158295358933
12:03:30,3,L27,New Lots Av,-73.899232,40.658733,3532.315829535893
12:03:30,3,L28,East 105 St,-73.899485,40.650573,3686.3158295358935
12:03:30,3,L29,Canarsie-Rockaway Pkwy,-73.90185,40.646654,3945.315829535893
12:03:30,4,M01,Middle Village-Metropolitan Av,-73.889601,40.711396,3385.8158295358935
12:03:30,4,M04,Fresh Pond Rd,-73.895877,40.706186,3253.8158295358935
12:03:30,4,M05,Forest Av,-73.903077,40.704423,3142.815829535893
12:03:30,4,M06,Seneca Av,-73.90774,40.702762,3022.815829535893
12:53:30,1,M08,Myrtle-Wyckoff Avs,-73.912385,40.69943,2901.4158295358934
12:03:30,4,M09,Knickerbocker Av,-73.919711,40.698664,3021.4158295358934
12:03:30,4,M10,Central Av,-73.927397,40.697857,3159.415829535893
12:23:30,1,M11,Myrtle Av,-73.935657,40.697207,3335.006213876179
12:23:30,1,M12,Flushing Av,-73.941126,40.70026,3466.415829535893
12:23:30,1,M13,Lorimer St,-73.947408,40.703869,3476.042857142857
12:23:30,1,M14,Hewes St,-73.953431,40.70687,3317.242857142857
12:23:30,1,M16,Marcy Av,-73.957757,40.708359,3195.2428571428572
12:23:30,1,M18,Delancey St-Essex St,-73.987437,40.718315,2766.7428571428572
13:13:30,2,M19,Bowery,-73.993915,40.72028,2719.142857142858
12:08:30,2,M20,Canal St,-73.999892,40.718092,2598.3428571428576
12:48:30,2,M21,Chambers St,-74.003401,40.713243,2478.3428571428576
12:08:30,2,M22,Fulton St,-74.007582,40.710374,2598.3428571428576
12:08:30,2,M23,Broad St,-74.011056,40.706476,2666.3428571428576
12:03:30,1,N02,8 Av,-74.011719,40.635064,4422.375826617649
12:03:30,1,N03,Fort Hamilton Pkwy,-74.005351,40.631386,4598.77582661765
12:03:30,1,N04,New Utrecht Av,-73.996353,40.624842,4753.27582661765
12:03:30,1,N05,18 Av,-73.990414,40.620671,4860.27582661765
12:03:30,1,N06,20 Av,-73.985026,40.61741,4935.27582661765
12:03:30,1,N07,Bay Pkwy,-73.981848,40.611815,5090.275826617649
12:03:30,1,N08,Kings Hwy,-73.980353,40.603923,5242.37582661765
12:03:30,1,N09,Avenue U,-73.979137,40.597473,5375.37582661765
12:03:30,1,N10,86 St,-73.97823,40.592721,5505.142857142858
13:13:30,1,Q01,Canal St,-74.00046,40.718383,2591.5624840463915
12:28:30,1,Q03,72 St,-73.958424,40.768799,1872.435165330342
12:28:30,1,Q04,86 St,-73.951787,40.777891,2031.435165330342
12:28:30,1,Q05,96 St,-73.947152,40.784318,2148.435165330342
12:03:30,1,R01,Astoria-Ditmars Blvd,-73.912034,40.775036,1947.035165330342
12:03:30,1,R03,Astoria Blvd,-73.917843,40.770258,1832.0351653303421
12:03:30,1,R04,30 Av,-73.921479,40.766779,1708.0351653303421
12:03:30,1,R05,Broadway,-73.925508,40.76182,1588.0351653303421
12:03:30,1,R06,36 Av,-73.929575,40.756804,1458.035165330342
12:03:30,1,R08,39 Av-Dutch Kills,-73.932755,40.752882,1313.235165330342
12:03:30,1,R09,Queensboro Plaza,-73.940202,40.750582,1118.235165330342
12:18:30,1,R11,Lexington Av/59 St,-73.967258,40.76266,1483.235165330342
12:18:30,1,R13,5 Av/59 St,-73.973347,40.764811,1613.235165330342
12:58:30,1,R14,57 St-7 Av,-73.980658,40.764664,1793.235165330342
12:18:30,1,R15,49 St,-73.984139,40.759901,1959.9428604807172
13:13:30,1,R16,Times Sq-42 St,-73.986754,40.754672,1965.5428588117875
13:13:30,1,R17,34 St-Herald Sq,-73.98795,40.749567,2085.5428588117875
12:18:30,1,R18,28 St,-73.988691,40.745494,2199.542858811788
12:18:30,1,R19,23 St,-73.989344,40.741303,2314.5428588117875
13:13:30,1,R20,14 St-Union Sq,-73.990568,40.735736,2245.8428571428576
12:18:30,1,R21,8 St-NYU,-73.992629,40.730328,2376.8428571428576
12:18:30,1,R22,Prince St,-73.997702,40.724329,2496.8428571428576
12:18:30,1,R23,Canal St,-74.001775,40.719527,2616.8428571428576
12:18:30,1,R24,City Hall,-74.006978,40.713282,2791.842857142857
12:18:30,1,R25,Cortlandt St,-74.011029,40.710668,2926.842857142857
12:18:30,1,R26,Rector St,-74.013342,40.70722,3046.842857142857
12:18:30,1,R27,Whitehall St-South Ferry,-74.012994,40.703087,3166.842857142857
12:03:30,3,R28,Court St,-73.991777,40.6941,3235.8428571428576
12:48:30,1,R29,Jay St-MetroTech,-73.985942,40.69218,3146.842857142857
13:13:30,1,R30,DeKalb Av,-73.981824,40.690635,3049.815080424718
12:18:30,1,R31,Atlantic Av-Barclays Ctr,-73.97881,40.683666,3244.815080424718
12:18:30,1,R32,Union St,-73.98311,40.677316,3489.815080424718
12:18:30,1,R33,4 Av-9 St,-73.988302,40.670847,3665.015080424718
12:18:30,1,R34,Prospect Av,-73.992872,40.665414,3785.015080424718
12:18:30,1,R35,25 St,-73.998091,40.660397,3899.4428571428584
12:18:30,1,R36,36 St,-74.003549,40.655144,3781.815080424718
12:18:30,1,R39,45 St,-74.010006,40.648939,4032.37582661765
12:18:30,1,R40,53 St,-74.014034,40.645069,4152.37582661765
12:03:30,1,R41,59 St,-74.017881,40.641362,4206.37582661765
12:18:30,1,R42,Bay Ridge Av,-74.023377,40.634967,4386.916366836003
12:18:30,1,R43,77 St,-74.02551,40.629742,4501.916366836003
12:18:30,1,R44,86 St,-74.028398,40.622687,4720.681380053929
12:18:30,1,R45,Bay Ridge-95 St,-74.030876,40.616622,4840.681380053929
12:03:30,1,S01,Franklin Av,-73.955827,40.680596,3473.0386034216203
12:03:30,3,S03,Park Pl,-73.957624,40.674772,3607.4386034216204
12:03:30,1,S04,Botanic Garden,-73.959245,40.670343,3759.3428571428576
