start_time,ntransfers,stop_id,stop_name,stop_lon,stop_lat,duration
12:35:30,1,101,Van Cortlandt Park-242 St,-73.898583,40.889248,2865.3827205657963
12:35:30,1,103,238 St,-73.90087,40.884667,2699.3827205657963
12:35:30,1,104,231 St,-73.904834,40.878856,2573.1891312122343
12:35:30,1,106,Marble Hill-225 St,-73.909831,40.874561,2463.1891312122343
12:35:30,1,107,215 St,-73.915279,40.869444,2309.982720565796
12:35:30,1,108,207 St,-73.918822,40.864621,2217.1891312122343
12:35:30,1,109,Dyckman St,-73.925536,40.860531,2096.1891312122343
12:35:30,1,110,191 St,-73.929412,40.855225,1989.1891312122343
12:35:30,1,111,181 St,-73.933596,40.849505,1878.1891312122343
12:35:30,1,112,168 St-Washington Hts,-73.940133,40.840556,1743.1891312122343
12:35:30,1,113,157 St,-73.94489,40.834041,1646.8727298736576
12:35:30,1,114,145 St,-73.95036,40.826551,1516.8727298736576
12:35:30,1,115,137 St-City College,-73.953676,40.822008,1402.8727298736576
12:35:30,1,116,125 St,-73.958372,40.815581,1280.2727298736575
12:35:30,1,117,116 St-Columbia University,-73.96411,40.807722,1116.2727298736575
12:35:30,1,118,Cathedral Pkwy (110 St),-73.966847,40.803967,1032.0727298736574
12:35:30,1,119,103 St,-73.968379,40.799446,943.2727298736572
12:15:30,1,120,96 St,-73.972323,40.793919,562.7
12:15:30,1,121,86 St,-73.976218,40.788644,680.2727298736572
12:15:30,1,122,79 St,-73.979917,40.783934,584.2727298736572
12:15:30,1,123,72 St,-73.98197,40.778453,345.0
12:25:30,1,124,66 St-Lincoln Center,-73.982209,40.77344,410.0
12:25:30,1,125,59 St-Columbus Circle,-73.981929,40.768247,316.0
12:25:30,1,126,50 St,-73.983849,40.761728,188.0
12:35:30,1,127,Times Sq-42 St,-73.987495,40.75529,60.0
12:30:30,1,128,34 St-Penn Station,-73.991057,40.750373,189.0
12:30:30,1,129,28 St,-73.993365,40.747215,287.0
12:30:30,1,130,23 St,-73.995657,40.744081,366.0
12:30:30,1,131,18 St,-73.997871,40.74104,443.0
12:30:30,1,132,14 St,-74.000201,40.737826,381.5
13:55:30,1,133,Christopher St-Sheridan Sq,-74.002906,40.733422,640.0
13:55:30,1,134,Houston St,-74.005367,40.728251,745.0
13:55:30,1,135,Canal St,-74.006277,40.722854,853.0
13:10:30,1,136,Franklin St,-74.006886,40.719318,928.0
12:30:30,1,137,Chambers St,-74.009266,40.715478,677.5000000000001
13:10:30,1,138,WTC Cortlandt,-74.012188,40.711835,975.7540986537934
13:10:30,1,139,Rector St,-74.013783,40.707513,1077.7540986537933
13:10:30,1,142,South Ferry,-74.013664,40.702068,1220.7540986537933
12:45:30,1,201,Wakefield-241 St,-73.85062,40.903125,3734.561066627503
12:45:30,1,204,Nereid Av,-73.854376,40.898379,3473.918914794922
12:45:30,1,205,233 St,-73.857473,40.893193,3316.318914794922
12:45:30,1,206,225 St,-73.860341,40.888022,3216.3189147949224
12:45:30,1,207,219 St,-73.862633,40.883895,3131.118914794922
12:45:30,1,208,Gun Hill Rd,-73.866256,40.87785,3015.818914794922
12:45:30,1,209,Burke Av,-73.867164,40.871356,3026.5610666275034
12:45:30,1,210,Allerton Av,-73.867352,40.865462,2923.561066627503
12:45:30,1,211,Pelham Pkwy,-73.867615,40.857192,2798.561066627503
12:45:30,1,212,Bronx Park East,-73.868457,40.848828,2659.561066627503
12:45:30,1,213,E 180 St,-73.873488,40.841894,2164.5
12:45:30,1,214,West Farms Sq-E Tremont Av,-73.880049,40.840295,2564.5610666275024
12:45:30,1,215,174 St,-73.887734,40.837288,2444.4069757461543
12:45:30,1,216,Freeman St,-73.891865,40.829993,2298.4069757461543
12:45:30,1,217,Simpson St,-73.893064,40.824073,2168.406975746155
12:05:30,1,218,Intervale Av,-73.896736,40.822181,2083.406975746155
12:05:30,1,219,Prospect Av,-73.90177,40.819585,1984.4069757461548
12:45:30,1,220,Jackson Av,-73.907807,40.81649,1866.406975746155
12:05:30,1,221,3 Av-149 St,-73.917757,40.816109,1438.5
12:05:30,1,222,149 St-Grand Concourse,-73.926718,40.81841,1318.5
12:15:30,1,224,135 St,-73.94077,40.814229,1204.4
12:15:30,1,225,125 St,-73.945495,40.807754,1065.4
12:15:30,1,226,116 St,-73.949625,40.802098,952.4
12:15:30,1,227,Central Park North (110 St),-73.951822,40.799075,863.6999999999999
12:30:30,1,228,Park Place,-74.008811,40.713051,781.5000000000001
12:30:30,1,229,Fulton St,-74.006571,40.709416,920.5000000000001
12:30:30,1,230,Wall St,-74.0091,40.706821,1009.5000000000002
12:30:30,1,231,Clark St,-73.993086,40.697466,1218.5000000000002
12:30:30,1,232,Borough Hall,-73.989998,40.693219,1350.5000000000002
12:30:30,1,233,Hoyt St,-73.985065,40.690545,1458.4000000000003
12:00:30,1,234,Nevins St,-73.980492,40.688246,1539.0
12:00:30,1,235,Atlantic Av-Barclays Ctr,-73.977666,40.684359,1629.0
12:00:30,1,236,Bergen St,-73.975098,40.680829,1777.4000000000003
12:00:30,1,237,Grand Army Plaza,-73.971046,40.675235,1896.6870245933533
12:00:30,1,238,Eastern Pkwy-Brooklyn Museum,-73.964375,40.671987,2016.8870245933535
12:00:30,1,239,Franklin Av-Medgar Evers College,-73.958131,40.670682,1957.5
12:00:30,1,241,President St-Medgar Evers College,-73.950683,40.667883,2133.0
12:00:30,1,242,Sterling St,-73.95085,40.662742,2224.4999999999995
12:00:30,1,243,Winthrop St,-73.9502,40.656652,2336.9999999999995
12:00:30,1,244,Church Av,-73.949575,40.650843,2433.0
12:00:30,1,245,Beverly Rd,-73.948959,40.645098,2542.5
12:00:30,1,246,Newkirk Av-Little Haiti,-73.948411,40.639967,2620.5
12:00:30,1,247,Flatbush Av-Brooklyn College,-73.947642,40.632836,2758.4999999999995
12:00:30,1,248,Nostrand Av,-73.950466,40.669847,2216.1882370471953
12:00:30,1,249,Kingston Av,-73.942161,40.669399,2334.988237047195
12:20:30,1,250,Crown Hts-Utica Av,-73.932942,40.668897,2401.388237047195
12:00:30,1,251,Sutter Av-Rutland Rd,-73.92261,40.664717,2572.2882370471953
12:00:30,1,252,Saratoga Av,-73.916327,40.661453,2698.588237047195
12:00:30,1,253,Rockaway Av,-73.908946,40.662549,2793.888237047195
12:00:30,1,254,Junius St,-73.902447,40.663515,2788.561039781571
12:00:30,1,255,Pennsylvania Av,-73.894895,40.664635,2901.2610397815706
12:00:30,1,256,Van Siclen Av,-73.889395,40.665449,2985.2610397815706
12:00:30,1,257,New Lots Av,-73.884079,40.666235,3131.761039781571
12:15:30,1,301,Harlem-148 St,-73.93647,40.82388,1726.0
12:15:30,1,302,145 St,-73.936245,40.820421,1441.4
12:10:30,1,401,Woodlawn,-73.878751,40.886037,3135.238094329833
12:10:30,1,402,Mosholu Pkwy,-73.884655,40.87975,2959.2380943298335
12:10:30,1,405,Bedford Park Blvd-Lehman College,-73.890064,40.873412,2813.2380943298335
12:10:30,1,406,Kingsbridge Rd,-73.897174,40.86776,2676.2380943298335
12:10:30,1,407,Fordham Rd,-73.901034,40.862803,2571.2380943298335
12:10:30,1,408,183 St,-73.903879,40.858407,2465.2380943298335
12:10:30,1,409,Burnside Av,-73.907684,40.853453,2350.238094329834
12:10:30,1,410,176 St,-73.911794,40.84848,2242.238094329834
12:10:30,1,411,Mt Eden Av,-73.914685,40.844434,2143.238094329834
12:10:30,1,412,170 St,-73.917791,40.840075,2049.238094329834
12:10:30,1,413,167 St,-73.9214,40.835537,1942.238094329834
12:10:30,1,414,161 St-Yankee Stadium,-73.925831,40.827994,1754.7
12:10:30,1,415,149 St-Grand Concourse,-73.927351,40.818375,1446.7
12:10:30,1,416,138 St-Grand Concourse,-73.929849,40.813224,1113.0
12:00:30,1,418,Fulton St,-74.009509,40.710368,901.5
12:00:30,1,419,Wall St,-74.011862,40.707557,1000.5
12:00:30,1,420,Bowling Green,-74.014065,40.704817,1090.5
12:00:30,1,423,Borough Hall,-73.990151,40.692404,1419.0
12:45:30,1,501,Eastchester-Dyre Av,-73.830834,40.8883,2914.5
12:45:30,1,502,Baychester Av,-73.838591,40.878663,2764.5
12:45:30,1,503,Gun Hill Rd,-73.846384,40.869526,2614.5
12:45:30,1,504,Pelham Pkwy,-73.855359,40.858985,2464.5
12:45:30,1,505,Morris Park,-73.860495,40.854364,2374.5
13:45:30,1,601,Pelham Bay Park,-73.828121,40.852462,3164.2619104385376
13:45:30,1,602,Buhre Av,-73.832569,40.84681,2944.561910438538
13:45:30,1,603,Middletown Rd,-73.836322,40.843863,2862.561910438538
13:45:30,1,604,Westchester Sq-E Tremont Av,-73.842952,40.839892,2674.342858505249
13:45:30,1,606,Zerega Av,-73.847036,40.836488,2556.342858505249
13:45:30,1,607,Castle Hill Av,-73.851222,40.834255,2474.4428585052488
12:50:30,1,608,Parkchester,-73.860816,40.833226,2147.642858505249
12:50:30,1,609,St Lawrence Av,-73.867618,40.831509,2425.1871706962584
12:50:30,1,610,Morrison Av-Soundview,-73.874516,40.829521,2292.1871706962584
12:50:30,1,611,Elder Av,-73.879159,40.828584,2203.1871706962584
12:50:30,1,612,Whitlock Av,-73.886283,40.826525,2066.1871706962584
12:50:30,1,613,Hunts Point Av,-73.890549,40.820948,1795.242858505249
12:10:30,1,614,Longwood Av,-73.896435,40.816104,1963.8515535354616
12:10:30,1,615,E 149 St,-73.904098,40.812118,1835.8515535354613
12:10:30,1,616,E 143 St-St Mary's St,-73.907657,40.808719,1745.8515535354613
12:10:30,1,617,Cypress Av,-73.914042,40.805368,1626.8515535354613
12:10:30,1,618,Brook Av,-73.91924,40.807566,1547.8515535354613
12:10:30,1,619,3 Av-138 St,-73.926138,40.810476,1391.242858505249
12:10:30,1,621,125 St,-73.937594,40.804138,919.5
12:05:30,1,622,116 St,-73.941617,40.798629,1208.684972524643
12:10:30,1,623,110 St,-73.94425,40.79502,1106.684972524643
12:10:30,1,624,103 St,-73.947478,40.7906,1018.6849725246431
12:10:30,1,625,96 St,-73.95107,40.785672,911.684972524643
12:10:30,1,626,86 St,-73.955589,40.779492,559.5
12:10:30,1,627,77 St,-73.959874,40.77362,685.0000000000001
12:10:30,1,628,68 St-Hunter College,-73.96387,40.768141,577.0
12:10:30,1,629,59 St,-73.967967,40.762526,327.0
12:10:30,1,630,51 St,-73.97192,40.757107,328.0
12:05:30,1,631,Grand Central-42 St,-73.976848,40.751776,177.0
12:05:30,1,632,33 St,-73.982076,40.746081,312.0
12:05:30,1,633,28 St,-73.984264,40.74307,390.0
12:05:30,1,634,23 St,-73.986599,40.739864,470.0
12:00:30,1,635,14 St-Union Sq,-73.989951,40.734673,444.0
12:05:30,1,636,Astor Pl,-73.99107,40.730054,721.7999999999998
12:05:30,1,637,Bleecker St,-73.994659,40.725915,829.8
12:05:30,1,638,Spring St,-73.997141,40.722301,917.7571433067324
12:00:30,1,639,Canal St,-74.000193,40.718803,962.5000000000001
12:00:30,1,640,Brooklyn Bridge-City Hall,-74.004131,40.713065,781.5
12:00:30,1,701,Flushing-Main St,-73.83003,40.7596,2055.542858811787
12:00:30,1,702,Mets-Willets Point,-73.845625,40.754622,1845.542858811787
12:00:30,1,705,111 St,-73.855334,40.75173,1967.4000016689301
12:00:30,1,706,103 St-Corona Plaza,-73.8627,40.749865,1878.4000016689301
12:00:30,1,707,Junction Blvd,-73.869527,40.749145,1598.40000166893
12:00:30,1,708,90 St-Elmhurst Av,-73.876613,40.748408,1801.40000166893
12:10:30,3,709,82 St-Jackson Hts,-73.883697,40.747659,1750.772513628006
12:00:30,1,710,74 St-Broadway,-73.891394,40.746848,1572.9574484825134
12:00:30,3,711,69 St,-73.896403,40.746325,1493.2978751659393
12:00:30,1,712,61 St-Woodside,-73.902984,40.74563,1327.00000166893
12:00:30,1,713,52 St,-73.912549,40.744149,1163.1
12:00:30,1,714,46 St-Bliss St,-73.918435,40.743132,1099.1
12:00:30,1,715,40 St-Lowery St,-73.924016,40.743781,1032.1
12:00:30,1,716,33 St-Rawson St,-73.930997,40.744587,900.0999999999999
12:00:30,1,718,Queensboro Plaza,-73.940202,40.750582,732.0
12:00:30,1,719,Court Sq,-73.945264,40.747023,602.0
12:00:30,1,720,Hunters Point Av,-73.948916,40.742216,497.0
12:00:30,1,721,Vernon Blvd-Jackson Av,-73.953581,40.742626,431.8000000000002
12:00:30,1,723,Grand Central-42 St,-73.976041,40.751431,177.0
12:00:30,1,724,5 Av,-73.981963,40.753821,209.5
12:00:30,1,725,Times Sq-42 St,-73.987691,40.755477,60.0
12:00:30,1,726,34 St-Hudson Yards,-74.00191,40.755882,220.0
12:00:30,0,901,Grand Central-42 St,-73.979189,40.752769,117.0
12:00:30,0,902,Times Sq-42 St,-73.986229,40.755983,0.0
13:35:30,1,A02,Inwood-207 St,-73.919899,40.868072,2219.5
13:35:30,1,A03,Dyckman St,-73.927271,40.865491,2099.5
13:35:30,1,A05,190 St,-73.93418,40.859022,1934.5
13:35:30,1,A06,181 St,-73.937969,40.851695,1809.5
13:35:30,1,A07,175 St,-73.939704,40.847391,1689.5
13:35:30,1,A09,168 St,-73.939561,40.840719,1517.6999999999998
12:00:30,1,A10,163 St-Amsterdam Av,-73.939892,40.836013,1599.7578962802886
12:00:30,1,A11,155 St,-73.941514,40.830518,1449.131957435608
13:35:30,1,A12,145 St,-73.944216,40.824783,1212.7
13:40:30,1,A14,135 St,-73.947649,40.817894,1137.0
13:35:30,1,A15,125 St,-73.952343,40.811109,967.0
12:05:30,1,A16,116 St,-73.954882,40.805085,1132.1578962802887
12:05:30,1,A17,Cathedral Pkwy (110 St),-73.958161,40.800603,1116.4999999999995
12:05:30,1,A18,103 St,-73.961454,40.796092,1005.4999999999995
12:05:30,1,A19,96 St,-73.964696,40.791642,887.4999999999995
12:05:30,1,A20,86 St,-73.968916,40.785868,745.0000000000001
12:05:30,1,A21,81 St-Museum of Natural History,-73.972143,40.781433,625.0000000000001
12:05:30,1,A22,72 St,-73.97641,40.775594,494.5
13:35:30,1,A24,59 St-Columbus Circle,-73.981736,40.768296,247.00000000000003
12:05:30,1,A25,50 St,-73.985984,40.762456,182.0
13:40:30,1,A27,42 St-Port Authority Bus Terminal,-73.989735,40.757308,60.0
12:00:30,1,A28,34 St-Penn Station,-73.993391,40.752287,185.0
12:00:30,1,A30,23 St,-73.998041,40.745906,305.00000000000006
12:00:30,1,A31,14 St,-74.00169,40.740893,371.0
12:00:30,1,A32,W 4 St-Wash Sq,-74.000495,40.732338,542.0
12:00:30,1,A33,Spring St,-74.003739,40.726227,695.0
12:00:30,1,A34,Canal St,-74.005229,40.720824,782.0
12:00:30,1,A36,Chambers St,-74.008585,40.714111,944.3
12:00:30,1,A38,Fulton St,-74.007691,40.710197,1064.3
12:00:30,1,A40,High St,-73.990531,40.699337,1299.3000000000002
12:00:30,1,A41,Jay St-MetroTech,-73.987342,40.692338,1475.0
12:00:30,1,A42,Hoyt-Schermerhorn Sts,-73.985001,40.688484,1616.3000000000002
12:00:30,1,A43,Lafayette Av,-73.973946,40.686113,1809.7894749641416
12:00:30,1,A44,Clinton-Washington Avs,-73.965838,40.683263,1924.7894749641418
12:00:30,1,A45,Franklin Av,-73.956848,40.68138,2044.7894749641418
13:25:30,1,A46,Nostrand Av,-73.950426,40.680438,2031.3000000000002
12:00:30,1,A47,Kingston-Throop Avs,-73.940858,40.679921,2152.4
13:25:30,1,A48,Utica Av,-73.930729,40.679364,2229.5000000000005
12:00:30,1,A49,Ralph Av,-73.920786,40.678822,2352.5
12:00:30,1,A50,Rockaway Av,-73.911946,40.67834,2454.8794270515446
13:25:30,1,A51,Broadway Junction,-73.905316,40.678334,2336.8794270515446
13:25:30,1,A52,Liberty Av,-73.896548,40.674542,2511.879427051544
13:25:30,1,A53,Van Siclen Av,-73.890358,40.67271,2631.879427051544
13:25:30,1,A54,Shepherd Av,-73.88075,40.67413,2751.879427051544
13:25:30,1,A55,Euclid Av,-73.872106,40.675377,2756.8794270515446
13:25:30,1,A57,Grant Av,-73.86505,40.677044,2921.8794270515446
13:25:30,1,A59,80 St,-73.858992,40.679371,3043.879427051544
13:25:30,1,A60,88 St,-73.85147,40.679843,3164.879427051544
13:25:30,1,A61,Rockaway Blvd,-73.843853,40.680429,3284.879427051544
12:20:30,1,A63,104 St,-73.837683,40.681711,3404.879427051544
12:40:30,1,A64,111 St,-73.832163,40.684331,3524.879427051544
12:40:30,1,A65,Ozone Park-Lefferts Blvd,-73.825798,40.685951,3656.8794270515446
12:35:30,1,B04,21 St-Queensbridge,-73.942836,40.754203,954.5
12:35:30,1,B06,Roosevelt Island,-73.95326,40.759145,848.4925898551941
12:15:30,1,B08,Lexington Av/63 St,-73.966113,40.764629,555.9000000000001
12:10:30,2,B10,57 St,-73.97745,40.763972,614.5
12:00:30,1,B12,9 Av,-73.994324,40.646292,2603.939623451233
12:00:30,1,B13,Fort Hamilton Pkwy,-73.994304,40.640914,2723.939623451233
12:00:30,1,B14,50 St,-73.994791,40.63626,2835.939623451233
12:00:30,1,B15,55 St,-73.995476,40.631435,2962.939623451233
12:00:30,1,B16,62 St,-73.996895,40.626472,3067.939623451233
12:00:30,1,B17,71 St,-73.998864,40.619589,3187.939623451233
12:00:30,1,B18,79 St,-74.00061,40.613501,3310.939623451233
12:00:30,1,B19,18 Av,-74.001736,40.607954,3425.9396234512324
12:00:30,1,B20,20 Av,-73.998168,40.604556,3540.9396234512324
12:00:30,1,B21,Bay Pkwy,-73.993728,40.601875,3650.9396234512324
13:40:30,1,B22,25 Av,-73.986829,40.597704,3808.9396234512324
13:40:30,1,B23,Bay 50 St,-73.983765,40.588841,3995.0000000000005
12:10:30,2,D01,Norwood-205 St,-73.878855,40.874811,2765.3157925605774
12:10:30,2,D03,Bedford Park Blvd,-73.887138,40.873244,2537.315792560578
12:10:30,2,D04,Kingsbridge Rd,-73.893509,40.866978,2397.3157925605774
12:10:30,2,D05,Fordham Rd,-73.897749,40.861296,2277.3157925605774
12:10:30,2,D06,182-183 Sts,-73.900741,40.856093,2205.3157925605774
12:10:30,2,D07,Tremont Av,-73.905227,40.85041,2092.3157925605774
12:10:30,2,D08,174-175 Sts,-73.910136,40.8459,2076.5659787178042
12:10:30,2,D09,170 St,-73.9134,40.839306,1955.1659787178041
12:10:30,2,D10,167 St,-73.91844,40.833771,1830.3157925605774
13:25:30,1,D11,161 St-Yankee Stadium,-73.925651,40.827905,1652.3157925605774
13:25:30,1,D12,155 St,-73.938209,40.830135,1485.3157925605774
13:25:30,1,D13,145 St,-73.944216,40.824783,1307.3157925605774
12:05:30,1,D14,7 Av,-73.981637,40.762862,302.0
12:05:30,2,D15,47-50 Sts-Rockefeller Ctr,-73.981329,40.758663,524.5
12:35:30,2,D16,42 St-Bryant Pk,-73.984569,40.754222,434.5
12:00:30,2,D17,34 St-Herald Sq,-73.987823,40.749719,395.50561785697937
13:55:30,2,D18,23 St,-73.992821,40.742878,525.0
13:55:30,2,D19,14 St,-73.996209,40.738228,630.0
12:35:30,2,D20,W 4 St-Wash Sq,-74.000495,40.732338,629.8979604244232
12:35:30,2,D21,Broadway-Lafayette St,-73.996204,40.725297,808.8979604244231
12:35:30,2,D22,Grand St,-73.993753,40.718267,983.8979604244232
13:55:30,1,D24,Atlantic Av-Barclays Ctr,-73.97689,40.68446,1614.7999999999997
13:55:30,1,D25,7 Av,-73.972367,40.67705,1787.7999999999997
13:55:30,1,D26,Prospect Park,-73.962246,40.661614,2035.8
13:55:30,1,D27,Parkside Av,-73.961495,40.655292,2155.8
13:55:30,1,D28,Church Av,-73.962982,40.650527,2317.8
13:55:30,1,D29,Beverley Rd,-73.964492,40.644031,2422.8
13:55:30,1,D30,Cortelyou Rd,-73.963891,40.640927,2537.8
13:55:30,1,D31,Newkirk Plaza,-73.962793,40.635082,2581.4904776096346
13:55:30,1,D32,Avenue H,-73.961639,40.62927,2735.8104784965512
13:55:30,1,D33,Avenue J,-73.960803,40.625039,2856.8104784965512
13:55:30,1,D34,Avenue M,-73.959399,40.617618,2984.8104784965512
12:25:30,1,D35,Kings Hwy,-73.957734,40.60867,2924.9904776096346
13:55:30,1,D37,Avenue U,-73.955929,40.5993,3170.0007896900174
13:55:30,1,D38,Neck Rd,-73.955161,40.595246,3325.2007896900177
12:25:30,1,D39,Sheepshead Bay,-73.954155,40.586896,3238.4904776096346
13:55:30,1,D40,Brighton Beach,-73.961376,40.577621,3418.4904776096346
13:55:30,1,D41,Ocean Pkwy,-73.968501,40.576312,3598.590477609635
13:55:30,1,D42,W 8 St-NY Aquarium,-73.975939,40.576127,3518.4
13:55:30,1,D43,Coney Island-Stillwell Av,-73.981233,40.577422,3652.9
12:20:30,1,E01,World Trade Center,-74.009781,40.712582,1030.9672107696535
13:55:30,1,F01,Jamaica-179 St,-73.783817,40.712646,2532.0
12:35:30,1,F02,169 St,-73.793604,40.71047,2442.0
12:10:30,2,F03,Parsons Blvd,-73.803326,40.707564,2322.0
12:10:30,2,F04,Sutphin Blvd,-73.810708,40.70546,2232.0
12:10:30,2,F05,Briarwood,-73.820574,40.709179,2112.0
12:10:30,2,F06,Kew Gardens-Union Tpke,-73.831008,40.714441,1992.0000000000002
12:10:30,2,F07,75 Av,-73.837324,40.718331,1902.0
12:10:30,2,F09,Court Sq-23 St,-73.946,40.747846,722.0
12:05:30,1,F11,Lexington Av/53 St,-73.969055,40.757552,552.0
12:30:30,2,F12,5 Av/53 St,-73.975224,40.760167,431.99999999999994
12:35:30,2,F14,2 Av,-73.989938,40.723402,1005.0
12:35:30,2,F15,Delancey St-Essex St,-73.988114,40.718611,1125.0
12:35:30,2,F16,East Broadway,-73.990173,40.713715,1215.0
12:35:30,2,F18,York St,-73.986751,40.701397,1395.0
13:55:30,1,F20,Bergen St,-73.990862,40.686145,1800.0
13:55:30,1,F21,Carroll St,-73.995048,40.680303,1929.9999999999998
13:55:30,1,F22,Smith-9 Sts,-73.995959,40.67358,2115.0
13:55:30,1,F23,4 Av-9 St,-73.989779,40.670272,2078.1651389598846
13:55:30,1,F24,7 Av,-73.980305,40.666271,1905.0
13:55:30,1,F25,15 St-Prospect Park,-73.979493,40.660365,2078.1651389598846
13:55:30,1,F26,Fort Hamilton Pkwy,-73.975776,40.650782,2318.1651389598846
13:55:30,1,F27,Church Av,-73.979678,40.644041,2145.0
13:55:30,1,F29,Ditmas Av,-73.978172,40.636119,2265.0
13:55:30,1,F30,18 Av,-73.976971,40.629755,2385.0
13:55:30,1,F31,Avenue I,-73.976127,40.625322,2445.0
13:55:30,1,F32,Bay Pkwy,-73.975264,40.620769,2505.0
13:55:30,1,F33,Avenue N,-73.974197,40.61514,2625.0
13:55:30,1,F34,Avenue P,-73.973022,40.608944,2715.0
13:55:30,1,F35,Kings Hwy,-73.972361,40.603217,3000.0
13:25:30,1,F36,Avenue U,-73.973357,40.596063,3120.9
12:35:30,1,F38,Avenue X,-73.97425,40.58962,3240.9
12:35:30,1,F39,Neptune Av,-73.974574,40.581011,3393.4
12:10:30,2,G05,Jamaica Center-Parsons/Archer,-73.801109,40.702147,2700.0
12:10:30,2,G06,Sutphin Blvd-Archer Av-JFK Airport,-73.807969,40.700486,2570.0
12:10:30,2,G07,Jamaica-Van Wyck,-73.816859,40.702566,2394.0000000000005
12:10:30,2,G08,Forest Hills-71 Av,-73.844521,40.721691,1782.0
12:10:30,2,G09,67 Av,-73.852719,40.726523,1962.0000000000002
12:10:30,2,G10,63 Dr-Rego Park,-73.861604,40.729846,1922.0126236061433
12:10:30,2,G11,Woodhaven Blvd,-73.869229,40.733106,1832.0126236061435
12:10:30,2,G12,Grand Av-Newtown,-73.877223,40.737015,1712.0126236061435
12:10:30,2,G13,Elmhurst Av,-73.882017,40.742454,1622.0126236061435
12:10:30,2,G14,Jackson Hts-Roosevelt Av,-73.891338,40.746644,1362.0
12:10:30,2,G15,65 St,-73.898453,40.749669,1412.0126236061435
12:00:30,2,G16,Northern Blvd,-73.906006,40.752885,1311.24012428197
12:00:30,2,G18,46 St,-73.913333,40.756312,1221.24012428197
12:00:30,2,G19,Steinway St,-73.92074,40.756879,1101.24012428197
12:00:30,2,G20,36 St,-73.928781,40.752039,981.2401242819701
12:10:30,2,G21,Queens Plaza,-73.937243,40.748973,845.3673469387754
12:20:30,2,G22,Court Sq,-73.943832,40.746554,662.0
12:00:30,2,G24,21 St,-73.949724,40.744065,782.0
12:00:30,2,G26,Greenpoint Av,-73.954449,40.731352,957.0
12:15:30,3,G28,Nassau Av,-73.951277,40.724635,1082.0
12:00:30,2,G29,Metropolitan Av,-73.951418,40.712792,1266.9999999999998
12:05:30,3,G30,Broadway,-73.950308,40.706092,1384.9999999999998
12:05:30,3,G31,Flushing Av,-73.950234,40.700377,1504.9999999999998
12:05:30,3,G32,Myrtle-Willoughby Avs,-73.949046,40.694568,1621.9999999999998
12:00:30,1,G33,Bedford-Nostrand Avs,-73.953522,40.689627,1741.9999999999998
12:00:30,1,G34,Classon Av,-73.96007,40.688873,1856.9999999999998
12:00:30,1,G35,Clinton-Washington Avs,-73.966839,40.688089,1969.9999999999998
12:00:30,1,G36,Fulton St,-73.975375,40.687119,1968.6913037776949
12:30:30,1,H01,Aqueduct Racetrack,-73.834058,40.668234,3526.879427051544
13:25:30,1,H02,Aqueduct-N Conduit Av,-73.834058,40.668234,3588.700169801712
13:25:30,1,H03,Howard Beach-JFK Airport,-73.830301,40.660476,3764.700169801712
13:25:30,1,H04,Broad Channel,-73.815925,40.608382,4317.779427051544
13:25:30,1,H06,Beach 67 St,-73.796924,40.590927,4759.379427051544
13:25:30,1,H07,Beach 60 St,-73.788522,40.592374,4889.379427051545
13:25:30,1,H08,Beach 44 St,-73.776013,40.592943,5016.379427051544
13:25:30,1,H09,Beach 36 St,-73.768175,40.595398,5139.379427051544
13:25:30,1,H10,Beach 25 St,-73.761353,40.600066,5259.379427051544
13:25:30,1,H11,Far Rockaway-Mott Av,-73.755405,40.603995,5379.379427051544
13:55:30,1,H12,Beach 90 St,-73.813641,40.588034,4664.579427051544
13:55:30,1,H13,Beach 98 St,-73.820558,40.585307,4787.5794270515435
13:55:30,1,H14,Beach 105 St,-73.827559,40.583209,4902.579427051544
13:55:30,1,H15,Rockaway Park-Beach 116 St,-73.835592,40.580903,5025.579427051544
12:10:30,1,J12,121 St,-73.828294,40.700492,3007.8
12:10:30,1,J13,111 St,-73.836345,40.697418,3120.0
12:10:30,1,J14,104 St,-73.84433,40.695178,3146.8794270515446
12:10:30,1,J15,Woodhaven Blvd,-73.851576,40.693879,3056.8794270515446
12:00:30,3,J16,85 St-Forest Pkwy,-73.86001,40.692435,3256.8794270515446
12:00:30,3,J17,75 St-Elderts Ln,-73.867139,40.691324,2876.8794270515446
12:00:30,3,J19,Cypress Hills,-73.87255,40.689941,3121.7127595901493
12:00:30,3,J20,Crescent St,-73.873785,40.683194,2726.8794270515446
12:00:30,3,J21,Norwood Av,-73.880039,40.68141,2636.8794270515446
12:00:30,3,J22,Cleveland St,-73.884639,40.679947,2704.755215024948
12:00:30,3,J23,Van Siclen Av,-73.891688,40.678024,2486.8794270515446
12:00:30,3,J24,Alabama Av,-73.898654,40.676992,2426.8794270515446
12:55:30,2,J27,Broadway Junction,-73.904512,40.679498,2323.561039781571
12:55:30,2,J28,Chauncey St,-73.910456,40.682893,2326.5
12:55:30,2,J29,Halsey St,-73.916559,40.68637,2377.9411745071407
12:55:30,2,J30,Gates Av,-73.92227,40.68963,2176.5
12:55:30,2,J31,Kosciuszko St,-73.928814,40.693342,2180.7211530208588
12:00:30,2,L01,8 Av,-74.002578,40.739777,431.0
12:00:30,2,L02,6 Av,-73.996786,40.737335,606.5
12:00:30,2,L03,14 St-Union Sq,-73.99073,40.734789,617.5610397815703
12:00:30,2,L05,3 Av,-73.986122,40.732849,703.2304347515105
12:00:30,2,L06,1 Av,-73.981628,40.730953,762.2304347515104
12:00:30,2,L08,Bedford Av,-73.956872,40.717304,973.2304347515104
12:00:30,2,L10,Lorimer St,-73.950275,40.714063,1059.2304347515103
12:00:30,2,L11,Graham Av,-73.944053,40.714565,1115.0304347515107
12:00:30,2,L12,Grand St,-73.94067,40.711926,1215.0304347515107
12:00:30,2,L13,Montrose Av,-73.93985,40.707739,1263.0304347515107
12:00:30,2,L14,Morgan Av,-73.933147,40.706152,1355.0304347515107
12:00:30,2,L15,Jefferson St,-73.922913,40.706607,1471.0304347515107
12:00:30,2,L16,DeKalb Av,-73.918425,40.703811,1545.030434751511
12:00:30,2,L17,Myrtle-Wyckoff Avs,-73.911586,40.699814,1679.4610397815704
12:00:30,2,L19,Halsey St,-73.904084,40.695602,1754.4610397815704
12:00:30,2,L20,Wilson Av,-73.904046,40.688764,1890.4610397815704
12:00:30,2,L21,Bushwick Av-Aberdeen St,-73.905249,40.682829,2004.4610397815704
12:00:30,2,L22,Broadway Junction,-73.90324,40.678856,2098.561039781571
12:00:30,2,L24,Atlantic Av,-73.903097,40.675345,2276.561039781571
12:00:30,2,L25,Sutter Av,-73.901975,40.669367,2375.561039781571
12:00:30,2,L26,Livonia Av,-73.900571,40.664038,2458.561039781571
12:00:30,2,L27,New Lots Av,-73.899232,40.658733,2535.3610397815705
12:00:30,2,L28,East 105 St,-73.899485,40.650573,2689.361039781571
13:55:30,2,L29,Canarsie-Rockaway Pkwy,-73.90185,40.646654,2914.730434751511
12:00:30,3,M01,Middle Village-Metropolitan Av,-73.889601,40.711396,2388.861039781571
12:00:30,3,M04,Fresh Pond Rd,-73.895877,40.706186,2256.861039781571
12:00:30,3,M05,Forest Av,-73.903077,40.704423,2145.8610397815705
12:00:30,3,M06,Seneca Av,-73.90774,40.702762,2025.8610397815708
13:15:30,2,M08,Myrtle-Wyckoff Avs,-73.912385,40.69943,1904.4610397815704
13:15:30,2,M09,Knickerbocker Av,-73.919711,40.698664,2024.4610397815702
13:15:30,2,M10,Central Av,-73.927397,40.697857,2162.46103978157
13:15:30,2,M11,Myrtle Av,-73.935657,40.697207,1996.5
13:15:30,2,M12,Flushing Av,-73.941126,40.70026,1976.939394950867
13:15:30,2,M13,Lorimer St,-73.947408,40.703869,1852.9393949508667
13:15:30,2,M14,Hewes St,-73.953431,40.70687,1732.9393949508667
13:15:30,2,M16,Marcy Av,-73.957757,40.708359,1621.9393949508667
13:15:30,2,M18,Delancey St-Essex St,-73.987437,40.718315,1201.9393949508667
12:05:30,2,M19,Bowery,-73.993915,40.72028,1101.7211530208588
12:05:30,2,M20,Canal St,-73.999892,40.718092,981.7211530208589
12:35:30,2,M21,Chambers St,-74.003401,40.713243,901.5
12:05:30,2,M22,Fulton St,-74.007582,40.710374,1021.4999999999999
12:05:30,2,M23,Broad St,-74.011056,40.706476,1089.5
12:00:30,1,N02,8 Av,-74.011719,40.635064,2804.6
12:00:30,1,N03,Fort Hamilton Pkwy,-74.005351,40.631386,2931.2999999999997
12:00:30,1,N04,New Utrecht Av,-73.996353,40.624842,3058.2999999999997
12:00:30,1,N05,18 Av,-73.990414,40.620671,3178.2999999999997
12:00:30,1,N06,20 Av,-73.985026,40.61741,3296.3
12:00:30,1,N07,Bay Pkwy,-73.981848,40.611815,3416.3
12:00:30,1,N08,Kings Hwy,-73.980353,40.603923,3546.2999999999997
12:00:30,1,N09,Avenue U,-73.979137,40.597473,3679.2999999999997
12:00:30,1,N10,86 St,-73.97823,40.592721,3904.4
12:35:30,1,Q01,Canal St,-74.00046,40.718383,756.0
12:15:30,1,Q03,72 St,-73.958424,40.768799,696.8
12:15:30,1,Q04,86 St,-73.951787,40.777891,875.9000000000002
12:15:30,1,Q05,96 St,-73.947152,40.784318,995.9000000000002
12:05:30,2,R01,Astoria-Ditmars Blvd,-73.912034,40.775036,1607.8000016689302
12:05:30,2,R03,Astoria Blvd,-73.917843,40.770258,1492.80000166893
12:05:30,2,R04,30 Av,-73.921479,40.766779,1368.8000016689302
12:05:30,2,R05,Broadway,-73.925508,40.76182,1248.8000016689302
12:05:30,2,R06,36 Av,-73.929575,40.756804,1118.80000166893
12:05:30,2,R08,39 Av-Dutch Kills,-73.932755,40.752882,974.00000166893
12:05:30,2,R09,Queensboro Plaza,-73.940202,40.750582,779.00000166893
12:15:30,1,R11,Lexington Av/59 St,-73.967258,40.76266,556.9090898036957
12:10:30,2,R13,5 Av/59 St,-73.973347,40.764811,500.00000000000006
12:15:30,1,R14,57 St-7 Av,-73.980658,40.764664,319.4000000000001
12:45:30,1,R15,49 St,-73.984139,40.759901,180.0
12:35:30,1,R16,Times Sq-42 St,-73.986754,40.754672,60.0
12:35:30,1,R17,34 St-Herald Sq,-73.98795,40.749567,180.0
12:05:30,1,R18,28 St,-73.988691,40.745494,294.0
12:05:30,1,R19,23 St,-73.989344,40.741303,409.00000000000006
12:35:30,1,R20,14 St-Union Sq,-73.990568,40.735736,403.5999999999999
12:35:30,1,R21,8 St-NYU,-73.992629,40.730328,654.0
12:35:30,1,R22,Prince St,-73.997702,40.724329,804.0
12:35:30,1,R23,Canal St,-74.001775,40.719527,944.0
12:35:30,1,R24,City Hall,-74.006978,40.713282,1131.0
12:35:30,1,R25,Cortlandt St,-74.011029,40.710668,1090.9672107696535
12:35:30,1,R26,Rector St,-74.013342,40.70722,1240.9672107696535
12:35:30,1,R27,Whitehall St-South Ferry,-74.012994,40.703087,1360.9672107696535
12:35:30,1,R28,Court St,-73.991777,40.6941,1590.5000000000002
12:35:30,1,R29,Jay St-MetroTech,-73.985942,40.69218,1610.0
13:55:30,1,R30,DeKalb Av,-73.981824,40.690635,1430.7999999999997
13:55:30,1,R31,Atlantic Av-Barclays Ctr,-73.97881,40.683666,1591.0
13:55:30,1,R32,Union St,-73.98311,40.677316,1768.4999999999998
13:55:30,1,R33,4 Av-9 St,-73.988302,40.670847,1902.8
13:55:30,1,R34,Prospect Av,-73.992872,40.665414,2032.7999999999997
13:55:30,1,R35,25 St,-73.998091,40.660397,2207.7999999999997
12:00:30,1,R36,36 St,-74.003549,40.655144,2164.6
13:55:30,1,R39,45 St,-74.010006,40.648939,2336.2999999999997
13:55:30,1,R40,53 St,-74.014034,40.645069,2456.2999999999997
12:00:30,1,R41,59 St,-74.017881,40.641362,2581.2999999999997
13:55:30,1,R42,Bay Ridge Av,-74.023377,40.634967,2761.840540218353
13:55:30,1,R43,77 St,-74.02551,40.629742,2876.840540218353
13:55:30,1,R44,86 St,-74.028398,40.622687,3095.605553436279
13:55:30,1,R45,Bay Ridge-95 St,-74.030876,40.616622,3215.605553436279
12:00:30,2,S01,Franklin Av,-73.955827,40.680596,2104.789474964142
12:00:30,2,S03,Park Pl,-73.957624,40.674772,2239.189474964142
12:15:30,1,S04,Botanic Garden,-73.959245,40.670343,2182.5
