start_time,ntransfers,stop_id,stop_name,stop_lon,stop_lat,duration
12:19:30,1,101,Van Cortlandt Park-242 St,-73.898583,40.889248,2565.2985131263736
12:19:30,1,103,238 St,-73.90087,40.884667,2399.2985131263736
12:19:30,1,104,231 St,-73.904834,40.878856,2273.104923772812
12:19:30,1,106,Marble Hill-225 St,-73.909831,40.874561,2163.104923772812
12:19:30,1,107,215 St,-73.915279,40.869444,2009.8985131263735
12:19:30,1,108,207 St,-73.918822,40.864621,1917.1049237728118
12:19:30,1,109,Dyckman St,-73.925536,40.860531,1796.1049237728118
12:19:30,1,110,191 St,-73.929412,40.855225,1689.1049237728118
12:19:30,1,111,181 St,-73.933596,40.849505,1578.1049237728116
12:29:30,1,112,168 St-Washington Hts,-73.940133,40.840556,1443.1049237728116
12:29:30,1,113,157 St,-73.94489,40.834041,1555.1049237728118
12:29:30,1,114,145 St,-73.95036,40.826551,1477.311340427399
12:29:30,1,115,137 St-City College,-73.953676,40.822008,1363.311340427399
13:10:00,1,116,125 St,-73.958372,40.815581,1229.5000000000002
13:10:00,1,117,116 St-Columbia University,-73.96411,40.807722,1065.5000000000002
13:10:00,1,118,Cathedral Pkwy (110 St),-73.966847,40.803967,984.5000000000001
13:10:00,1,119,103 St,-73.968379,40.799446,892.5
12:30:00,1,120,96 St,-73.972323,40.793919,695.1092476844788
12:09:00,1,121,86 St,-73.976218,40.788644,629.5
12:09:00,1,122,79 St,-73.979917,40.783934,533.5
12:09:00,1,123,72 St,-73.98197,40.778453,426.5
12:09:00,1,124,66 St-Lincoln Center,-73.982209,40.77344,319.0
13:48:30,1,125,59 St-Columbus Circle,-73.981929,40.768247,225.0
13:48:30,1,126,50 St,-73.983849,40.761728,338.7113404273987
13:55:30,1,127,Times Sq-42 St,-73.987495,40.75529,307.0
12:50:00,1,128,34 St-Penn Station,-73.991057,40.750373,436.00000000000006
12:10:30,1,129,28 St,-73.993365,40.747215,534.0
12:10:30,1,130,23 St,-73.995657,40.744081,613.0
12:10:30,1,131,18 St,-73.997871,40.74104,690.0
12:50:00,1,132,14 St,-74.000201,40.737826,628.5000000000001
13:53:30,1,133,Christopher St-Sheridan Sq,-74.002906,40.733422,887.0
13:53:30,1,134,Houston St,-74.005367,40.728251,991.9999999999999
13:53:30,1,135,Canal St,-74.006277,40.722854,1100.0
13:32:30,1,136,Franklin St,-74.006886,40.719318,1175.0
12:50:00,1,137,Chambers St,-74.009266,40.715478,924.5000000000001
13:32:30,1,138,WTC Cortlandt,-74.012188,40.711835,1222.7540986537936
13:32:30,1,139,Rector St,-74.013783,40.707513,1324.7540986537936
13:32:30,1,142,South Ferry,-74.013664,40.702068,1467.7540986537933
12:50:00,1,201,Wakefield-241 St,-73.85062,40.903125,4041.5610666275024
12:50:00,1,204,Nereid Av,-73.854376,40.898379,3780.918914794922
12:50:00,1,205,233 St,-73.857473,40.893193,3623.318914794922
12:50:00,1,206,225 St,-73.860341,40.888022,3523.3189147949224
12:50:00,1,207,219 St,-73.862633,40.883895,3438.118914794922
12:50:00,1,208,Gun Hill Rd,-73.866256,40.87785,3322.818914794922
12:50:00,1,209,Burke Av,-73.867164,40.871356,3333.5610666275034
12:50:00,1,210,Allerton Av,-73.867352,40.865462,3230.561066627503
12:50:00,1,211,Pelham Pkwy,-73.867615,40.857192,3105.561066627503
12:50:00,1,212,Bronx Park East,-73.868457,40.848828,2966.561066627503
12:50:00,1,213,E 180 St,-73.873488,40.841894,2471.5
12:50:00,1,214,West Farms Sq-E Tremont Av,-73.880049,40.840295,2774.1092476844783
12:50:00,1,215,174 St,-73.887734,40.837288,2626.1092476844783
12:50:00,1,216,Freeman St,-73.891865,40.829993,2480.1092476844783
12:50:00,1,217,Simpson St,-73.893064,40.824073,2350.1092476844788
12:50:00,1,218,Intervale Av,-73.896736,40.822181,2265.1092476844788
12:50:00,1,219,Prospect Av,-73.90177,40.819585,2166.1092476844788
12:50:00,1,220,Jackson Av,-73.907807,40.81649,2048.1092476844788
12:11:30,2,221,3 Av-149 St,-73.917757,40.816109,1745.5
12:50:00,1,222,149 St-Grand Concourse,-73.926718,40.81841,1625.5
12:30:00,1,224,135 St,-73.94077,40.814229,1322.5092476844789
12:30:00,1,225,125 St,-73.945495,40.807754,1185.5092476844789
12:30:00,1,226,116 St,-73.949625,40.802098,1069.5092476844789
12:30:00,1,227,Central Park North (110 St),-73.951822,40.799075,988.1092476844786
12:50:00,1,228,Park Place,-74.008811,40.713051,1028.5000000000002
12:30:00,1,229,Fulton St,-74.006571,40.709416,1167.5000000000002
12:30:00,1,230,Wall St,-74.0091,40.706821,1256.5000000000002
12:30:00,1,231,Clark St,-73.993086,40.697466,1465.5000000000002
12:30:00,1,232,Borough Hall,-73.989998,40.693219,1597.5000000000002
12:30:00,1,233,Hoyt St,-73.985065,40.690545,1705.4000000000003
12:00:30,1,234,Nevins St,-73.980492,40.688246,1823.4000000000003
12:30:00,1,235,Atlantic Av-Barclays Ctr,-73.977666,40.684359,1923.4000000000003
12:00:30,1,236,Bergen St,-73.975098,40.680829,2024.4
12:00:30,1,237,Grand Army Plaza,-73.971046,40.675235,2155.4
12:00:30,1,238,Eastern Pkwy-Brooklyn Museum,-73.964375,40.671987,2275.4
12:00:30,1,239,Franklin Av-Medgar Evers College,-73.958131,40.670682,2264.5
12:00:30,1,241,President St-Medgar Evers College,-73.950683,40.667883,2440.0
12:00:30,1,242,Sterling St,-73.95085,40.662742,2531.5
12:00:30,1,243,Winthrop St,-73.9502,40.656652,2644.0
12:00:30,1,244,Church Av,-73.949575,40.650843,2740.0
12:00:30,1,245,Beverly Rd,-73.948959,40.645098,2849.5
12:00:30,1,246,Newkirk Av-Little Haiti,-73.948411,40.639967,2927.5
12:00:30,1,247,Flatbush Av-Brooklyn College,-73.947642,40.632836,3065.4999999999995
12:00:30,1,248,Nostrand Av,-73.950466,40.669847,2500.121951103211
12:00:30,1,249,Kingston Av,-73.942161,40.669399,2618.9219511032106
13:55:30,1,250,Crown Hts-Utica Av,-73.932942,40.668897,2685.3219511032107
12:00:30,1,251,Sutter Av-Rutland Rd,-73.92261,40.664717,2856.221951103211
12:00:30,1,252,Saratoga Av,-73.916327,40.661453,2982.5219511032105
12:00:30,1,253,Rockaway Av,-73.908946,40.662549,3077.8219511032107
12:00:30,1,254,Junius St,-73.902447,40.663515,3035.5610397815703
12:00:30,1,255,Pennsylvania Av,-73.894895,40.664635,3148.26103978157
12:00:30,1,256,Van Siclen Av,-73.889395,40.665449,3232.26103978157
12:00:30,1,257,New Lots Av,-73.884079,40.666235,3378.7610397815706
12:30:00,1,301,Harlem-148 St,-73.93647,40.82388,1711.8092476844786
12:30:00,1,302,145 St,-73.936245,40.820421,1544.8092476844786
12:31:30,1,401,Woodlawn,-73.878751,40.886037,2808.0394706726065
12:31:30,1,402,Mosholu Pkwy,-73.884655,40.87975,2632.039470672607
12:31:30,1,405,Bedford Park Blvd-Lehman College,-73.890064,40.873412,2486.039470672607
12:31:30,1,406,Kingsbridge Rd,-73.897174,40.86776,2349.039470672607
12:31:30,1,407,Fordham Rd,-73.901034,40.862803,2244.039470672607
12:31:30,1,408,183 St,-73.903879,40.858407,2138.0394706726074
12:31:30,1,409,Burnside Av,-73.907684,40.853453,2023.0394706726074
12:31:30,1,410,176 St,-73.911794,40.84848,1915.0394706726074
12:31:30,1,411,Mt Eden Av,-73.914685,40.844434,1816.0394706726074
12:31:30,1,412,170 St,-73.917791,40.840075,1722.0394706726074
12:31:30,1,413,167 St,-73.9214,40.835537,1615.0394706726074
12:31:30,1,414,161 St-Yankee Stadium,-73.925831,40.827994,1484.0394706726074
12:11:30,1,415,149 St-Grand Concourse,-73.927351,40.818375,1753.6999999999998
12:11:30,1,416,138 St-Grand Concourse,-73.929849,40.813224,1420.0
12:00:30,2,418,Fulton St,-74.009509,40.710368,1208.5
13:32:30,1,419,Wall St,-74.011862,40.707557,1307.4999999999998
13:32:30,1,420,Bowling Green,-74.014065,40.704817,1397.4999999999998
13:32:30,1,423,Borough Hall,-73.990151,40.692404,1726.0
12:14:30,1,501,Eastchester-Dyre Av,-73.830834,40.8883,3221.5
12:14:30,1,502,Baychester Av,-73.838591,40.878663,3071.5
12:14:30,1,503,Gun Hill Rd,-73.846384,40.869526,2921.5
12:14:30,1,504,Pelham Pkwy,-73.855359,40.858985,2771.5
12:14:30,1,505,Morris Park,-73.860495,40.854364,2681.5
13:55:30,1,601,Pelham Bay Park,-73.828121,40.852462,3471.2619104385376
13:55:30,1,602,Buhre Av,-73.832569,40.84681,3251.561910438538
13:55:30,1,603,Middletown Rd,-73.836322,40.843863,3169.561910438538
13:55:30,1,604,Westchester Sq-E Tremont Av,-73.842952,40.839892,2981.342858505249
13:55:30,1,606,Zerega Av,-73.847036,40.836488,2863.342858505249
13:55:30,1,607,Castle Hill Av,-73.851222,40.834255,2781.4428585052488
13:55:30,1,608,Parkchester,-73.860816,40.833226,2454.642858505249
13:55:30,1,609,St Lawrence Av,-73.867618,40.831509,2732.1871706962584
13:55:30,1,610,Morrison Av-Soundview,-73.874516,40.829521,2599.1871706962584
13:55:30,1,611,Elder Av,-73.879159,40.828584,2510.1871706962584
13:55:30,1,612,Whitlock Av,-73.886283,40.826525,2373.1871706962584
13:55:30,1,613,Hunts Point Av,-73.890549,40.820948,2102.242858505249
12:10:30,1,614,Longwood Av,-73.896435,40.816104,2270.851553535462
12:10:30,1,615,E 149 St,-73.904098,40.812118,2142.851553535462
12:10:30,1,616,E 143 St-St Mary's St,-73.907657,40.808719,2052.851553535462
12:10:30,1,617,Cypress Av,-73.914042,40.805368,1933.8515535354616
12:10:30,1,618,Brook Av,-73.91924,40.807566,1854.8515535354613
13:55:30,1,619,3 Av-138 St,-73.926138,40.810476,1698.242858505249
13:55:30,1,621,125 St,-73.937594,40.804138,1226.5
12:14:30,1,622,116 St,-73.941617,40.798629,1515.684972524643
12:14:30,1,623,110 St,-73.94425,40.79502,1413.684972524643
12:14:30,1,624,103 St,-73.947478,40.7906,1325.684972524643
12:14:30,1,625,96 St,-73.95107,40.785672,1218.684972524643
12:14:30,1,626,86 St,-73.955589,40.779492,866.5
12:14:30,1,627,77 St,-73.959874,40.77362,991.9999999999999
12:14:30,1,628,68 St-Hunter College,-73.96387,40.768141,884.0
12:14:30,1,629,59 St,-73.967967,40.762526,634.0
12:14:30,1,630,51 St,-73.97192,40.757107,634.9999999999999
12:14:30,1,631,Grand Central-42 St,-73.976848,40.751776,484.0
12:14:30,1,632,33 St,-73.982076,40.746081,619.0
12:14:30,1,633,28 St,-73.984264,40.74307,697.0
12:14:30,1,634,23 St,-73.986599,40.739864,777.0000000000001
12:14:30,1,635,14 St-Union Sq,-73.989951,40.734673,751.0
13:55:30,1,636,Astor Pl,-73.99107,40.730054,968.7999999999998
13:25:00,1,637,Bleecker St,-73.994659,40.725915,1076.8
13:25:00,1,638,Spring St,-73.997141,40.722301,1164.7571433067326
13:25:00,1,639,Canal St,-74.000193,40.718803,1243.0
12:10:30,1,640,Brooklyn Bridge-City Hall,-74.004131,40.713065,1088.5
12:00:30,1,701,Flushing-Main St,-73.83003,40.7596,2362.542858811787
12:00:30,1,702,Mets-Willets Point,-73.845625,40.754622,2152.542858811787
12:00:30,1,705,111 St,-73.855334,40.75173,2274.4000016689297
12:00:30,1,706,103 St-Corona Plaza,-73.8627,40.749865,2185.4000016689297
12:00:30,1,707,Junction Blvd,-73.869527,40.749145,1905.40000166893
12:00:30,1,708,90 St-Elmhurst Av,-73.876613,40.748408,2053.072513628006
12:00:30,1,709,82 St-Jackson Hts,-73.883697,40.747659,1877.072513628006
12:00:30,1,710,74 St-Broadway,-73.891394,40.746848,1699.2574484825134
12:00:30,1,711,69 St,-73.896403,40.746325,1800.2978751659393
12:14:30,1,712,61 St-Woodside,-73.902984,40.74563,1634.00000166893
12:14:30,1,713,52 St,-73.912549,40.744149,1470.1
12:14:30,1,714,46 St-Bliss St,-73.918435,40.743132,1406.1
12:14:30,1,715,40 St-Lowery St,-73.924016,40.743781,1339.1
12:14:30,1,716,33 St-Rawson St,-73.930997,40.744587,1207.1
12:14:30,1,718,Queensboro Plaza,-73.940202,40.750582,1039.0
13:23:00,1,719,Court Sq,-73.945264,40.747023,909.0
13:23:00,1,720,Hunters Point Av,-73.948916,40.742216,804.0
13:23:00,1,721,Vernon Blvd-Jackson Av,-73.953581,40.742626,738.8000000000002
13:23:00,1,723,Grand Central-42 St,-73.976041,40.751431,484.0
13:23:00,1,724,5 Av,-73.981963,40.753821,456.50000000000006
12:00:30,1,725,Times Sq-42 St,-73.987691,40.755477,307.0
12:00:00,1,726,34 St-Hudson Yards,-74.00191,40.755882,467.0
13:23:00,1,901,Grand Central-42 St,-73.979189,40.752769,372.00000000000006
13:23:00,1,902,Times Sq-42 St,-73.986229,40.755983,247.00000000000003
13:47:30,0,A02,Inwood-207 St,-73.919899,40.868072,1919.415792560577
13:09:30,0,A03,Dyckman St,-73.927271,40.865491,1799.415792560577
13:09:30,0,A05,190 St,-73.93418,40.859022,1634.415792560577
13:09:30,0,A06,181 St,-73.937969,40.851695,1509.4157925605773
13:09:30,0,A07,175 St,-73.939704,40.847391,1389.4157925605773
12:09:30,0,A09,168 St,-73.939561,40.840719,1217.6157925605771
12:15:30,0,A10,163 St-Amsterdam Av,-73.939892,40.836013,1209.3578962802887
12:15:30,0,A11,155 St,-73.941514,40.830518,1058.731957435608
12:09:30,0,A12,145 St,-73.944216,40.824783,909.3578962802885
12:36:30,0,A14,135 St,-73.947649,40.817894,784.3578962802885
12:01:30,0,A15,125 St,-73.952343,40.811109,576.5999999999999
12:01:30,0,A16,116 St,-73.954882,40.805085,741.7578962802886
12:03:00,0,A17,Cathedral Pkwy (110 St),-73.958161,40.800603,710.1
12:03:00,0,A18,103 St,-73.961454,40.796092,604.9999999999999
12:03:00,0,A19,96 St,-73.964696,40.791642,484.99999999999994
12:03:00,0,A20,86 St,-73.968916,40.785868,365.0
12:03:00,0,A21,81 St-Museum of Natural History,-73.972143,40.781433,249.99999999999997
12:03:00,0,A22,72 St,-73.97641,40.775594,127.20000000000003
13:51:00,0,A24,59 St-Columbus Circle,-73.981736,40.768296,0.0
12:04:30,0,A25,50 St,-73.985984,40.762456,170.0
12:00:00,0,A27,42 St-Port Authority Bus Terminal,-73.989735,40.757308,187.0
12:00:00,0,A28,34 St-Penn Station,-73.993391,40.752287,315.0
12:40:00,0,A30,23 St,-73.998041,40.745906,552.0000000000001
12:00:00,0,A31,14 St,-74.00169,40.740893,498.00000000000006
12:00:00,0,A32,W 4 St-Wash Sq,-74.000495,40.732338,669.0
12:10:30,0,A33,Spring St,-74.003739,40.726227,872.6
12:00:00,0,A34,Canal St,-74.005229,40.720824,909.0
12:00:00,0,A36,Chambers St,-74.008585,40.714111,1071.3
12:00:00,0,A38,Fulton St,-74.007691,40.710197,1191.3
12:00:00,0,A40,High St,-73.990531,40.699337,1426.3000000000002
12:00:00,0,A41,Jay St-MetroTech,-73.987342,40.692338,1602.0
12:00:00,0,A42,Hoyt-Schermerhorn Sts,-73.985001,40.688484,1743.3000000000002
12:24:30,0,A43,Lafayette Av,-73.973946,40.686113,1936.7894749641416
12:24:30,0,A44,Clinton-Washington Avs,-73.965838,40.683263,2051.7894749641414
13:32:30,0,A45,Franklin Av,-73.956848,40.68138,2171.7894749641414
12:00:00,0,A46,Nostrand Av,-73.950426,40.680438,2158.3
12:24:30,0,A47,Kingston-Throop Avs,-73.940858,40.679921,2279.4
12:00:00,0,A48,Utica Av,-73.930729,40.679364,2356.5000000000005
12:24:30,0,A49,Ralph Av,-73.920786,40.678822,2479.5
12:40:00,0,A50,Rockaway Av,-73.911946,40.67834,2599.5
12:00:00,0,A51,Broadway Junction,-73.905316,40.678334,2583.879427051544
13:32:30,0,A52,Liberty Av,-73.896548,40.674542,2758.8794270515436
13:32:30,0,A53,Van Siclen Av,-73.890358,40.67271,2878.8794270515436
13:32:30,0,A54,Shepherd Av,-73.88075,40.67413,2998.8794270515436
12:00:00,0,A55,Euclid Av,-73.872106,40.675377,3003.879427051544
12:00:00,0,A57,Grant Av,-73.86505,40.677044,3168.879427051544
12:00:00,0,A59,80 St,-73.858992,40.679371,3290.879427051544
12:00:00,0,A60,88 St,-73.85147,40.679843,3411.8794270515436
12:00:00,0,A61,Rockaway Blvd,-73.843853,40.680429,3531.8794270515436
12:10:30,0,A63,104 St,-73.837683,40.681711,3651.8794270515436
12:50:00,0,A64,111 St,-73.832163,40.684331,3771.8794270515436
12:50:00,0,A65,Ozone Park-Lefferts Blvd,-73.825798,40.685951,3903.8794270515436
12:50:30,0,B04,21 St-Queensbridge,-73.942836,40.754203,1098.3
12:50:30,0,B06,Roosevelt Island,-73.95326,40.759145,978.3
12:50:30,0,B08,Lexington Av/63 St,-73.966113,40.764629,802.9000000000001
12:50:30,0,B10,57 St,-73.97745,40.763972,678.3000000000001
13:55:30,0,B12,9 Av,-73.994324,40.646292,2850.939623451233
13:55:30,0,B13,Fort Hamilton Pkwy,-73.994304,40.640914,2970.939623451233
13:55:30,0,B14,50 St,-73.994791,40.63626,3082.939623451233
13:55:30,0,B15,55 St,-73.995476,40.631435,3209.939623451233
13:55:30,0,B16,62 St,-73.996895,40.626472,3314.939623451233
13:55:30,0,B17,71 St,-73.998864,40.619589,3434.939623451233
13:55:30,0,B18,79 St,-74.00061,40.613501,3557.939623451233
13:55:30,0,B19,18 Av,-74.001736,40.607954,3672.939623451233
13:55:30,0,B20,20 Av,-73.998168,40.604556,3787.9396234512324
13:55:30,0,B21,Bay Pkwy,-73.993728,40.601875,3897.9396234512324
13:55:30,0,B22,25 Av,-73.986829,40.597704,4055.9396234512324
13:55:30,0,B23,Bay 50 St,-73.983765,40.588841,4154.0
12:01:30,0,D01,Norwood-205 St,-73.878855,40.874811,2284.5999999999995
12:01:30,0,D03,Bedford Park Blvd,-73.887138,40.873244,2056.6
12:01:30,0,D04,Kingsbridge Rd,-73.893509,40.866978,1916.6
12:01:30,0,D05,Fordham Rd,-73.897749,40.861296,1796.6
12:01:30,0,D06,182-183 Sts,-73.900741,40.856093,1724.6
12:01:30,0,D07,Tremont Av,-73.905227,40.85041,1611.6
12:01:30,0,D08,174-175 Sts,-73.910136,40.8459,1620.7
12:01:30,0,D09,170 St,-73.9134,40.839306,1492.5
12:01:30,0,D10,167 St,-73.91844,40.833771,1369.5
12:01:30,0,D11,161 St-Yankee Stadium,-73.925651,40.827905,1239.5
12:01:30,0,D12,155 St,-73.938209,40.830135,1084.6
12:01:30,0,D13,145 St,-73.944216,40.824783,826.5999999999998
12:00:30,0,D14,7 Av,-73.981637,40.762862,122.30000000000007
12:00:30,0,D15,47-50 Sts-Rockefeller Ctr,-73.981329,40.758663,243.3000000000001
12:00:30,0,D16,42 St-Bryant Pk,-73.984569,40.754222,363.30000000000007
12:00:30,0,D17,34 St-Herald Sq,-73.987823,40.749719,478.3000000000001
12:00:30,0,D18,23 St,-73.992821,40.742878,772.0
12:00:30,0,D19,14 St,-73.996209,40.738228,877.0
12:00:30,0,D20,W 4 St-Wash Sq,-74.000495,40.732338,698.3000000000002
12:00:30,0,D21,Broadway-Lafayette St,-73.996204,40.725297,877.3000000000002
12:00:30,0,D22,Grand St,-73.993753,40.718267,1052.3000000000002
12:00:30,0,D24,Atlantic Av-Barclays Ctr,-73.97689,40.68446,1861.8000000000002
12:00:30,0,D25,7 Av,-73.972367,40.67705,2034.8
12:00:30,0,D26,Prospect Park,-73.962246,40.661614,2282.8
12:10:30,0,D27,Parkside Av,-73.961495,40.655292,2402.8
12:00:30,0,D28,Church Av,-73.962982,40.650527,2489.1
13:50:30,0,D29,Beverley Rd,-73.964492,40.644031,2637.7904776096343
12:00:30,0,D30,Cortelyou Rd,-73.963891,40.640927,2752.7904776096343
12:00:30,0,D31,Newkirk Plaza,-73.962793,40.635082,2709.1
12:30:30,0,D32,Avenue H,-73.961639,40.62927,2863.4200008869166
12:30:30,0,D33,Avenue J,-73.960803,40.625039,2984.4200008869166
12:30:30,0,D34,Avenue M,-73.959399,40.617618,3112.4200008869166
12:00:30,0,D35,Kings Hwy,-73.957734,40.60867,3052.6
12:20:30,0,D37,Avenue U,-73.955929,40.5993,3297.610312080383
12:20:30,0,D38,Neck Rd,-73.955161,40.595246,3452.810312080383
12:00:30,0,D39,Sheepshead Bay,-73.954155,40.586896,3392.340001773834
12:20:30,0,D40,Brighton Beach,-73.961376,40.577621,3572.340001773834
12:20:30,0,D41,Ocean Pkwy,-73.968501,40.576312,3752.4400017738344
12:20:30,0,D42,W 8 St-NY Aquarium,-73.975939,40.576127,3677.4
12:20:30,0,D43,Coney Island-Stillwell Av,-73.981233,40.577422,3811.9
12:00:00,0,E01,World Trade Center,-74.009781,40.712582,1169.1071417331696
12:44:30,0,F01,Jamaica-179 St,-73.783817,40.712646,2658.3
13:20:30,0,F02,169 St,-73.793604,40.71047,2568.3
12:14:30,0,F03,Parsons Blvd,-73.803326,40.707564,2448.3
12:14:30,0,F04,Sutphin Blvd,-73.810708,40.70546,2358.3
12:14:30,0,F05,Briarwood,-73.820574,40.709179,2238.3
12:14:30,0,F06,Kew Gardens-Union Tpke,-73.831008,40.714441,2118.3
12:14:30,0,F07,75 Av,-73.837324,40.718331,2028.3
12:14:30,0,F09,Court Sq-23 St,-73.946,40.747846,872.9647384166719
12:14:30,0,F11,Lexington Av/53 St,-73.969055,40.757552,605.6333337306976
12:14:30,0,F12,5 Av/53 St,-73.975224,40.760167,485.63333373069764
12:40:30,0,F14,2 Av,-73.989938,40.723402,1164.0
12:40:30,0,F15,Delancey St-Essex St,-73.988114,40.718611,1284.0
12:40:30,0,F16,East Broadway,-73.990173,40.713715,1374.0
12:40:30,0,F18,York St,-73.986751,40.701397,1554.0
12:20:00,0,F20,Bergen St,-73.990862,40.686145,1932.1851844787598
12:20:00,0,F21,Carroll St,-73.995048,40.680303,2057.1851844787598
12:20:00,0,F22,Smith-9 Sts,-73.995959,40.67358,2242.1851844787598
12:20:00,0,F23,4 Av-9 St,-73.989779,40.670272,2237.1651389598846
12:20:00,0,F24,7 Av,-73.980305,40.666271,2064.0
12:20:00,0,F25,15 St-Prospect Park,-73.979493,40.660365,2237.1651389598846
12:20:00,0,F26,Fort Hamilton Pkwy,-73.975776,40.650782,2477.1651389598846
12:20:00,0,F27,Church Av,-73.979678,40.644041,2304.0
12:20:00,0,F29,Ditmas Av,-73.978172,40.636119,2424.0
12:20:00,0,F30,18 Av,-73.976971,40.629755,2544.0
12:20:00,0,F31,Avenue I,-73.976127,40.625322,2604.0
12:20:00,0,F32,Bay Pkwy,-73.975264,40.620769,2664.0
12:20:00,0,F33,Avenue N,-73.974197,40.61514,2784.0
12:20:00,0,F34,Avenue P,-73.973022,40.608944,2874.0
12:20:00,0,F35,Kings Hwy,-73.972361,40.603217,3159.0
13:32:30,0,F36,Avenue U,-73.973357,40.596063,3279.9
12:10:30,0,F38,Avenue X,-73.97425,40.58962,3399.9
12:10:30,0,F39,Neptune Av,-73.974574,40.581011,3552.3999999999996
13:00:30,0,G05,Jamaica Center-Parsons/Archer,-73.801109,40.702147,2826.2999999999997
12:14:30,0,G06,Sutphin Blvd-Archer Av-JFK Airport,-73.807969,40.700486,2696.3
12:14:30,0,G07,Jamaica-Van Wyck,-73.816859,40.702566,2520.3
12:14:30,0,G08,Forest Hills-71 Av,-73.844521,40.721691,1908.3
12:14:30,0,G09,67 Av,-73.852719,40.726523,2088.3
12:14:30,0,G10,63 Dr-Rego Park,-73.861604,40.729846,2148.3
12:14:30,0,G11,Woodhaven Blvd,-73.869229,40.733106,2058.3
12:14:30,0,G12,Grand Av-Newtown,-73.877223,40.737015,1938.3
12:14:30,0,G13,Elmhurst Av,-73.882017,40.742454,1848.3
12:14:30,0,G14,Jackson Hts-Roosevelt Av,-73.891338,40.746644,1488.3
12:14:30,0,G15,65 St,-73.898453,40.749669,1682.1897923079403
12:04:30,0,G16,Northern Blvd,-73.906006,40.752885,1579.8897923079403
12:04:30,0,G18,46 St,-73.913333,40.756312,1489.8897923079403
12:04:30,0,G19,Steinway St,-73.92074,40.756879,1369.8897923079403
12:04:30,0,G20,36 St,-73.928781,40.752039,1249.8897923079403
12:14:30,0,G21,Queens Plaza,-73.937243,40.748973,1034.964738416672
12:14:30,1,G22,Court Sq,-73.943832,40.746554,932.9647384166719
12:14:30,1,G24,21 St,-73.949724,40.744065,1052.964738416672
12:14:30,1,G26,Greenpoint Av,-73.954449,40.731352,1227.964738416672
12:14:30,1,G28,Nassau Av,-73.951277,40.724635,1352.964738416672
12:14:30,1,G29,Metropolitan Av,-73.951418,40.712792,1519.4447189331054
12:14:30,1,G30,Broadway,-73.950308,40.706092,1655.9647384166717
12:14:30,1,G31,Flushing Av,-73.950234,40.700377,1775.9647384166717
12:14:30,1,G32,Myrtle-Willoughby Avs,-73.949046,40.694568,1892.9647384166717
12:00:30,1,G33,Bedford-Nostrand Avs,-73.953522,40.689627,2012.964738416672
12:04:30,0,G34,Classon Av,-73.96007,40.688873,2127.964738416672
12:04:30,0,G35,Clinton-Washington Avs,-73.966839,40.688089,2215.691303777695
12:04:30,0,G36,Fulton St,-73.975375,40.687119,2095.691303777695
12:40:00,0,H01,Aqueduct Racetrack,-73.834058,40.668234,3773.8794270515436
12:00:00,0,H02,Aqueduct-N Conduit Av,-73.834058,40.668234,3835.7001698017116
12:00:00,0,H03,Howard Beach-JFK Airport,-73.830301,40.660476,4011.700169801712
12:00:00,0,H04,Broad Channel,-73.815925,40.608382,4564.779427051543
12:00:00,0,H06,Beach 67 St,-73.796924,40.590927,5006.379427051544
12:40:00,0,H07,Beach 60 St,-73.788522,40.592374,5136.379427051544
12:40:00,0,H08,Beach 44 St,-73.776013,40.592943,5263.379427051544
12:40:00,0,H09,Beach 36 St,-73.768175,40.595398,5386.379427051544
12:40:00,0,H10,Beach 25 St,-73.761353,40.600066,5506.379427051544
12:40:00,0,H11,Far Rockaway-Mott Av,-73.755405,40.603995,5626.379427051544
12:00:00,0,H12,Beach 90 St,-73.813641,40.588034,4911.5794270515435
12:00:00,0,H13,Beach 98 St,-73.820558,40.585307,5034.5794270515435
12:00:00,0,H14,Beach 105 St,-73.827559,40.583209,5149.5794270515435
12:00:00,0,H15,Rockaway Park-Beach 116 St,-73.835592,40.580903,5272.5794270515435
12:00:30,0,J12,121 St,-73.828294,40.700492,3134.1
12:00:30,0,J13,111 St,-73.836345,40.697418,3246.2999999999997
12:00:30,0,J14,104 St,-73.84433,40.695178,3360.9
12:00:30,0,J15,Woodhaven Blvd,-73.851576,40.693879,3303.879427051544
12:00:30,0,J16,85 St-Forest Pkwy,-73.86001,40.692435,3503.879427051544
12:00:30,0,J17,75 St-Elderts Ln,-73.867139,40.691324,3123.879427051544
12:00:30,0,J19,Cypress Hills,-73.87255,40.689941,3368.712759590149
13:00:30,0,J20,Crescent St,-73.873785,40.683194,2973.879427051544
13:00:30,0,J21,Norwood Av,-73.880039,40.68141,2883.879427051544
13:00:30,0,J22,Cleveland St,-73.884639,40.679947,2951.7552150249476
13:00:30,0,J23,Van Siclen Av,-73.891688,40.678024,2733.879427051544
13:53:30,1,J24,Alabama Av,-73.898654,40.676992,2673.879427051544
13:00:30,0,J27,Broadway Junction,-73.904512,40.679498,2570.5610397815703
13:00:30,0,J28,Chauncey St,-73.910456,40.682893,2563.9393949508667
13:00:30,0,J29,Halsey St,-73.916559,40.68637,2615.380569458008
13:00:30,0,J30,Gates Av,-73.92227,40.68963,2413.9393949508667
13:00:30,0,J31,Kosciuszko St,-73.928814,40.693342,2399.767348194122
13:48:30,1,L01,8 Av,-74.002578,40.739777,558.0
13:48:30,1,L02,6 Av,-73.996786,40.737335,743.5
13:48:30,1,L03,14 St-Union Sq,-73.99073,40.734789,864.5610397815703
13:48:30,1,L05,3 Av,-73.986122,40.732849,950.2304347515105
13:48:30,1,L06,1 Av,-73.981628,40.730953,1009.2304347515105
13:48:30,1,L08,Bedford Av,-73.956872,40.717304,1220.2304347515105
13:48:30,1,L10,Lorimer St,-73.950275,40.714063,1306.2304347515105
13:48:30,1,L11,Graham Av,-73.944053,40.714565,1362.0304347515107
13:48:30,1,L12,Grand St,-73.94067,40.711926,1462.0304347515107
13:48:30,1,L13,Montrose Av,-73.93985,40.707739,1510.0304347515107
13:48:30,1,L14,Morgan Av,-73.933147,40.706152,1602.030434751511
13:48:30,1,L15,Jefferson St,-73.922913,40.706607,1718.030434751511
13:48:30,1,L16,DeKalb Av,-73.918425,40.703811,1792.030434751511
13:48:30,1,L17,Myrtle-Wyckoff Avs,-73.911586,40.699814,1926.4610397815702
13:48:30,1,L19,Halsey St,-73.904084,40.695602,2001.4610397815702
13:48:30,1,L20,Wilson Av,-73.904046,40.688764,2137.4610397815704
13:48:30,1,L21,Bushwick Av-Aberdeen St,-73.905249,40.682829,2251.46103978157
13:48:30,1,L22,Broadway Junction,-73.90324,40.678856,2345.5610397815703
13:48:30,1,L24,Atlantic Av,-73.903097,40.675345,2523.5610397815703
13:48:30,1,L25,Sutter Av,-73.901975,40.669367,2622.5610397815703
13:48:30,1,L26,Livonia Av,-73.900571,40.664038,2705.5610397815703
13:48:30,1,L27,New Lots Av,-73.899232,40.658733,2782.3610397815705
13:48:30,1,L28,East 105 St,-73.899485,40.650573,2936.3610397815705
13:48:30,1,L29,Canarsie-Rockaway Pkwy,-73.90185,40.646654,3161.7304347515114
13:30:30,0,M01,Middle Village-Metropolitan Av,-73.889601,40.711396,2635.8610397815705
13:20:30,0,M04,Fresh Pond Rd,-73.895877,40.706186,2503.8610397815705
13:30:30,0,M05,Forest Av,-73.903077,40.704423,2392.86103978157
13:20:30,0,M06,Seneca Av,-73.90774,40.702762,2272.86103978157
13:20:30,0,M08,Myrtle-Wyckoff Avs,-73.912385,40.69943,2151.4610397815704
12:50:30,0,M09,Knickerbocker Av,-73.919711,40.698664,2271.4610397815704
13:20:30,0,M10,Central Av,-73.927397,40.697857,2409.46103978157
12:50:30,0,M11,Myrtle Av,-73.935657,40.697207,2233.9393949508667
12:50:30,0,M12,Flushing Av,-73.941126,40.70026,2103.939394950867
12:50:30,0,M13,Lorimer St,-73.947408,40.703869,1979.9393949508667
12:50:30,0,M14,Hewes St,-73.953431,40.70687,1859.9393949508667
12:50:30,0,M16,Marcy Av,-73.957757,40.708359,1748.9393949508667
12:50:30,0,M18,Delancey St-Essex St,-73.987437,40.718315,1328.9393949508667
12:00:30,0,M19,Bowery,-73.993915,40.72028,1348.7211530208588
12:00:30,0,M20,Canal St,-73.999892,40.718092,1228.7211530208588
13:53:30,1,M21,Chambers St,-74.003401,40.713243,1208.5
12:00:30,0,M22,Fulton St,-74.007582,40.710374,1328.5
13:45:00,1,M23,Broad St,-74.011056,40.706476,1396.5
12:00:30,1,N02,8 Av,-74.011719,40.635064,3051.6000000000004
12:00:30,1,N03,Fort Hamilton Pkwy,-74.005351,40.631386,3178.3
12:00:30,1,N04,New Utrecht Av,-73.996353,40.624842,3305.3
12:00:30,1,N05,18 Av,-73.990414,40.620671,3425.3
12:00:30,1,N06,20 Av,-73.985026,40.61741,3543.3
12:00:30,1,N07,Bay Pkwy,-73.981848,40.611815,3663.3
12:00:30,1,N08,Kings Hwy,-73.980353,40.603923,3793.3
12:00:30,1,N09,Avenue U,-73.979137,40.597473,3926.3
12:00:30,1,N10,86 St,-73.97823,40.592721,4137.300000000001
12:00:30,1,Q01,Canal St,-74.00046,40.718383,1002.9999999999999
12:50:30,0,Q03,72 St,-73.958424,40.768799,943.8000000000001
12:50:30,0,Q04,86 St,-73.951787,40.777891,1122.9
12:50:30,0,Q05,96 St,-73.947152,40.784318,1242.9
12:50:30,0,R01,Astoria-Ditmars Blvd,-73.912034,40.775036,1914.8000016689302
12:50:30,0,R03,Astoria Blvd,-73.917843,40.770258,1799.8000016689302
12:50:30,0,R04,30 Av,-73.921479,40.766779,1675.8000016689302
12:50:30,0,R05,Broadway,-73.925508,40.76182,1555.8000016689302
12:50:30,0,R06,36 Av,-73.929575,40.756804,1425.80000166893
12:50:30,0,R08,39 Av-Dutch Kills,-73.932755,40.752882,1281.00000166893
12:50:30,0,R09,Queensboro Plaza,-73.940202,40.750582,1086.00000166893
12:50:30,0,R11,Lexington Av/59 St,-73.967258,40.76266,863.9090898036957
12:50:30,0,R13,5 Av/59 St,-73.973347,40.764811,747.0000000000001
12:50:30,0,R14,57 St-7 Av,-73.980658,40.764664,566.4000000000001
13:17:30,1,R15,49 St,-73.984139,40.759901,427.0
13:25:00,1,R16,Times Sq-42 St,-73.986754,40.754672,307.0
12:10:30,1,R17,34 St-Herald Sq,-73.98795,40.749567,427.0
13:53:30,1,R18,28 St,-73.988691,40.745494,541.0
13:53:30,1,R19,23 St,-73.989344,40.741303,656.0
12:00:30,1,R20,14 St-Union Sq,-73.990568,40.735736,650.5999999999999
13:53:30,1,R21,8 St-NYU,-73.992629,40.730328,901.0
13:53:30,1,R22,Prince St,-73.997702,40.724329,1051.0
13:53:30,1,R23,Canal St,-74.001775,40.719527,1190.9999999999998
12:50:00,1,R24,City Hall,-74.006978,40.713282,1378.0
12:00:00,1,R25,Cortlandt St,-74.011029,40.710668,1229.1071417331696
12:00:00,1,R26,Rector St,-74.013342,40.70722,1379.1071417331696
12:00:00,1,R27,Whitehall St-South Ferry,-74.012994,40.703087,1499.1071417331696
12:00:00,1,R28,Court St,-73.991777,40.6941,1734.1071417331698
12:00:00,1,R29,Jay St-MetroTech,-73.985942,40.69218,1737.0
12:00:30,0,R30,DeKalb Av,-73.981824,40.690635,1677.8000000000002
13:55:30,0,R31,Atlantic Av-Barclays Ctr,-73.97881,40.683666,1838.0
13:55:30,0,R32,Union St,-73.98311,40.677316,2015.5
13:55:30,0,R33,4 Av-9 St,-73.988302,40.670847,2149.8
13:55:30,0,R34,Prospect Av,-73.992872,40.665414,2279.8
13:55:30,0,R35,25 St,-73.998091,40.660397,2454.8
13:55:30,0,R36,36 St,-74.003549,40.655144,2411.6
13:55:30,0,R39,45 St,-74.010006,40.648939,2583.3
13:55:30,0,R40,53 St,-74.014034,40.645069,2703.3
12:00:30,1,R41,59 St,-74.017881,40.641362,2828.3
13:55:30,0,R42,Bay Ridge Av,-74.023377,40.634967,3008.8405402183535
13:55:30,0,R43,77 St,-74.02551,40.629742,3123.8405402183535
13:55:30,0,R44,86 St,-74.028398,40.622687,3342.6055534362795
13:55:30,0,R45,Bay Ridge-95 St,-74.030876,40.616622,3462.6055534362795
12:00:30,0,S01,Franklin Av,-73.955827,40.680596,2231.7894749641414
12:00:30,0,S03,Park Pl,-73.957624,40.674772,2366.1894749641415
12:00:30,0,S04,Botanic Garden,-73.959245,40.670343,2489.5
