start_time,ntransfers,stop_id,stop_name,stop_lon,stop_lat,duration
12:16:00,1,101,Van Cortlandt Park-242 St,-73.898583,40.889248,6018.282720565795
12:16:00,1,103,238 St,-73.90087,40.884667,5852.282720565795
12:16:00,1,104,231 St,-73.904834,40.878856,5721.397907257082
12:16:00,1,106,Marble Hill-225 St,-73.909831,40.874561,5611.397907257082
12:16:00,1,107,215 St,-73.915279,40.869444,5462.882720565794
12:16:00,1,108,207 St,-73.918822,40.864621,5365.397907257082
12:16:00,1,109,Dyckman St,-73.925536,40.860531,5244.397907257082
12:16:00,1,110,191 St,-73.929412,40.855225,5137.397907257082
12:16:00,1,111,181 St,-73.933596,40.849505,5026.397907257082
12:16:00,1,112,168 St-Washington Hts,-73.940133,40.840556,4891.397907257082
12:16:00,1,113,157 St,-73.94489,40.834041,4779.397907257082
12:16:00,1,114,145 St,-73.95036,40.826551,4649.397907257082
12:16:00,1,115,137 St-City College,-73.953676,40.822008,4535.397907257082
12:16:00,1,116,125 St,-73.958372,40.815581,4414.597907257082
12:16:00,1,117,116 St-Columbia University,-73.96411,40.807722,4249.597907257082
12:16:00,1,118,Cathedral Pkwy (110 St),-73.966847,40.803967,4164.597907257082
12:16:00,1,119,103 St,-73.968379,40.799446,4076.5979072570813
12:16:00,1,120,96 St,-73.972323,40.793919,3798.4000000000005
13:44:00,1,121,86 St,-73.976218,40.788644,3813.497907257081
13:44:00,1,122,79 St,-73.979917,40.783934,3719.7979072570806
12:16:00,1,123,72 St,-73.98197,40.778453,3575.4
12:53:00,1,124,66 St-Lincoln Center,-73.982209,40.77344,3650.9
12:16:00,1,125,59 St-Columbus Circle,-73.981929,40.768247,3556.9
12:16:00,1,126,50 St,-73.983849,40.761728,3428.9
12:16:00,1,127,Times Sq-42 St,-73.987495,40.75529,3294.4
12:16:00,1,128,34 St-Penn Station,-73.991057,40.750373,3164.4
12:16:00,1,129,28 St,-73.993365,40.747215,3179.9
12:16:00,1,130,23 St,-73.995657,40.744081,3100.9
12:16:00,1,131,18 St,-73.997871,40.74104,3023.9
12:16:00,1,132,14 St,-74.000201,40.737826,2940.9
13:44:00,1,133,Christopher St-Sheridan Sq,-74.002906,40.733422,3054.9
13:44:00,1,134,Houston St,-74.005367,40.728251,3052.6000000000004
13:44:00,1,135,Canal St,-74.006277,40.722854,2922.6000000000004
13:44:00,1,136,Franklin St,-74.006886,40.719318,2849.6000000000004
12:16:00,1,137,Chambers St,-74.009266,40.715478,2730.9926833629606
12:16:00,1,138,WTC Cortlandt,-74.012188,40.711835,2678.2000000000003
12:16:00,1,139,Rector St,-74.013783,40.707513,2576.2
12:16:00,1,142,South Ferry,-74.013664,40.702068,2433.2000000000003
13:14:00,1,201,Wakefield-241 St,-73.85062,40.903125,6780.261065912246
13:14:00,1,204,Nereid Av,-73.854376,40.898379,6519.618914079666
13:14:00,1,205,233 St,-73.857473,40.893193,6362.018914079666
13:14:00,1,206,225 St,-73.860341,40.888022,6262.018914079666
13:14:00,1,207,219 St,-73.862633,40.883895,6176.818914079666
13:14:00,1,208,Gun Hill Rd,-73.866256,40.87785,6061.518914079666
13:14:00,1,209,Burke Av,-73.867164,40.871356,6072.261065912246
13:14:00,1,210,Allerton Av,-73.867352,40.865462,5969.261065912246
13:14:00,1,211,Pelham Pkwy,-73.867615,40.857192,5844.261065912246
13:14:00,1,212,Bronx Park East,-73.868457,40.848828,5705.2610659122465
13:14:00,1,213,E 180 St,-73.873488,40.841894,5210.199999284743
13:14:00,1,214,West Farms Sq-E Tremont Av,-73.880049,40.840295,5589.831033372879
13:14:00,1,215,174 St,-73.887734,40.837288,5440.831033372879
13:14:00,1,216,Freeman St,-73.891865,40.829993,5294.831033372878
13:14:00,1,217,Simpson St,-73.893064,40.824073,5167.831033372879
13:14:00,1,218,Intervale Av,-73.896736,40.822181,5081.831033372879
13:14:00,1,219,Prospect Av,-73.90177,40.819585,4978.831033372879
13:14:00,1,220,Jackson Av,-73.907807,40.81649,4854.831033372879
13:14:00,1,221,3 Av-149 St,-73.917757,40.816109,4484.199999284744
13:14:00,1,222,149 St-Grand Concourse,-73.926718,40.81841,4364.199999284744
12:16:00,1,224,135 St,-73.94077,40.814229,4425.800000000001
12:16:00,1,225,125 St,-73.945495,40.807754,4288.800000000001
12:16:00,1,226,116 St,-73.949625,40.802098,4172.800000000001
12:16:00,1,227,Central Park North (110 St),-73.951822,40.799075,4091.4000000000005
12:16:00,1,228,Park Place,-74.008811,40.713051,2616.9926833629606
12:46:00,1,229,Fulton St,-74.006571,40.709416,2495.1540986537934
13:14:00,1,230,Wall St,-74.0091,40.706821,2583.1000000000004
12:10:00,2,231,Clark St,-73.993086,40.697466,2348.1000000000004
13:29:00,1,232,Borough Hall,-73.989998,40.693219,2246.1000000000004
13:29:00,1,233,Hoyt St,-73.985065,40.690545,2350.1000000000004
13:29:00,1,234,Nevins St,-73.980492,40.688246,2325.0083802700046
13:29:00,1,235,Atlantic Av-Barclays Ctr,-73.977666,40.684359,2227.3083802700044
13:29:00,1,236,Bergen St,-73.975098,40.680829,2329.3083802700044
13:29:00,1,237,Grand Army Plaza,-73.971046,40.675235,2448.984407377243
13:29:00,1,238,Eastern Pkwy-Brooklyn Museum,-73.964375,40.671987,2569.184407377243
13:29:00,1,239,Franklin Av-Medgar Evers College,-73.958131,40.670682,2533.9844073772433
13:21:30,1,241,President St-Medgar Evers College,-73.950683,40.667883,2750.390000343323
13:21:30,1,242,Sterling St,-73.95085,40.662742,2841.890000343323
13:21:30,1,243,Winthrop St,-73.9502,40.656652,2954.390000343323
13:21:30,1,244,Church Av,-73.949575,40.650843,3050.390000343323
13:21:30,1,245,Beverly Rd,-73.948959,40.645098,3159.8900003433237
13:21:30,1,246,Newkirk Av-Little Haiti,-73.948411,40.639967,3237.890000343323
13:21:30,1,247,Flatbush Av-Brooklyn College,-73.947642,40.632836,3375.890000343323
13:21:30,1,248,Nostrand Av,-73.950466,40.669847,2732.740001773835
13:21:30,1,249,Kingston Av,-73.942161,40.669399,2851.540001773835
13:51:00,1,250,Crown Hts-Utica Av,-73.932942,40.668897,2909.7400017738346
13:21:30,1,251,Sutter Av-Rutland Rd,-73.92261,40.664717,3082.7400017738346
13:21:30,1,252,Saratoga Av,-73.916327,40.661453,3201.7400017738346
13:21:30,1,253,Rockaway Av,-73.908946,40.662549,3300.7400017738346
13:21:30,1,254,Junius St,-73.902447,40.663515,3391.7400017738346
13:21:30,1,255,Pennsylvania Av,-73.894895,40.664635,3503.7400017738346
13:21:30,1,256,Van Siclen Av,-73.889395,40.665449,3592.7400017738346
13:21:30,1,257,New Lots Av,-73.884079,40.666235,3723.640001773835
12:34:00,1,301,Harlem-148 St,-73.93647,40.82388,4815.1
12:34:00,1,302,145 St,-73.936245,40.820421,4648.100000000001
12:46:00,1,401,Woodlawn,-73.878751,40.886037,6180.938093614578
12:46:00,1,402,Mosholu Pkwy,-73.884655,40.87975,6004.938093614578
12:46:00,1,405,Bedford Park Blvd-Lehman College,-73.890064,40.873412,5858.938093614578
12:46:00,1,406,Kingsbridge Rd,-73.897174,40.86776,5721.938093614578
12:46:00,1,407,Fordham Rd,-73.901034,40.862803,5616.938093614578
12:46:00,1,408,183 St,-73.903879,40.858407,5510.938093614578
12:46:00,1,409,Burnside Av,-73.907684,40.853453,5395.938093614578
12:46:00,1,410,176 St,-73.911794,40.84848,5287.938093614578
12:46:00,1,411,Mt Eden Av,-73.914685,40.844434,5188.938093614577
12:46:00,1,412,170 St,-73.917791,40.840075,5094.938093614578
12:46:00,1,413,167 St,-73.9214,40.835537,4987.938093614578
12:46:00,1,414,161 St-Yankee Stadium,-73.925831,40.827994,4845.699999284744
12:46:00,1,415,149 St-Grand Concourse,-73.927351,40.818375,4537.699999284744
13:14:00,1,416,138 St-Grand Concourse,-73.929849,40.813224,4158.699999284744
13:29:00,1,418,Fulton St,-74.009509,40.710368,2491.627632331848
12:16:00,1,419,Wall St,-74.011862,40.707557,2589.3276323318482
13:29:00,1,420,Bowling Green,-74.014065,40.704817,2523.1000000000004
13:29:00,1,423,Borough Hall,-73.990151,40.692404,2245.364706373215
13:44:00,1,501,Eastchester-Dyre Av,-73.830834,40.8883,5960.199999284743
13:14:00,1,502,Baychester Av,-73.838591,40.878663,5810.199999284743
13:14:00,1,503,Gun Hill Rd,-73.846384,40.869526,5660.199999284743
13:14:00,1,504,Pelham Pkwy,-73.855359,40.858985,5510.199999284743
13:14:00,1,505,Morris Park,-73.860495,40.854364,5420.199999284743
12:59:30,1,601,Pelham Bay Park,-73.828121,40.852462,6209.961909723282
12:59:30,1,602,Buhre Av,-73.832569,40.84681,5990.261909723282
12:59:30,1,603,Middletown Rd,-73.836322,40.843863,5908.261909723282
12:59:30,1,604,Westchester Sq-E Tremont Av,-73.842952,40.839892,5720.042857789994
12:59:30,1,606,Zerega Av,-73.847036,40.836488,5602.042857789994
12:59:30,1,607,Castle Hill Av,-73.851222,40.834255,5520.142857789994
12:46:00,1,608,Parkchester,-73.860816,40.833226,5193.342857789994
12:46:00,1,609,St Lawrence Av,-73.867618,40.831509,5470.887169981003
12:46:00,1,610,Morrison Av-Soundview,-73.874516,40.829521,5337.887169981003
12:46:00,1,611,Elder Av,-73.879159,40.828584,5248.887169981003
12:46:00,1,612,Whitlock Av,-73.886283,40.826525,5111.887169981003
12:46:00,1,613,Hunts Point Av,-73.890549,40.820948,4840.942857789994
13:14:00,1,614,Longwood Av,-73.896435,40.816104,5009.551552820206
13:14:00,1,615,E 149 St,-73.904098,40.812118,4881.551552820206
13:14:00,1,616,E 143 St-St Mary's St,-73.907657,40.808719,4791.551552820206
13:14:00,1,617,Cypress Av,-73.914042,40.805368,4672.551552820206
13:14:00,1,618,Brook Av,-73.91924,40.807566,4593.551552820206
12:46:00,1,619,3 Av-138 St,-73.926138,40.810476,4436.9428577899935
13:14:00,1,621,125 St,-73.937594,40.804138,3965.1999992847445
13:14:00,1,622,116 St,-73.941617,40.798629,4205.090477609635
12:46:00,1,623,110 St,-73.94425,40.79502,4108.890477609634
12:46:00,1,624,103 St,-73.947478,40.7906,4018.890477609634
12:46:00,1,625,96 St,-73.95107,40.785672,3913.990477609634
13:14:00,1,626,86 St,-73.955589,40.779492,3605.1999992847445
12:46:00,1,627,77 St,-73.959874,40.77362,3687.390477609634
12:46:00,1,628,68 St-Hunter College,-73.96387,40.768141,3581.2904776096343
13:14:00,1,629,59 St,-73.967967,40.762526,3372.6999992847445
12:46:00,1,630,51 St,-73.97192,40.757107,3345.4904776096346
13:14:00,1,631,Grand Central-42 St,-73.976848,40.751776,3191.490477609634
12:53:00,1,632,33 St,-73.982076,40.746081,3056.490477609634
12:53:00,1,633,28 St,-73.984264,40.74307,2980.490477609634
12:53:00,1,634,23 St,-73.986599,40.739864,2901.2904776096343
12:53:00,1,635,14 St-Union Sq,-73.989951,40.734673,2743.2904776096343
12:53:00,1,636,Astor Pl,-73.99107,40.730054,2650.090477609634
12:10:00,1,637,Bleecker St,-73.994659,40.725915,2542.0904776096345
12:10:00,1,638,Spring St,-73.997141,40.722301,2634.0904776096345
12:10:00,1,639,Canal St,-74.000193,40.718803,2725.890477609634
13:14:00,1,640,Brooklyn Bridge-City Hall,-74.004131,40.713065,2618.199999284744
13:59:00,1,701,Flushing-Main St,-73.83003,40.7596,4977.742857142857
13:59:00,1,702,Mets-Willets Point,-73.845625,40.754622,4767.742857142857
13:51:30,1,705,111 St,-73.855334,40.75173,4812.672513628007
13:51:30,1,706,103 St-Corona Plaza,-73.8627,40.749865,4723.672513628007
13:51:30,1,707,Junction Blvd,-73.869527,40.749145,4520.6
13:51:30,1,708,90 St-Elmhurst Av,-73.876613,40.748408,4480.6725136280065
13:51:30,1,709,82 St-Jackson Hts,-73.883697,40.747659,4304.6725136280065
12:10:00,1,710,74 St-Broadway,-73.891394,40.746848,4126.857448482513
12:10:00,1,711,69 St,-73.896403,40.746325,4273.857448482514
12:10:00,1,712,61 St-Woodside,-73.902984,40.74563,4280.6
12:10:00,1,713,52 St,-73.912549,40.744149,4179.300001668929
12:10:00,1,714,46 St-Bliss St,-73.918435,40.743132,4115.300001668929
12:10:00,1,715,40 St-Lowery St,-73.924016,40.743781,4048.3000016689302
12:10:00,1,716,33 St-Rawson St,-73.930997,40.744587,3916.30000166893
12:10:00,1,718,Queensboro Plaza,-73.940202,40.750582,3701.2
12:10:00,1,719,Court Sq,-73.945264,40.747023,3600.3
12:10:00,1,720,Hunters Point Av,-73.948916,40.742216,3497.9000000000005
12:03:30,1,721,Vernon Blvd-Jackson Av,-73.953581,40.742626,3451.6000000000004
13:59:00,1,723,Grand Central-42 St,-73.976041,40.751431,3238.9
12:16:00,1,724,5 Av,-73.981963,40.753821,3150.9
13:59:00,1,725,Times Sq-42 St,-73.987691,40.755477,3238.2999999999997
13:14:00,1,726,34 St-Hudson Yards,-74.00191,40.755882,3368.2999999999997
12:08:00,1,901,Grand Central-42 St,-73.979189,40.752769,3282.6999992847445
12:08:00,1,902,Times Sq-42 St,-73.986229,40.755983,3240.9
12:16:00,0,A02,Inwood-207 St,-73.919899,40.868072,5372.399999999999
12:16:00,0,A03,Dyckman St,-73.927271,40.865491,5252.399999999999
12:16:00,0,A05,190 St,-73.93418,40.859022,5087.399999999999
12:16:00,0,A06,181 St,-73.937969,40.851695,4962.399999999999
12:16:00,0,A07,175 St,-73.939704,40.847391,4842.399999999999
12:03:30,0,A09,168 St,-73.939561,40.840719,4670.599999999999
12:59:30,0,A10,163 St-Amsterdam Av,-73.939892,40.836013,4703.682422018051
12:59:30,0,A11,155 St,-73.941514,40.830518,4553.05648317337
12:03:30,0,A12,145 St,-73.944216,40.824783,4365.599999999999
12:03:30,0,A14,135 St,-73.947649,40.817894,4278.682422018051
13:59:00,0,A15,125 St,-73.952343,40.811109,4070.9245257377625
12:53:00,0,A16,116 St,-73.954882,40.805085,4236.082422018051
12:53:00,0,A17,Cathedral Pkwy (110 St),-73.958161,40.800603,4233.200000000001
12:53:00,0,A18,103 St,-73.961454,40.796092,4117.200000000001
12:53:00,0,A19,96 St,-73.964696,40.791642,3999.2000000000003
12:53:00,0,A20,86 St,-73.968916,40.785868,3879.2000000000003
12:53:00,0,A21,81 St-Museum of Natural History,-73.972143,40.781433,3759.2
12:53:00,0,A22,72 St,-73.97641,40.775594,3639.2
12:53:00,0,A24,59 St-Columbus Circle,-73.981736,40.768296,3399.9
13:59:00,0,A25,50 St,-73.985984,40.762456,3378.2000000000003
13:14:00,0,A27,42 St-Port Authority Bus Terminal,-73.989735,40.757308,3212.9
13:14:00,0,A28,34 St-Penn Station,-73.993391,40.752287,3084.9
12:16:00,0,A30,23 St,-73.998041,40.745906,2980.9
13:14:00,0,A31,14 St,-74.00169,40.740893,2860.9
13:14:00,0,A32,W 4 St-Wash Sq,-74.000495,40.732338,2730.9
12:16:00,0,A33,Spring St,-74.003739,40.726227,2684.0
12:16:00,0,A34,Canal St,-74.005229,40.720824,2544.9
12:16:00,0,A36,Chambers St,-74.008585,40.714111,2388.7
12:16:00,0,A38,Fulton St,-74.007691,40.710197,2268.7
12:16:00,0,A40,High St,-73.990531,40.699337,2048.9
12:03:30,0,A41,Jay St-MetroTech,-73.987342,40.692338,1755.9
12:10:00,0,A42,Hoyt-Schermerhorn Sts,-73.985001,40.688484,2020.8999999999999
13:07:00,0,A43,Lafayette Av,-73.973946,40.686113,2215.9000000000005
13:07:00,0,A44,Clinton-Washington Avs,-73.965838,40.683263,2330.9
13:07:00,0,A45,Franklin Av,-73.956848,40.68138,2450.9
12:10:00,0,A46,Nostrand Av,-73.950426,40.680438,2435.8999999999996
12:10:00,0,A47,Kingston-Throop Avs,-73.940858,40.679921,2556.9999999999995
12:10:00,0,A48,Utica Av,-73.930729,40.679364,2634.1
12:10:00,0,A49,Ralph Av,-73.920786,40.678822,2757.0999999999995
12:10:00,0,A50,Rockaway Av,-73.911946,40.67834,2877.0999999999995
12:10:00,0,A51,Broadway Junction,-73.905316,40.678334,2934.1
13:22:00,0,A52,Liberty Av,-73.896548,40.674542,3072.2999999999997
13:22:00,0,A53,Van Siclen Av,-73.890358,40.67271,3187.2999999999997
13:22:00,0,A54,Shepherd Av,-73.88075,40.67413,3312.2999999999997
12:10:00,0,A55,Euclid Av,-73.872106,40.675377,3403.9
12:10:00,0,A57,Grant Av,-73.86505,40.677044,3535.2000000000003
12:10:00,0,A59,80 St,-73.858992,40.679371,3665.2
12:10:00,0,A60,88 St,-73.85147,40.679843,3785.2
12:10:00,0,A61,Rockaway Blvd,-73.843853,40.680429,3916.2
12:40:00,0,A63,104 St,-73.837683,40.681711,4036.2
12:40:00,0,A64,111 St,-73.832163,40.684331,4171.0
12:40:00,0,A65,Ozone Park-Lefferts Blvd,-73.825798,40.685951,4252.4
12:03:30,0,B04,21 St-Queensbridge,-73.942836,40.754203,3525.9
12:03:30,0,B06,Roosevelt Island,-73.95326,40.759145,3405.9
12:08:00,0,B08,Lexington Av/63 St,-73.966113,40.764629,3255.9
12:03:30,0,B10,57 St,-73.97745,40.763972,3105.9
13:56:30,0,B12,9 Av,-73.994324,40.646292,2039.4000000000005
13:56:30,0,B13,Fort Hamilton Pkwy,-73.994304,40.640914,1919.4000000000008
13:56:30,0,B14,50 St,-73.994791,40.63626,1807.4000000000008
13:56:30,0,B15,55 St,-73.995476,40.631435,1680.4000000000008
13:56:30,0,B16,62 St,-73.996895,40.626472,1551.3999999999999
13:56:30,0,B17,71 St,-73.998864,40.619589,1431.3999999999999
13:56:30,0,B18,79 St,-74.00061,40.613501,1311.3999999999999
13:56:30,0,B19,18 Av,-74.001736,40.607954,1191.3999999999999
13:56:30,0,B20,20 Av,-73.998168,40.604556,1075.3999999999999
13:56:30,0,B21,Bay Pkwy,-73.993728,40.601875,955.4
13:56:30,0,B22,25 Av,-73.986829,40.597704,834.1
13:56:30,0,B23,Bay 50 St,-73.983765,40.588841,657.1000000000001
13:59:00,0,D01,Norwood-205 St,-73.878855,40.874811,5778.9245257377615
13:59:00,0,D03,Bedford Park Blvd,-73.887138,40.873244,5550.924525737762
13:59:00,0,D04,Kingsbridge Rd,-73.893509,40.866978,5410.924525737762
13:59:00,0,D05,Fordham Rd,-73.897749,40.861296,5290.924525737762
13:59:00,0,D06,182-183 Sts,-73.900741,40.856093,5218.924525737763
13:59:00,0,D07,Tremont Av,-73.905227,40.85041,5105.924525737762
13:59:00,0,D08,174-175 Sts,-73.910136,40.8459,5115.024525737763
13:59:00,0,D09,170 St,-73.9134,40.839306,4986.824525737763
13:59:00,0,D10,167 St,-73.91844,40.833771,4863.824525737763
13:59:00,0,D11,161 St-Yankee Stadium,-73.925651,40.827905,4733.824525737762
13:59:00,0,D12,155 St,-73.938209,40.830135,4578.924525737762
13:59:00,0,D13,145 St,-73.944216,40.824783,4320.924525737762
12:53:00,0,D14,7 Av,-73.981637,40.762862,3336.8999999999996
12:53:00,0,D15,47-50 Sts-Rockefeller Ctr,-73.981329,40.758663,3015.9
12:53:00,0,D16,42 St-Bryant Pk,-73.984569,40.754222,2925.9
12:53:00,0,D17,34 St-Herald Sq,-73.987823,40.749719,2835.9
12:03:30,0,D18,23 St,-73.992821,40.742878,2715.9
12:03:30,0,D19,14 St,-73.996209,40.738228,2610.9
12:53:00,0,D20,W 4 St-Wash Sq,-74.000495,40.732338,2490.9
12:03:30,0,D21,Broadway-Lafayette St,-73.996204,40.725297,2325.9
12:03:30,0,D22,Grand St,-73.993753,40.718267,2755.9
13:29:00,0,D24,Atlantic Av-Barclays Ctr,-73.97689,40.68446,2349.5702835559846
13:29:00,0,D25,7 Av,-73.972367,40.67705,2305.1400017738347
13:29:00,0,D26,Prospect Park,-73.962246,40.661614,2062.1400017738347
13:21:30,0,D27,Parkside Av,-73.961495,40.655292,2057.7904776096348
13:29:00,0,D28,Church Av,-73.962982,40.650527,1852.1000000000004
13:21:30,0,D29,Beverley Rd,-73.964492,40.644031,1813.16666507721
13:21:30,0,D30,Cortelyou Rd,-73.963891,40.640927,1719.8666650772097
13:29:00,0,D31,Newkirk Plaza,-73.962793,40.635082,1565.7000000000003
13:21:30,0,D32,Avenue H,-73.961639,40.62927,1720.0200008869176
13:21:30,0,D33,Avenue J,-73.960803,40.625039,1638.7000000000003
13:21:30,0,D34,Avenue M,-73.959399,40.617618,1510.7000000000003
13:21:30,0,D35,Kings Hwy,-73.957734,40.60867,1265.7000000000003
13:21:30,0,D37,Avenue U,-73.955929,40.5993,1250.3000000000002
13:21:30,0,D38,Neck Rd,-73.955161,40.595246,1095.1000000000001
13:21:30,0,D39,Sheepshead Bay,-73.954155,40.586896,915.1000000000001
13:21:30,0,D40,Brighton Beach,-73.961376,40.577621,735.1000000000001
13:21:30,0,D41,Ocean Pkwy,-73.968501,40.576312,615.0
12:02:00,0,D42,W 8 St-NY Aquarium,-73.975939,40.576127,225.0
12:02:00,0,D43,Coney Island-Stillwell Av,-73.981233,40.577422,315.0
13:14:00,0,E01,World Trade Center,-74.009781,40.712582,2615.8999999999996
13:14:00,0,F01,Jamaica-179 St,-73.783817,40.712646,5085.9
12:34:00,0,F02,169 St,-73.793604,40.71047,4995.9
12:16:00,0,F03,Parsons Blvd,-73.803326,40.707564,4875.9
12:16:00,0,F04,Sutphin Blvd,-73.810708,40.70546,4785.9
12:16:00,0,F05,Briarwood,-73.820574,40.709179,4665.9
12:53:00,0,F06,Kew Gardens-Union Tpke,-73.831008,40.714441,4545.9
12:16:00,0,F07,75 Av,-73.837324,40.718331,4455.9
12:53:00,0,F09,Court Sq-23 St,-73.946,40.747846,3720.3
12:53:00,0,F11,Lexington Av/53 St,-73.969055,40.757552,3521.614285714286
12:53:00,0,F12,5 Av/53 St,-73.975224,40.760167,3422.430612244898
12:03:30,0,F14,2 Av,-73.989938,40.723402,2235.9
12:03:30,0,F15,Delancey St-Essex St,-73.988114,40.718611,2115.9
12:03:30,0,F16,East Broadway,-73.990173,40.713715,2025.9
12:03:30,0,F18,York St,-73.986751,40.701397,1845.9
12:03:30,0,F20,Bergen St,-73.990862,40.686145,1939.0651389598847
12:03:30,0,F21,Carroll St,-73.995048,40.680303,1814.0651389598845
12:03:30,0,F22,Smith-9 Sts,-73.995959,40.67358,1629.0651389598845
12:03:30,0,F23,4 Av-9 St,-73.989779,40.670272,1509.0651389598845
12:03:30,0,F24,7 Av,-73.980305,40.666271,1335.9
12:03:30,0,F25,15 St-Prospect Park,-73.979493,40.660365,1450.9
12:03:30,0,F26,Fort Hamilton Pkwy,-73.975776,40.650782,1275.9
12:03:30,0,F27,Church Av,-73.979678,40.644041,1095.9
12:03:30,0,F29,Ditmas Av,-73.978172,40.636119,975.9000000000001
12:03:30,0,F30,18 Av,-73.976971,40.629755,830.9
12:03:30,0,F31,Avenue I,-73.976127,40.625322,715.9
12:03:30,0,F32,Bay Pkwy,-73.975264,40.620769,600.9000000000001
12:03:30,0,F33,Avenue N,-73.974197,40.61514,475.90000000000003
12:03:30,0,F34,Avenue P,-73.973022,40.608944,360.90000000000003
12:03:30,0,F35,Kings Hwy,-73.972361,40.603217,240.90000000000003
12:03:30,0,F36,Avenue U,-73.973357,40.596063,120.0
13:14:00,0,F38,Avenue X,-73.97425,40.58962,0.0
12:02:00,0,F39,Neptune Av,-73.974574,40.581011,135.0
12:10:00,1,G05,Jamaica Center-Parsons/Archer,-73.801109,40.702147,4510.839130020142
13:14:00,1,G06,Sutphin Blvd-Archer Av-JFK Airport,-73.807969,40.700486,4450.839130020142
12:53:00,0,G07,Jamaica-Van Wyck,-73.816859,40.702566,4876.839130020142
12:53:00,0,G08,Forest Hills-71 Av,-73.844521,40.721691,4335.9
13:51:30,0,G09,67 Av,-73.852719,40.726523,4515.9
13:59:00,0,G10,63 Dr-Rego Park,-73.861604,40.729846,4575.9
13:59:00,0,G11,Woodhaven Blvd,-73.869229,40.733106,4485.9
13:59:00,0,G12,Grand Av-Newtown,-73.877223,40.737015,4365.9
13:59:00,0,G13,Elmhurst Av,-73.882017,40.742454,4275.9
12:53:00,0,G14,Jackson Hts-Roosevelt Av,-73.891338,40.746644,3915.9
12:10:00,1,G15,65 St,-73.898453,40.749669,4245.9
12:10:00,1,G16,Northern Blvd,-73.906006,40.752885,4315.982726698927
12:10:00,1,G18,46 St,-73.913333,40.756312,4225.982726698927
12:10:00,1,G19,Steinway St,-73.92074,40.756879,4109.075510204082
12:10:00,1,G20,36 St,-73.928781,40.752039,3989.0755102040816
12:53:00,0,G21,Queens Plaza,-73.937243,40.748973,3843.667346938775
12:10:00,0,G22,Court Sq,-73.943832,40.746554,3660.3
12:10:00,0,G24,21 St,-73.949724,40.744065,3617.065138959885
12:10:00,0,G26,Greenpoint Av,-73.954449,40.731352,3442.065138959885
12:10:00,0,G28,Nassau Av,-73.951277,40.724635,3317.065138959885
12:10:00,0,G29,Metropolitan Av,-73.951418,40.712792,3132.065138959885
12:10:00,0,G30,Broadway,-73.950308,40.706092,3014.065138959885
12:10:00,0,G31,Flushing Av,-73.950234,40.700377,2894.065138959885
12:10:00,0,G32,Myrtle-Willoughby Avs,-73.949046,40.694568,2777.0651389598847
12:10:00,0,G33,Bedford-Nostrand Avs,-73.953522,40.689627,2657.0651389598847
12:10:00,0,G34,Classon Av,-73.96007,40.688873,2542.0651389598847
12:10:00,0,G35,Clinton-Washington Avs,-73.966839,40.688089,2429.065138959885
12:10:00,0,G36,Fulton St,-73.975375,40.687119,2309.065138959885
12:28:00,0,H01,Aqueduct Racetrack,-73.834058,40.668234,4173.9
12:10:00,0,H02,Aqueduct-N Conduit Av,-73.834058,40.668234,4137.5
12:10:00,0,H03,Howard Beach-JFK Airport,-73.830301,40.660476,4313.5
12:10:00,0,H04,Broad Channel,-73.815925,40.608382,4964.8
12:10:00,0,H06,Beach 67 St,-73.796924,40.590927,5332.200000000001
13:22:00,0,H07,Beach 60 St,-73.788522,40.592374,5457.2
13:22:00,0,H08,Beach 44 St,-73.776013,40.592943,5588.2
13:22:00,0,H09,Beach 36 St,-73.768175,40.595398,5708.2
13:22:00,0,H10,Beach 25 St,-73.761353,40.600066,5874.0
13:22:00,0,H11,Far Rockaway-Mott Av,-73.755405,40.603995,5998.0
12:10:00,0,H12,Beach 90 St,-73.813641,40.588034,5311.6
12:10:00,0,H13,Beach 98 St,-73.820558,40.585307,5430.5
12:10:00,0,H14,Beach 105 St,-73.827559,40.583209,5502.500000000001
12:10:00,0,H15,Rockaway Park-Beach 116 St,-73.835592,40.580903,5616.500000000001
13:14:00,1,J12,121 St,-73.828294,40.700492,4210.839130020142
13:14:00,1,J13,111 St,-73.836345,40.697418,4375.839130020142
13:14:00,1,J14,104 St,-73.84433,40.695178,4030.839130020142
13:14:00,1,J15,Woodhaven Blvd,-73.851576,40.693879,3940.839130020142
13:14:00,1,J16,85 St-Forest Pkwy,-73.86001,40.692435,4140.839130020142
13:14:00,1,J17,75 St-Elderts Ln,-73.867139,40.691324,3760.8391300201415
13:14:00,1,J19,Cypress Hills,-73.87255,40.689941,4005.6724625587467
13:14:00,1,J20,Crescent St,-73.873785,40.683194,3610.8391300201415
13:14:00,1,J21,Norwood Av,-73.880039,40.68141,3520.8391300201415
13:14:00,1,J22,Cleveland St,-73.884639,40.679947,3576.839130020141
13:14:00,1,J23,Van Siclen Av,-73.891688,40.678024,3370.8391300201415
13:14:00,1,J24,Alabama Av,-73.898654,40.676992,3310.8391300201415
13:14:00,1,J27,Broadway Junction,-73.904512,40.679498,3208.9
13:14:00,1,J28,Chauncey St,-73.910456,40.682893,3280.8391300201415
13:14:00,1,J29,Halsey St,-73.916559,40.68637,3447.341174507141
13:14:00,1,J30,Gates Av,-73.92227,40.68963,3245.9
13:14:00,1,J31,Kosciuszko St,-73.928814,40.693342,3257.341174507141
12:16:00,1,L01,8 Av,-74.002578,40.739777,2923.9
12:16:00,1,L02,6 Av,-73.996786,40.737335,2835.9
13:51:30,1,L03,14 St-Union Sq,-73.99073,40.734789,2953.9
12:08:00,1,L05,3 Av,-73.986122,40.732849,3032.2904776096348
12:08:00,1,L06,1 Av,-73.981628,40.730953,3091.2904776096348
12:10:00,1,L08,Bedford Av,-73.956872,40.717304,3302.2904776096348
12:10:00,1,L10,Lorimer St,-73.950275,40.714063,3388.2904776096343
12:10:00,1,L11,Graham Av,-73.944053,40.714565,3444.0904776096345
12:10:00,1,L12,Grand St,-73.94067,40.711926,3544.090477609634
12:10:00,1,L13,Montrose Av,-73.93985,40.707739,3592.090477609634
12:10:00,1,L14,Morgan Av,-73.933147,40.706152,3684.090477609634
12:10:00,1,L15,Jefferson St,-73.922913,40.706607,3800.0904776096336
13:22:00,1,L16,DeKalb Av,-73.918425,40.703811,3735.9391300201414
13:22:00,1,L17,Myrtle-Wyckoff Avs,-73.911586,40.699814,3639.9391300201414
13:22:00,1,L19,Halsey St,-73.904084,40.695602,3564.9391300201414
13:22:00,1,L20,Wilson Av,-73.904046,40.688764,3428.9391300201414
13:22:00,1,L21,Bushwick Av-Aberdeen St,-73.905249,40.682829,3314.9391300201414
13:22:00,1,L22,Broadway Junction,-73.90324,40.678856,3201.53888835907
13:22:00,1,L24,Atlantic Av,-73.903097,40.675345,3315.33888835907
13:22:00,1,L25,Sutter Av,-73.901975,40.669367,3415.33888835907
13:22:00,1,L26,Livonia Av,-73.900571,40.664038,3523.3388883590696
13:22:00,1,L27,New Lots Av,-73.899232,40.658733,3630.3388883590696
13:22:00,1,L28,East 105 St,-73.899485,40.650573,3811.6391300201417
13:22:00,1,L29,Canarsie-Rockaway Pkwy,-73.90185,40.646654,3949.3388883590696
12:34:00,0,M01,Middle Village-Metropolitan Av,-73.889601,40.711396,4125.300004768371
12:34:00,0,M04,Fresh Pond Rd,-73.895877,40.706186,3950.3126214981075
12:34:00,0,M05,Forest Av,-73.903077,40.704423,3822.3126214981075
12:34:00,0,M06,Seneca Av,-73.90774,40.702762,3702.3126214981075
12:34:00,0,M08,Myrtle-Wyckoff Avs,-73.912385,40.69943,3592.3126214981075
12:34:00,0,M09,Knickerbocker Av,-73.919711,40.698664,3419.712621498107
12:34:00,0,M10,Central Av,-73.927397,40.697857,3303.7126214981076
12:34:00,0,M11,Myrtle Av,-73.935657,40.697207,3065.9
12:34:00,0,M12,Flushing Av,-73.941126,40.70026,3125.3
12:34:00,0,M13,Lorimer St,-73.947408,40.703869,3000.3
12:34:00,0,M14,Hewes St,-73.953431,40.70687,2880.3
12:34:00,0,M16,Marcy Av,-73.957757,40.708359,2775.3
12:34:00,0,M18,Delancey St-Essex St,-73.987437,40.718315,2355.9
12:03:30,1,M19,Bowery,-73.993915,40.72028,2470.9
12:03:30,1,M20,Canal St,-73.999892,40.718092,2590.9
13:14:00,1,M21,Chambers St,-74.003401,40.713243,2654.9
12:03:30,1,M22,Fulton St,-74.007582,40.710374,2499.5252429962156
12:16:00,1,M23,Broad St,-74.011056,40.706476,2602.9
12:51:30,0,N02,8 Av,-74.011719,40.635064,1704.4000000000005
12:51:30,0,N03,Fort Hamilton Pkwy,-74.005351,40.631386,1524.4000000000005
12:51:30,0,N04,New Utrecht Av,-73.996353,40.624842,1350.4000000000008
12:51:30,0,N05,18 Av,-73.990414,40.620671,1230.4000000000008
12:51:30,0,N06,20 Av,-73.985026,40.61741,1115.4000000000005
12:51:30,0,N07,Bay Pkwy,-73.981848,40.611815,995.4000000000007
12:51:30,0,N08,Kings Hwy,-73.980353,40.603923,870.4000000000005
12:51:30,0,N09,Avenue U,-73.979137,40.597473,750.4000000000005
12:51:30,0,N10,86 St,-73.97823,40.592721,640.4000000000005
12:03:30,1,Q01,Canal St,-74.00046,40.718383,2816.621153020859
12:08:00,0,Q03,72 St,-73.958424,40.768799,3751.7000000000003
12:08:00,0,Q04,86 St,-73.951787,40.777891,3935.8999999999996
12:08:00,0,Q05,96 St,-73.947152,40.784318,4055.8999999999996
12:10:00,2,R01,Astoria-Ditmars Blvd,-73.912034,40.775036,4581.692308187485
12:10:00,2,R03,Astoria Blvd,-73.917843,40.770258,4466.692308187485
12:10:00,2,R04,30 Av,-73.921479,40.766779,4342.692308187485
12:10:00,2,R05,Broadway,-73.925508,40.76182,4222.692308187485
12:10:00,2,R06,36 Av,-73.929575,40.756804,4092.6923081874843
12:10:00,2,R08,39 Av-Dutch Kills,-73.932755,40.752882,3947.8923081874846
12:08:00,0,R09,Queensboro Plaza,-73.940202,40.750582,3752.8923081874846
12:08:00,0,R11,Lexington Av/59 St,-73.967258,40.76266,3602.60908908844
12:08:00,0,R13,5 Av/59 St,-73.973347,40.764811,3624.9000000000005
12:08:00,0,R14,57 St-7 Av,-73.980658,40.764664,3419.9
12:08:00,0,R15,49 St,-73.984139,40.759901,3305.9
12:08:00,0,R16,Times Sq-42 St,-73.986754,40.754672,3180.9
12:08:00,0,R17,34 St-Herald Sq,-73.98795,40.749567,3060.9
12:08:00,0,R18,28 St,-73.988691,40.745494,3170.9
12:08:00,0,R19,23 St,-73.989344,40.741303,3102.3445304393767
12:08:00,0,R20,14 St-Union Sq,-73.990568,40.735736,2968.2904776096343
12:10:00,1,R21,8 St-NYU,-73.992629,40.730328,3099.2904776096343
12:10:00,1,R22,Prince St,-73.997702,40.724329,3045.9
12:10:00,1,R23,Canal St,-74.001775,40.719527,2925.9
12:10:00,1,R24,City Hall,-74.006978,40.713282,2741.5225791454313
12:10:00,1,R25,Cortlandt St,-74.011029,40.710668,2555.8999999999996
12:10:00,1,R26,Rector St,-74.013342,40.70722,2321.2
12:10:00,1,R27,Whitehall St-South Ferry,-74.012994,40.703087,2253.2000000000003
12:10:00,1,R28,Court St,-73.991777,40.6941,2006.1000000000001
12:10:00,1,R29,Jay St-MetroTech,-73.985942,40.69218,1890.9
13:29:00,0,R30,DeKalb Av,-73.981824,40.690635,2010.9
12:16:00,1,R31,Atlantic Av-Barclays Ctr,-73.97881,40.683666,2002.3083802700044
12:16:00,1,R32,Union St,-73.98311,40.677316,1867.6651389598846
12:59:30,1,R33,4 Av-9 St,-73.988302,40.670847,1734.0651389598845
12:10:00,1,R34,Prospect Av,-73.992872,40.665414,1854.0651389598845
12:10:00,1,R35,25 St,-73.998091,40.660397,1953.0651389598847
12:10:00,1,R36,36 St,-74.003549,40.655144,2094.0651389598847
12:51:30,0,R39,45 St,-74.010006,40.648939,2176.4000000000005
12:51:30,0,R40,53 St,-74.014034,40.645069,2054.4000000000005
12:51:30,0,R41,59 St,-74.017881,40.641362,1939.4000000000008
12:51:30,0,R42,Bay Ridge Av,-74.023377,40.634967,2119.940540218354
12:51:30,0,R43,77 St,-74.02551,40.629742,2234.940540218354
12:51:30,0,R44,86 St,-74.028398,40.622687,2453.70555343628
12:51:30,0,R45,Bay Ridge-95 St,-74.030876,40.616622,2573.70555343628
13:21:30,0,S01,Franklin Av,-73.955827,40.680596,2510.9
13:21:30,0,S03,Park Pl,-73.957624,40.674772,2427.140001773835
13:21:30,0,S04,Botanic Garden,-73.959245,40.670343,2307.140001773835
