start_time,ntransfers,stop_id,stop_name,stop_lon,stop_lat,duration
12:23:30,1,101,Van Cortlandt Park-242 St,-73.898583,40.889248,4510.298513126373
12:23:30,1,103,238 St,-73.90087,40.884667,4344.298513126373
12:23:30,1,104,231 St,-73.904834,40.878856,4218.104923772812
12:23:30,1,106,Marble Hill-225 St,-73.909831,40.874561,4108.104923772813
12:23:30,1,107,215 St,-73.915279,40.869444,3954.898513126373
12:23:30,1,108,207 St,-73.918822,40.864621,3862.104923772812
12:23:30,1,109,Dyckman St,-73.925536,40.860531,3741.1049237728116
12:23:30,1,110,191 St,-73.929412,40.855225,3634.104923772812
12:23:30,1,111,181 St,-73.933596,40.849505,3523.1049237728116
12:07:30,1,112,168 St-Washington Hts,-73.940133,40.840556,3388.1049237728116
12:03:30,1,113,157 St,-73.94489,40.834041,3408.04130240482
12:07:30,1,114,145 St,-73.95036,40.826551,3278.04130240482
12:07:30,1,115,137 St-City College,-73.953676,40.822008,3164.0413024048203
12:07:30,1,116,125 St,-73.958372,40.815581,3043.24130240482
12:07:30,1,117,116 St-Columbia University,-73.96411,40.807722,2878.24130240482
12:07:30,1,118,Cathedral Pkwy (110 St),-73.966847,40.803967,2793.24130240482
12:07:30,1,119,103 St,-73.968379,40.799446,2705.24130240482
13:07:30,1,120,96 St,-73.972323,40.793919,2334.7126236061436
12:07:30,1,121,86 St,-73.976218,40.788644,2442.14130240482
12:07:30,1,122,79 St,-73.979917,40.783934,2348.4413024048195
13:07:30,1,123,72 St,-73.98197,40.778453,2117.0126236061433
12:07:30,1,124,66 St-Lincoln Center,-73.982209,40.77344,2182.0126236061437
13:23:30,1,125,59 St-Columbus Circle,-73.981929,40.768247,2088.0126236061437
13:23:30,1,126,50 St,-73.983849,40.761728,1960.0126236061437
13:23:30,1,127,Times Sq-42 St,-73.987495,40.75529,1832.0126236061435
13:23:30,1,128,34 St-Penn Station,-73.991057,40.750373,1961.0126236061435
13:23:30,1,129,28 St,-73.993365,40.747215,2059.0126236061437
13:23:30,1,130,23 St,-73.995657,40.744081,2138.0126236061437
13:23:30,1,131,18 St,-73.997871,40.74104,2168.0
13:23:30,1,132,14 St,-74.000201,40.737826,2085.0
12:23:30,1,133,Christopher St-Sheridan Sq,-74.002906,40.733422,2199.0
12:23:30,1,134,Houston St,-74.005367,40.728251,2304.0
12:23:30,1,135,Canal St,-74.006277,40.722854,2411.9999999999995
12:23:30,1,136,Franklin St,-74.006886,40.719318,2486.9999999999995
13:23:30,1,137,Chambers St,-74.009266,40.715478,2440.5
12:23:30,1,138,WTC Cortlandt,-74.012188,40.711835,2684.7000000000003
12:23:30,1,139,Rector St,-74.013783,40.707513,2786.7000000000003
12:23:30,1,142,South Ferry,-74.013664,40.702068,2929.7000000000003
12:07:30,1,201,Wakefield-241 St,-73.85062,40.903125,4892.561066627502
12:07:30,1,204,Nereid Av,-73.854376,40.898379,4631.918914794922
12:07:30,1,205,233 St,-73.857473,40.893193,4474.318914794922
12:07:30,1,206,225 St,-73.860341,40.888022,4374.318914794922
12:07:30,1,207,219 St,-73.862633,40.883895,4289.118914794922
12:07:30,1,208,Gun Hill Rd,-73.866256,40.87785,4173.8189147949215
12:07:30,1,209,Burke Av,-73.867164,40.871356,4184.561066627502
12:07:30,1,210,Allerton Av,-73.867352,40.865462,4081.561066627502
12:07:30,1,211,Pelham Pkwy,-73.867615,40.857192,3956.5610666275024
12:07:30,1,212,Bronx Park East,-73.868457,40.848828,3817.5610666275024
12:07:30,1,213,E 180 St,-73.873488,40.841894,3322.5
12:07:30,1,214,West Farms Sq-E Tremont Av,-73.880049,40.840295,3651.7
12:07:30,1,215,174 St,-73.887734,40.837288,3502.7
12:07:30,1,216,Freeman St,-73.891865,40.829993,3356.7
12:07:30,1,217,Simpson St,-73.893064,40.824073,3229.7
12:07:30,1,218,Intervale Av,-73.896736,40.822181,3143.7000000000003
12:07:30,1,219,Prospect Av,-73.90177,40.819585,3040.7000000000003
12:07:30,1,220,Jackson Av,-73.907807,40.81649,2916.7
12:07:30,1,221,3 Av-149 St,-73.917757,40.816109,2596.5
12:07:30,1,222,149 St-Grand Concourse,-73.926718,40.81841,2476.5
13:07:30,1,224,135 St,-73.94077,40.814229,2976.4126236061434
13:07:30,1,225,125 St,-73.945495,40.807754,2837.4126236061434
13:07:30,1,226,116 St,-73.949625,40.802098,2724.4126236061434
13:07:30,1,227,Central Park North (110 St),-73.951822,40.799075,2635.7126236061436
13:23:30,1,228,Park Place,-74.008811,40.713051,2553.5126236061437
13:23:30,1,229,Fulton St,-74.006571,40.709416,2692.5126236061437
13:23:30,1,230,Wall St,-74.0091,40.706821,2781.5126236061437
13:23:30,1,231,Clark St,-73.993086,40.697466,2990.5126236061437
13:23:30,1,232,Borough Hall,-73.989998,40.693219,3100.2000000000003
13:23:30,1,233,Hoyt St,-73.985065,40.690545,3137.6870245933537
13:47:30,1,234,Nevins St,-73.980492,40.688246,2997.0
13:47:30,1,235,Atlantic Av-Barclays Ctr,-73.977666,40.684359,3087.0
12:23:30,1,236,Bergen St,-73.975098,40.680829,3241.9290070056923
12:23:30,1,237,Grand Army Plaza,-73.971046,40.675235,3354.6870245933533
12:23:30,1,238,Eastern Pkwy-Brooklyn Museum,-73.964375,40.671987,3474.8870245933535
12:23:30,1,239,Franklin Av-Medgar Evers College,-73.958131,40.670682,3415.5000000000005
12:23:30,1,241,President St-Medgar Evers College,-73.950683,40.667883,3591.0
12:23:30,1,242,Sterling St,-73.95085,40.662742,3682.5
12:23:30,1,243,Winthrop St,-73.9502,40.656652,3795.0
12:23:30,1,244,Church Av,-73.949575,40.650843,3890.9999999999995
12:23:30,1,245,Beverly Rd,-73.948959,40.645098,4000.5
12:23:30,1,246,Newkirk Av-Little Haiti,-73.948411,40.639967,4078.4999999999995
12:23:30,1,247,Flatbush Av-Brooklyn College,-73.947642,40.632836,4216.499999999999
12:23:30,1,248,Nostrand Av,-73.950466,40.669847,3674.1882370471953
12:23:30,1,249,Kingston Av,-73.942161,40.669399,3792.988237047195
13:23:30,1,250,Crown Hts-Utica Av,-73.932942,40.668897,3859.3882370471956
12:07:30,1,251,Sutter Av-Rutland Rd,-73.92261,40.664717,3924.1855959991794
12:07:30,1,252,Saratoga Av,-73.916327,40.661453,3805.185595999179
12:06:30,2,253,Rockaway Av,-73.908946,40.662549,3700.0855959991795
12:06:30,2,254,Junius St,-73.902447,40.663515,3608.0855959991795
12:06:30,2,255,Pennsylvania Av,-73.894895,40.664635,3720.7855959991793
12:06:30,2,256,Van Siclen Av,-73.889395,40.665449,3804.7855959991793
12:06:30,2,257,New Lots Av,-73.884079,40.666235,3943.1388871669765
13:07:30,1,301,Harlem-148 St,-73.93647,40.82388,3443.743395147739
13:07:30,1,302,145 St,-73.936245,40.820421,3213.412623606144
12:53:30,1,401,Woodlawn,-73.878751,40.886037,4229.25
12:53:30,1,402,Mosholu Pkwy,-73.884655,40.87975,4053.2499999999995
12:53:30,1,405,Bedford Park Blvd-Lehman College,-73.890064,40.873412,3907.2499999999995
12:53:30,1,406,Kingsbridge Rd,-73.897174,40.86776,3770.2499999999995
12:53:30,1,407,Fordham Rd,-73.901034,40.862803,3665.2499999999995
12:53:30,1,408,183 St,-73.903879,40.858407,3559.2499999999995
12:53:30,1,409,Burnside Av,-73.907684,40.853453,3444.2499999999995
12:53:30,1,410,176 St,-73.911794,40.84848,3336.25
12:53:30,1,411,Mt Eden Av,-73.914685,40.844434,3237.25
12:53:30,1,412,170 St,-73.917791,40.840075,3143.2499999999995
12:53:30,1,413,167 St,-73.9214,40.835537,3036.25
12:53:30,1,414,161 St-Yankee Stadium,-73.925831,40.827994,2844.7000000000003
12:53:30,1,415,149 St-Grand Concourse,-73.927351,40.818375,2536.7000000000003
12:53:30,1,416,138 St-Grand Concourse,-73.929849,40.813224,2271.0
13:47:30,1,418,Fulton St,-74.009509,40.710368,2359.5
13:47:30,1,419,Wall St,-74.011862,40.707557,2458.5
13:47:30,1,420,Bowling Green,-74.014065,40.704817,2548.5
13:47:30,1,423,Borough Hall,-73.990151,40.692404,2877.0
12:07:30,1,501,Eastchester-Dyre Av,-73.830834,40.8883,4072.5
12:07:30,1,502,Baychester Av,-73.838591,40.878663,3922.5
12:07:30,1,503,Gun Hill Rd,-73.846384,40.869526,3772.5
12:07:30,1,504,Pelham Pkwy,-73.855359,40.858985,3622.5
12:07:30,1,505,Morris Park,-73.860495,40.854364,3532.5
13:47:30,1,601,Pelham Bay Park,-73.828121,40.852462,4322.261910438538
13:47:30,1,602,Buhre Av,-73.832569,40.84681,4102.561910438537
13:47:30,1,603,Middletown Rd,-73.836322,40.843863,4020.5619104385373
13:47:30,1,604,Westchester Sq-E Tremont Av,-73.842952,40.839892,3832.3428585052493
13:47:30,1,606,Zerega Av,-73.847036,40.836488,3714.3428585052493
13:47:30,1,607,Castle Hill Av,-73.851222,40.834255,3632.442858505249
12:53:30,1,608,Parkchester,-73.860816,40.833226,3305.642858505249
12:53:30,1,609,St Lawrence Av,-73.867618,40.831509,3583.187170696259
12:53:30,1,610,Morrison Av-Soundview,-73.874516,40.829521,3450.187170696259
12:53:30,1,611,Elder Av,-73.879159,40.828584,3361.1871706962584
12:53:30,1,612,Whitlock Av,-73.886283,40.826525,3224.187170696259
12:53:30,1,613,Hunts Point Av,-73.890549,40.820948,2953.242858505249
12:53:30,1,614,Longwood Av,-73.896435,40.816104,3121.851553535462
12:07:30,1,615,E 149 St,-73.904098,40.812118,2993.851553535462
12:07:30,1,616,E 143 St-St Mary's St,-73.907657,40.808719,2903.851553535462
12:07:30,1,617,Cypress Av,-73.914042,40.805368,2784.851553535462
12:07:30,1,618,Brook Av,-73.91924,40.807566,2705.851553535462
12:53:30,1,619,3 Av-138 St,-73.926138,40.810476,2549.242858505249
12:53:30,1,621,125 St,-73.937594,40.804138,2077.5
12:07:30,1,622,116 St,-73.941617,40.798629,2202.7999999999997
12:07:30,1,623,110 St,-73.94425,40.79502,2106.6
12:07:30,1,624,103 St,-73.947478,40.7906,2016.6
12:07:30,1,625,96 St,-73.95107,40.785672,1911.7
12:53:30,1,626,86 St,-73.955589,40.779492,1707.0
13:47:30,1,627,77 St,-73.959874,40.77362,1685.1000000000001
13:47:30,1,628,68 St-Hunter College,-73.96387,40.768141,1571.4126996994019
12:17:30,1,629,59 St,-73.967967,40.762526,1455.0
13:47:30,1,630,51 St,-73.97192,40.757107,1428.9852807608518
12:33:30,1,631,Grand Central-42 St,-73.976848,40.751776,1572.9852807608515
12:33:30,1,632,33 St,-73.982076,40.746081,1717.44012428197
12:33:30,1,633,28 St,-73.984264,40.74307,1795.44012428197
12:33:30,1,634,23 St,-73.986599,40.739864,1875.4401242819697
13:47:30,1,635,14 St-Union Sq,-73.989951,40.734673,1902.0
12:33:30,1,636,Astor Pl,-73.99107,40.730054,2128.909090909091
12:33:30,1,637,Bleecker St,-73.994659,40.725915,2236.909090909091
12:33:30,1,638,Spring St,-73.997141,40.722301,2328.909090909091
13:47:30,1,639,Canal St,-74.000193,40.718803,2420.5
13:47:30,1,640,Brooklyn Bridge-City Hall,-74.004131,40.713065,2239.5
12:03:30,1,701,Flushing-Main St,-73.83003,40.7596,1416.6608873844148
12:03:30,1,702,Mets-Willets Point,-73.845625,40.754622,1224.9153707708633
12:03:30,1,705,111 St,-73.855334,40.75173,1106.7725136280062
12:03:30,1,706,103 St-Corona Plaza,-73.8627,40.749865,1017.7725136280061
12:03:30,1,707,Junction Blvd,-73.869527,40.749145,857.772513628006
12:03:30,1,708,90 St-Elmhurst Av,-73.876613,40.748408,774.772513628006
12:03:30,1,709,82 St-Jackson Hts,-73.883697,40.747659,598.772513628006
12:03:30,1,710,74 St-Broadway,-73.891394,40.746848,420.9574484825134
12:03:30,1,711,69 St,-73.896403,40.746325,567.9574484825134
12:03:30,1,712,61 St-Woodside,-73.902984,40.74563,671.9574484825134
12:03:30,1,713,52 St,-73.912549,40.744149,775.9574484825135
12:03:30,1,714,46 St-Bliss St,-73.918435,40.743132,845.9574484825134
12:03:30,1,715,40 St-Lowery St,-73.924016,40.743781,924.3574484825135
12:03:30,1,716,33 St-Rawson St,-73.930997,40.744587,1032.3574484825135
13:47:30,1,718,Queensboro Plaza,-73.940202,40.750582,1210.9126236061436
12:03:30,1,719,Court Sq,-73.945264,40.747023,1110.0126236061435
13:47:30,1,720,Hunters Point Av,-73.948916,40.742216,1212.4126236061436
13:47:30,1,721,Vernon Blvd-Jackson Av,-73.953581,40.742626,1258.7126236061436
13:47:30,1,723,Grand Central-42 St,-73.976041,40.751431,1471.4126236061438
13:23:30,1,724,5 Av,-73.981963,40.753821,1559.4126236061436
12:03:30,1,725,Times Sq-42 St,-73.987691,40.755477,1646.8126236061437
12:03:30,1,726,34 St-Hudson Yards,-74.00191,40.755882,1776.8126236061437
13:23:30,1,901,Grand Central-42 St,-73.979189,40.752769,1595.0126236061435
13:23:30,1,902,Times Sq-42 St,-73.986229,40.755983,1712.0126236061435
13:53:30,0,A02,Inwood-207 St,-73.919899,40.868072,3864.4157925605778
13:53:30,0,A03,Dyckman St,-73.927271,40.865491,3744.4157925605773
13:53:30,0,A05,190 St,-73.93418,40.859022,3579.4157925605773
13:53:30,0,A06,181 St,-73.937969,40.851695,3454.415792560577
13:53:30,0,A07,175 St,-73.939704,40.847391,3334.415792560577
12:03:30,0,A09,168 St,-73.939561,40.840719,3162.615792560577
12:07:30,0,A10,163 St-Amsterdam Av,-73.939892,40.836013,3154.3578962802885
12:07:30,0,A11,155 St,-73.941514,40.830518,3003.731957435608
12:07:30,0,A12,145 St,-73.944216,40.824783,2854.3578962802885
12:07:30,0,A14,135 St,-73.947649,40.817894,2729.3578962802885
13:17:30,0,A15,125 St,-73.952343,40.811109,2521.6
12:07:30,0,A16,116 St,-73.954882,40.805085,2686.7578962802886
12:03:30,0,A17,Cathedral Pkwy (110 St),-73.958161,40.800603,2712.2999999999997
12:03:30,0,A18,103 St,-73.961454,40.796092,2596.3
12:03:30,0,A19,96 St,-73.964696,40.791642,2478.3
12:03:30,0,A20,86 St,-73.968916,40.785868,2358.3
12:03:30,0,A21,81 St-Museum of Natural History,-73.972143,40.781433,2238.3
12:03:30,0,A22,72 St,-73.97641,40.775594,2118.3
13:17:30,0,A24,59 St-Columbus Circle,-73.981736,40.768296,1938.3
13:47:30,0,A25,50 St,-73.985984,40.762456,1762.7677268390528
13:33:30,0,A27,42 St-Port Authority Bus Terminal,-73.989735,40.757308,1832.0126236061435
13:47:30,0,A28,34 St-Penn Station,-73.993391,40.752287,1957.0126236061433
13:47:30,0,A30,23 St,-73.998041,40.745906,2077.0126236061433
13:47:30,0,A31,14 St,-74.00169,40.740893,2143.0126236061433
13:47:30,0,A32,W 4 St-Wash Sq,-74.000495,40.732338,2115.0
13:47:30,0,A33,Spring St,-74.003739,40.726227,2240.0
13:33:30,0,A34,Canal St,-74.005229,40.720824,2312.3214287757874
13:33:30,0,A36,Chambers St,-74.008585,40.714111,2467.3214287757874
13:33:30,0,A38,Fulton St,-74.007691,40.710197,2588.9999992847443
13:33:30,0,A40,High St,-73.990531,40.699337,2808.7999992847444
12:23:30,0,A41,Jay St-MetroTech,-73.987342,40.692338,2610.0
12:07:30,1,A42,Hoyt-Schermerhorn Sts,-73.985001,40.688484,2603.0126236061433
12:07:30,1,A43,Lafayette Av,-73.973946,40.686113,3000.608369884906
12:07:30,1,A44,Clinton-Washington Avs,-73.965838,40.683263,3115.608369884906
12:07:30,1,A45,Franklin Av,-73.956848,40.68138,3235.608369884906
12:07:30,1,A46,Nostrand Av,-73.950426,40.680438,3245.403927383838
12:07:30,0,A47,Kingston-Throop Avs,-73.940858,40.679921,3366.503927383838
12:07:30,0,A48,Utica Av,-73.930729,40.679364,3319.75
12:07:30,0,A49,Ralph Av,-73.920786,40.678822,3199.75
12:07:30,0,A50,Rockaway Av,-73.911946,40.67834,3079.75
12:57:30,0,A51,Broadway Junction,-73.905316,40.678334,2961.75
12:06:30,1,A52,Liberty Av,-73.896548,40.674542,3136.7499999999995
12:06:30,1,A53,Van Siclen Av,-73.890358,40.67271,3256.7499999999995
12:06:30,1,A54,Shepherd Av,-73.88075,40.67413,3376.7499999999995
13:06:30,1,A55,Euclid Av,-73.872106,40.675377,3481.7859678268433
13:06:30,1,A57,Grant Av,-73.86505,40.677044,3639.5891300201415
13:06:30,1,A59,80 St,-73.858992,40.679371,3768.785967826843
13:06:30,1,A60,88 St,-73.85147,40.679843,3889.5891300201415
13:06:30,1,A61,Rockaway Blvd,-73.843853,40.680429,4009.785967826843
12:34:00,1,A63,104 St,-73.837683,40.681711,4129.785967826843
12:34:00,1,A64,111 St,-73.832163,40.684331,4249.785967826843
12:34:00,1,A65,Ozone Park-Lefferts Blvd,-73.825798,40.685951,4356.789130020142
12:23:30,0,B04,21 St-Queensbridge,-73.942836,40.754203,810.0
12:23:30,0,B06,Roosevelt Island,-73.95326,40.759145,960.0
12:23:30,0,B08,Lexington Av/63 St,-73.966113,40.764629,1110.0
12:23:30,0,B10,57 St,-73.97745,40.763972,1260.0
12:07:30,0,B12,9 Av,-73.994324,40.646292,3995.0000000000005
12:07:30,0,B13,Fort Hamilton Pkwy,-73.994304,40.640914,4185.000000000001
12:07:30,0,B14,50 St,-73.994791,40.63626,4305.000000000001
12:07:30,0,B15,55 St,-73.995476,40.631435,4425.000000000001
12:07:30,0,B16,62 St,-73.996895,40.626472,4559.060746192932
12:07:30,0,B17,71 St,-73.998864,40.619589,4679.060746192932
12:07:30,0,B18,79 St,-74.00061,40.613501,4802.060746192931
12:07:30,0,B19,18 Av,-74.001736,40.607954,4917.060746192932
12:07:30,0,B20,20 Av,-73.998168,40.604556,5032.060746192932
12:07:30,0,B21,Bay Pkwy,-73.993728,40.601875,5142.060746192932
13:47:30,0,B22,25 Av,-73.986829,40.597704,5297.0
13:47:30,0,B23,Bay 50 St,-73.983765,40.588841,5120.0
12:07:30,0,D01,Norwood-205 St,-73.878855,40.874811,4229.599999999999
12:07:30,0,D03,Bedford Park Blvd,-73.887138,40.873244,4001.5999999999995
12:07:30,0,D04,Kingsbridge Rd,-73.893509,40.866978,3861.6
12:07:30,0,D05,Fordham Rd,-73.897749,40.861296,3741.6
12:07:30,0,D06,182-183 Sts,-73.900741,40.856093,3669.6
13:17:30,0,D07,Tremont Av,-73.905227,40.85041,3556.6
13:17:30,0,D08,174-175 Sts,-73.910136,40.8459,3472.9079476356505
13:17:30,0,D09,170 St,-73.9134,40.839306,3351.5079476356505
13:17:30,0,D10,167 St,-73.91844,40.833771,3228.5079476356505
13:17:30,0,D11,161 St-Yankee Stadium,-73.925651,40.827905,3098.507947635651
13:17:30,0,D12,155 St,-73.938209,40.830135,3029.5999999999995
13:17:30,0,D13,145 St,-73.944216,40.824783,2771.5999999999995
13:47:30,0,D14,7 Av,-73.981637,40.762862,1625.0126236061435
12:23:30,0,D15,47-50 Sts-Rockefeller Ctr,-73.981329,40.758663,1350.0
12:23:30,0,D16,42 St-Bryant Pk,-73.984569,40.754222,1440.0
12:23:30,0,D17,34 St-Herald Sq,-73.987823,40.749719,1530.0
12:23:30,0,D18,23 St,-73.992821,40.742878,1650.0
12:23:30,0,D19,14 St,-73.996209,40.738228,1755.0
12:03:30,0,D20,W 4 St-Wash Sq,-74.000495,40.732338,1875.0
12:03:30,0,D21,Broadway-Lafayette St,-73.996204,40.725297,2040.0
12:03:30,0,D22,Grand St,-73.993753,40.718267,2329.0
13:23:30,0,D24,Atlantic Av-Barclays Ctr,-73.97689,40.68446,3110.0
13:23:30,0,D25,7 Av,-73.972367,40.67705,3290.0
13:23:30,0,D26,Prospect Park,-73.962246,40.661614,3581.8
13:23:30,0,D27,Parkside Av,-73.961495,40.655292,3730.8
12:23:30,0,D28,Church Av,-73.962982,40.650527,3765.7999999999997
13:23:30,0,D29,Beverley Rd,-73.964492,40.644031,3914.4904776096337
13:23:30,0,D30,Cortelyou Rd,-73.963891,40.640927,4029.490477609634
12:23:30,0,D31,Newkirk Plaza,-73.962793,40.635082,3985.7999999999997
12:53:30,0,D32,Avenue H,-73.961639,40.62927,4140.120000886916
12:53:30,0,D33,Avenue J,-73.960803,40.625039,4261.120000886916
12:53:30,0,D34,Avenue M,-73.959399,40.617618,4389.120000886916
12:23:30,0,D35,Kings Hwy,-73.957734,40.60867,4329.3
13:43:30,0,D37,Avenue U,-73.955929,40.5993,4574.3103120803835
13:43:30,0,D38,Neck Rd,-73.955161,40.595246,4729.510312080383
12:23:30,0,D39,Sheepshead Bay,-73.954155,40.586896,4669.040001773834
13:43:30,0,D40,Brighton Beach,-73.961376,40.577621,4849.040001773834
13:43:30,0,D41,Ocean Pkwy,-73.968501,40.576312,5029.140001773833
13:43:30,0,D42,W 8 St-NY Aquarium,-73.975939,40.576127,4643.4
13:43:30,0,D43,Coney Island-Stillwell Av,-73.981233,40.577422,4777.9
13:47:30,0,E01,World Trade Center,-74.009781,40.712582,2551.428570508957
12:44:00,0,F01,Jamaica-179 St,-73.783817,40.712646,1233.75
13:50:00,0,F02,169 St,-73.793604,40.71047,1143.75
12:44:00,0,F03,Parsons Blvd,-73.803326,40.707564,1023.75
12:44:00,0,F04,Sutphin Blvd,-73.810708,40.70546,933.75
12:44:00,0,F05,Briarwood,-73.820574,40.709179,813.75
12:06:30,0,F06,Kew Gardens-Union Tpke,-73.831008,40.714441,693.75
12:44:00,0,F07,75 Av,-73.837324,40.718331,603.75
13:47:30,0,F09,Court Sq-23 St,-73.946,40.747846,990.0126236061435
13:47:30,0,F11,Lexington Av/53 St,-73.969055,40.757552,1193.509090909091
13:47:30,0,F12,5 Av/53 St,-73.975224,40.760167,1291.3878787878787
12:23:30,0,F14,2 Av,-73.989938,40.723402,2130.0
12:23:30,0,F15,Delancey St-Essex St,-73.988114,40.718611,2250.0
12:23:30,0,F16,East Broadway,-73.990173,40.713715,2340.0
12:23:30,0,F18,York St,-73.986751,40.701397,2520.0
12:07:30,1,F20,Bergen St,-73.990862,40.686145,2848.0126236061433
12:07:30,1,F21,Carroll St,-73.995048,40.680303,2973.0126236061437
12:07:30,1,F22,Smith-9 Sts,-73.995959,40.67358,3158.0126236061437
12:07:30,1,F23,4 Av-9 St,-73.989779,40.670272,3203.1651389598846
12:07:30,1,F24,7 Av,-73.980305,40.666271,3030.0
12:07:30,1,F25,15 St-Prospect Park,-73.979493,40.660365,3203.1651389598846
12:07:30,1,F26,Fort Hamilton Pkwy,-73.975776,40.650782,3443.1651389598846
12:07:30,1,F27,Church Av,-73.979678,40.644041,3270.0
12:23:30,0,F29,Ditmas Av,-73.978172,40.636119,3390.0
12:23:30,0,F30,18 Av,-73.976971,40.629755,3510.0
12:23:30,0,F31,Avenue I,-73.976127,40.625322,3570.0
12:23:30,0,F32,Bay Pkwy,-73.975264,40.620769,3630.0
12:23:30,0,F33,Avenue N,-73.974197,40.61514,3750.0
12:23:30,0,F34,Avenue P,-73.973022,40.608944,3840.0
12:23:30,0,F35,Kings Hwy,-73.972361,40.603217,4125.0
13:07:30,0,F36,Avenue U,-73.973357,40.596063,4245.9
12:23:30,0,F38,Avenue X,-73.97425,40.58962,4365.9
12:23:30,0,F39,Neptune Av,-73.974574,40.581011,4518.400000000001
12:06:30,0,G05,Jamaica Center-Parsons/Archer,-73.801109,40.702147,1401.75
12:06:30,0,G06,Sutphin Blvd-Archer Av-JFK Airport,-73.807969,40.700486,1271.75
12:06:30,0,G07,Jamaica-Van Wyck,-73.816859,40.702566,1095.75
12:04:30,0,G08,Forest Hills-71 Av,-73.844521,40.721691,423.75
12:04:30,0,G09,67 Av,-73.852719,40.726523,303.75
12:04:30,0,G10,63 Dr-Rego Park,-73.861604,40.729846,210.0
12:04:30,0,G11,Woodhaven Blvd,-73.869229,40.733106,118.5
12:03:30,0,G12,Grand Av-Newtown,-73.877223,40.737015,0.0
12:03:30,0,G13,Elmhurst Av,-73.882017,40.742454,90.0
12:03:30,0,G14,Jackson Hts-Roosevelt Av,-73.891338,40.746644,210.0
12:03:30,0,G15,65 St,-73.898453,40.749669,300.0
12:03:30,0,G16,Northern Blvd,-73.906006,40.752885,394.3298969072165
12:03:30,0,G18,46 St,-73.913333,40.756312,484.3298969072165
12:03:30,0,G19,Steinway St,-73.92074,40.756879,601.2371134020618
12:03:30,0,G20,36 St,-73.928781,40.752039,721.2371134020618
13:47:30,0,G21,Queens Plaza,-73.937243,40.748973,866.645276667368
12:27:30,1,G22,Court Sq,-73.943832,40.746554,1050.0126236061435
12:07:30,1,G24,21 St,-73.949724,40.744065,1170.0126236061435
12:07:30,1,G26,Greenpoint Av,-73.954449,40.731352,1345.0126236061437
12:07:30,1,G28,Nassau Av,-73.951277,40.724635,1470.0126236061435
12:07:30,1,G29,Metropolitan Av,-73.951418,40.712792,1655.0126236061435
12:07:30,1,G30,Broadway,-73.950308,40.706092,1773.0126236061433
12:07:30,1,G31,Flushing Av,-73.950234,40.700377,1893.0126236061433
12:07:30,1,G32,Myrtle-Willoughby Avs,-73.949046,40.694568,2010.0126236061433
12:07:30,1,G33,Bedford-Nostrand Avs,-73.953522,40.689627,2130.0126236061433
12:07:30,1,G34,Classon Av,-73.96007,40.688873,2245.0126236061433
12:07:30,1,G35,Clinton-Washington Avs,-73.966839,40.688089,2358.0126236061433
12:07:30,1,G36,Fulton St,-73.975375,40.687119,2478.0126236061433
13:06:30,1,H01,Aqueduct Racetrack,-73.834058,40.668234,4251.785967826843
13:06:30,1,H02,Aqueduct-N Conduit Av,-73.834058,40.668234,4241.889130020142
13:06:30,1,H03,Howard Beach-JFK Airport,-73.830301,40.660476,4417.889130020142
13:06:30,1,H04,Broad Channel,-73.815925,40.608382,5042.685967826843
13:06:30,1,H06,Beach 67 St,-73.796924,40.590927,5436.589130020142
13:06:30,1,H07,Beach 60 St,-73.788522,40.592374,5561.589130020142
13:06:30,1,H08,Beach 44 St,-73.776013,40.592943,5692.589130020142
13:06:30,1,H09,Beach 36 St,-73.768175,40.595398,5812.589130020142
13:06:30,1,H10,Beach 25 St,-73.761353,40.600066,5978.389130020142
13:06:30,1,H11,Far Rockaway-Mott Av,-73.755405,40.603995,6102.389130020142
13:36:30,1,H12,Beach 90 St,-73.813641,40.588034,5389.485967826843
13:36:30,1,H13,Beach 98 St,-73.820558,40.585307,5512.485967826843
13:36:30,1,H14,Beach 105 St,-73.827559,40.583209,5606.889130020143
13:36:30,1,H15,Rockaway Park-Beach 116 St,-73.835592,40.580903,5720.889130020143
13:06:30,0,J12,121 St,-73.828294,40.700492,1709.55
13:06:30,0,J13,111 St,-73.836345,40.697418,1821.75
13:06:30,0,J14,104 St,-73.84433,40.695178,1936.3500000000001
13:06:30,0,J15,Woodhaven Blvd,-73.851576,40.693879,2031.7499999999998
13:06:30,0,J16,85 St-Forest Pkwy,-73.86001,40.692435,2379.9318187236786
13:06:30,0,J17,75 St-Elderts Ln,-73.867139,40.691324,2211.75
13:06:30,0,J19,Cypress Hills,-73.87255,40.689941,2571.75
13:06:30,0,J20,Crescent St,-73.873785,40.683194,2361.75
13:06:30,0,J21,Norwood Av,-73.880039,40.68141,2451.75
13:06:30,0,J22,Cleveland St,-73.884639,40.679947,2778.0833325386047
13:06:30,0,J23,Van Siclen Av,-73.891688,40.678024,2601.75
13:06:30,0,J24,Alabama Av,-73.898654,40.676992,2661.75
13:06:30,0,J27,Broadway Junction,-73.904512,40.679498,2751.75
13:06:30,0,J28,Chauncey St,-73.910456,40.682893,2811.75
13:06:30,0,J29,Halsey St,-73.916559,40.68637,3156.75
13:06:30,0,J30,Gates Av,-73.92227,40.68963,2961.75
13:06:30,0,J31,Kosciuszko St,-73.928814,40.693342,3333.191174507141
12:23:30,1,L01,8 Av,-74.002578,40.739777,2115.0
13:47:30,1,L02,6 Av,-73.996786,40.737335,1980.0
12:13:30,1,L03,14 St-Union Sq,-73.99073,40.734789,2098.0
12:13:30,1,L05,3 Av,-73.986122,40.732849,2189.9
12:13:30,1,L06,1 Av,-73.981628,40.730953,2219.985595999179
12:07:30,2,L08,Bedford Av,-73.956872,40.717304,2008.9855959991792
12:07:30,2,L10,Lorimer St,-73.950275,40.714063,1922.9855959991794
12:07:30,2,L11,Graham Av,-73.944053,40.714565,1978.7855959991793
12:07:30,2,L12,Grand St,-73.94067,40.711926,2078.7855959991793
12:07:30,2,L13,Montrose Av,-73.93985,40.707739,2126.785595999179
12:07:30,2,L14,Morgan Av,-73.933147,40.706152,2218.785595999179
12:07:30,2,L15,Jefferson St,-73.922913,40.706607,2323.985595999179
12:07:30,2,L16,DeKalb Av,-73.918425,40.703811,2402.985595999179
12:07:30,2,L17,Myrtle-Wyckoff Avs,-73.911586,40.699814,2498.9855959991796
12:07:30,2,L19,Halsey St,-73.904084,40.695602,2573.9855959991796
12:07:30,2,L20,Wilson Av,-73.904046,40.688764,2709.985595999179
12:07:30,2,L21,Bushwick Av-Aberdeen St,-73.905249,40.682829,2823.985595999179
12:07:30,2,L22,Broadway Junction,-73.90324,40.678856,2918.0855959991795
12:06:30,1,L24,Atlantic Av,-73.903097,40.675345,3083.1888883590696
12:06:30,1,L25,Sutter Av,-73.901975,40.669367,3183.1888883590696
12:06:30,1,L26,Livonia Av,-73.900571,40.664038,3278.0855959991795
12:06:30,1,L27,New Lots Av,-73.899232,40.658733,3354.8855959991797
12:06:30,1,L28,East 105 St,-73.899485,40.650573,3508.8855959991797
12:06:30,1,L29,Canarsie-Rockaway Pkwy,-73.90185,40.646654,3717.188888359069
13:17:30,3,M01,Middle Village-Metropolitan Av,-73.889601,40.711396,3208.3855959991797
12:57:30,3,M04,Fresh Pond Rd,-73.895877,40.706186,3076.3855959991797
13:17:30,3,M05,Forest Av,-73.903077,40.704423,2965.3855959991793
12:57:30,3,M06,Seneca Av,-73.90774,40.702762,2845.3855959991793
13:03:30,0,M08,Myrtle-Wyckoff Avs,-73.912385,40.69943,2723.9855959991796
12:37:30,3,M09,Knickerbocker Av,-73.919711,40.698664,2843.9855959991796
13:03:30,0,M10,Central Av,-73.927397,40.697857,2981.985595999179
12:33:30,0,M11,Myrtle Av,-73.935657,40.697207,3141.75
12:33:30,0,M12,Flushing Av,-73.941126,40.70026,3259.4
12:33:30,0,M13,Lorimer St,-73.947408,40.703869,3134.4
12:33:30,0,M14,Hewes St,-73.953431,40.70687,3014.4
12:33:30,0,M16,Marcy Av,-73.957757,40.708359,2909.4
12:33:30,0,M18,Delancey St-Essex St,-73.987437,40.718315,2490.0
13:23:30,1,M19,Bowery,-73.993915,40.72028,2600.3
12:57:30,1,M20,Canal St,-73.999892,40.718092,2479.5
12:57:30,1,M21,Chambers St,-74.003401,40.713243,2359.5
12:57:30,1,M22,Fulton St,-74.007582,40.710374,2479.5
12:57:30,1,M23,Broad St,-74.011056,40.706476,2547.5
13:13:30,0,N02,8 Av,-74.011719,40.635064,4215.060746192932
13:13:30,0,N03,Fort Hamilton Pkwy,-74.005351,40.631386,4391.460746192932
13:13:30,0,N04,New Utrecht Av,-73.996353,40.624842,4545.960746192932
13:13:30,0,N05,18 Av,-73.990414,40.620671,4652.960746192932
13:13:30,0,N06,20 Av,-73.985026,40.61741,4727.960746192932
13:13:30,0,N07,Bay Pkwy,-73.981848,40.611815,4882.960746192932
13:13:30,0,N08,Kings Hwy,-73.980353,40.603923,5035.060746192932
13:13:30,0,N09,Avenue U,-73.979137,40.597473,5168.060746192932
13:13:30,0,N10,86 St,-73.97823,40.592721,5103.3
13:23:30,0,Q01,Canal St,-74.00046,40.718383,2291.0
12:13:30,0,Q03,72 St,-73.958424,40.768799,1611.3999999999999
12:13:30,0,Q04,86 St,-73.951787,40.777891,1790.0
12:13:30,0,Q05,96 St,-73.947152,40.784318,1910.0
12:03:30,2,R01,Astoria-Ditmars Blvd,-73.912034,40.775036,2091.4049317936283
12:03:30,2,R03,Astoria Blvd,-73.917843,40.770258,1976.4049317936285
12:03:30,2,R04,30 Av,-73.921479,40.766779,1852.4049317936285
12:03:30,2,R05,Broadway,-73.925508,40.76182,1732.4049317936285
12:03:30,2,R06,36 Av,-73.929575,40.756804,1602.4049317936285
12:03:30,2,R08,39 Av-Dutch Kills,-73.932755,40.752882,1457.6049317936283
13:47:30,0,R09,Queensboro Plaza,-73.940202,40.750582,1262.6049317936283
13:47:30,0,R11,Lexington Av/59 St,-73.967258,40.76266,1459.9090898036957
13:47:30,0,R13,5 Av/59 St,-73.973347,40.764811,1579.9090898036957
13:23:30,0,R14,57 St-7 Av,-73.980658,40.764664,1665.0
13:07:30,0,R15,49 St,-73.984139,40.759901,1805.0
13:23:30,0,R16,Times Sq-42 St,-73.986754,40.754672,1832.0126236061435
13:23:30,0,R17,34 St-Herald Sq,-73.98795,40.749567,1755.0
12:07:30,0,R18,28 St,-73.988691,40.745494,1865.0
12:07:30,0,R19,23 St,-73.989344,40.741303,1980.0
13:23:30,0,R20,14 St-Union Sq,-73.990568,40.735736,1978.6
12:07:30,0,R21,8 St-NYU,-73.992629,40.730328,2225.0
12:07:30,0,R22,Prince St,-73.997702,40.724329,2375.0
12:07:30,0,R23,Canal St,-74.001775,40.719527,2498.0
12:07:30,0,R24,City Hall,-74.006978,40.713282,2673.0
12:07:30,0,R25,Cortlandt St,-74.011029,40.710668,2611.428570508957
12:07:30,0,R26,Rector St,-74.013342,40.70722,2761.428570508957
12:07:30,0,R27,Whitehall St-South Ferry,-74.012994,40.703087,2881.428570508957
12:57:30,0,R28,Court St,-73.991777,40.6941,2860.2000000000003
12:57:30,0,R29,Jay St-MetroTech,-73.985942,40.69218,2745.0
13:23:30,0,R30,DeKalb Av,-73.981824,40.690635,2842.5
12:07:30,0,R31,Atlantic Av-Barclays Ctr,-73.97881,40.683666,3037.5
12:07:30,0,R32,Union St,-73.98311,40.677316,3216.1
12:07:30,0,R33,4 Av-9 St,-73.988302,40.670847,3350.4
12:07:30,0,R34,Prospect Av,-73.992872,40.665414,3485.4
12:07:30,0,R35,25 St,-73.998091,40.660397,3609.1
12:07:30,0,R36,36 St,-74.003549,40.655144,3574.5
12:07:30,0,R39,45 St,-74.010006,40.648939,3825.060746192932
12:07:30,0,R40,53 St,-74.014034,40.645069,3945.0607461929326
13:13:30,0,R41,59 St,-74.017881,40.641362,3999.060746192932
12:07:30,0,R42,Bay Ridge Av,-74.023377,40.634967,4179.601286411285
12:07:30,0,R43,77 St,-74.02551,40.629742,4294.601286411285
12:07:30,0,R44,86 St,-74.028398,40.622687,4513.366299629211
12:07:30,0,R45,Bay Ridge-95 St,-74.030876,40.616622,4633.366299629211
12:23:30,0,S01,Franklin Av,-73.955827,40.680596,3295.608369884906
12:23:30,0,S03,Park Pl,-73.957624,40.674772,3430.008369884906
12:23:30,0,S04,Botanic Garden,-73.959245,40.670343,3601.608369884906
