start_time,ntransfers,stop_id,stop_name,stop_lon,stop_lat,duration
12:19:30,1,101,Van Cortlandt Park-242 St,-73.898583,40.889248,3823.746505391959
12:19:30,1,103,238 St,-73.90087,40.884667,3657.7465053919595
12:19:30,1,104,231 St,-73.904834,40.878856,3531.552916038398
12:19:30,1,106,Marble Hill-225 St,-73.909831,40.874561,3421.5529160383976
12:19:30,1,107,215 St,-73.915279,40.869444,3268.346505391959
12:19:30,1,108,207 St,-73.918822,40.864621,3175.5529160383976
12:19:30,1,109,Dyckman St,-73.925536,40.860531,3054.5529160383976
12:19:30,1,110,191 St,-73.929412,40.855225,2947.5529160383976
12:19:30,1,111,181 St,-73.933596,40.849505,2836.5529160383976
12:35:30,1,112,168 St-Washington Hts,-73.940133,40.840556,2701.5529160383976
13:49:30,1,113,157 St,-73.94489,40.834041,2686.804189002757
12:35:30,1,114,145 St,-73.95036,40.826551,2556.804189002757
12:35:30,1,115,137 St-City College,-73.953676,40.822008,2442.8041890027575
12:35:30,1,116,125 St,-73.958372,40.815581,2321.5128541556273
12:35:30,1,117,116 St-Columbia University,-73.96411,40.807722,2157.0041890027574
12:35:30,1,118,Cathedral Pkwy (110 St),-73.966847,40.803967,2072.0041890027574
12:35:30,1,119,103 St,-73.968379,40.799446,1984.0041890027574
12:35:30,1,120,96 St,-73.972323,40.793919,1603.94012428197
13:15:30,1,121,86 St,-73.976218,40.788644,1720.9041890027574
13:15:30,1,122,79 St,-73.979917,40.783934,1625.512854155627
12:35:30,1,123,72 St,-73.98197,40.778453,1386.2401242819699
12:19:30,1,124,66 St-Lincoln Center,-73.982209,40.77344,1451.2401242819697
12:25:30,1,125,59 St-Columbus Circle,-73.981929,40.768247,1357.2401242819699
12:25:30,1,126,50 St,-73.983849,40.761728,1229.2401242819699
12:35:30,1,127,Times Sq-42 St,-73.987495,40.75529,1101.2401242819699
12:05:30,1,128,34 St-Penn Station,-73.991057,40.750373,1230.2401242819697
12:05:30,1,129,28 St,-73.993365,40.747215,1328.2401242819699
12:05:30,1,130,23 St,-73.995657,40.744081,1407.2401242819699
12:05:30,1,131,18 St,-73.997871,40.74104,1484.24012428197
12:25:30,1,132,14 St,-74.000201,40.737826,1422.7401242819697
12:05:30,1,133,Christopher St-Sheridan Sq,-74.002906,40.733422,1677.6430432134748
12:05:30,1,134,Houston St,-74.005367,40.728251,1781.6430432134748
12:05:30,1,135,Canal St,-74.006277,40.722854,1894.2401242819699
13:45:30,1,136,Franklin St,-74.006886,40.719318,1969.24012428197
12:25:30,1,137,Chambers St,-74.009266,40.715478,1718.7401242819697
13:45:30,1,138,WTC Cortlandt,-74.012188,40.711835,2016.994222935763
13:45:30,1,139,Rector St,-74.013783,40.707513,2118.994222935763
13:45:30,1,142,South Ferry,-74.013664,40.702068,2261.994222935763
12:25:30,1,201,Wakefield-241 St,-73.85062,40.903125,4367.470156431199
12:25:30,1,204,Nereid Av,-73.854376,40.898379,4106.828004598618
12:25:30,1,205,233 St,-73.857473,40.893193,3949.2280045986176
12:25:30,1,206,225 St,-73.860341,40.888022,3849.228004598617
12:25:30,1,207,219 St,-73.862633,40.883895,3764.0280045986174
12:25:30,1,208,Gun Hill Rd,-73.866256,40.87785,3648.7280045986176
12:25:30,1,209,Burke Av,-73.867164,40.871356,3659.4701564311986
12:25:30,1,210,Allerton Av,-73.867352,40.865462,3556.4701564311986
12:25:30,1,211,Pelham Pkwy,-73.867615,40.857192,3431.470156431198
12:25:30,1,212,Bronx Park East,-73.868457,40.848828,3292.470156431198
12:25:30,1,213,E 180 St,-73.873488,40.841894,2797.4090898036957
12:25:30,1,214,West Farms Sq-E Tremont Av,-73.880049,40.840295,3126.609089803696
12:25:30,1,215,174 St,-73.887734,40.837288,2977.609089803696
12:25:30,1,216,Freeman St,-73.891865,40.829993,2831.609089803696
12:25:30,1,217,Simpson St,-73.893064,40.824073,2704.609089803696
12:25:30,1,218,Intervale Av,-73.896736,40.822181,2618.609089803696
12:25:30,1,219,Prospect Av,-73.90177,40.819585,2515.609089803696
12:25:30,1,220,Jackson Av,-73.907807,40.81649,2391.609089803696
12:25:30,1,221,3 Av-149 St,-73.917757,40.816109,2071.4090898036957
12:25:30,1,222,149 St-Grand Concourse,-73.926718,40.81841,1951.4090898036955
12:35:30,1,224,135 St,-73.94077,40.814229,2245.6401242819697
12:35:30,1,225,125 St,-73.945495,40.807754,2106.6401242819697
12:35:30,1,226,116 St,-73.949625,40.802098,1993.6401242819697
12:35:30,1,227,Central Park North (110 St),-73.951822,40.799075,1904.94012428197
12:25:30,1,228,Park Place,-74.008811,40.713051,1822.7401242819697
12:25:30,1,229,Fulton St,-74.006571,40.709416,1961.7401242819697
12:15:30,2,230,Wall St,-74.0091,40.706821,2050.7401242819697
12:25:30,1,231,Clark St,-73.993086,40.697466,2259.7401242819697
12:25:30,1,232,Borough Hall,-73.989998,40.693219,2391.74012428197
12:15:30,1,233,Hoyt St,-73.985065,40.690545,2426.927148875323
12:15:30,1,234,Nevins St,-73.980492,40.688246,2286.2401242819697
12:15:30,1,235,Atlantic Av-Barclays Ctr,-73.977666,40.684359,2376.2401242819697
12:15:30,1,236,Bergen St,-73.975098,40.680829,2531.1691312876615
12:15:30,1,237,Grand Army Plaza,-73.971046,40.675235,2643.9271488753225
12:15:30,1,238,Eastern Pkwy-Brooklyn Museum,-73.964375,40.671987,2764.1271488753227
12:15:30,1,239,Franklin Av-Medgar Evers College,-73.958131,40.670682,2704.7401242819697
12:15:30,1,241,President St-Medgar Evers College,-73.950683,40.667883,2880.2401242819697
12:15:30,1,242,Sterling St,-73.95085,40.662742,2971.7401242819697
12:15:30,1,243,Winthrop St,-73.9502,40.656652,3084.2401242819697
12:15:30,1,244,Church Av,-73.949575,40.650843,3180.2401242819697
12:15:30,1,245,Beverly Rd,-73.948959,40.645098,3289.7401242819697
12:15:30,1,246,Newkirk Av-Little Haiti,-73.948411,40.639967,3367.7401242819697
12:15:30,1,247,Flatbush Av-Brooklyn College,-73.947642,40.632836,3505.740124281969
12:15:30,1,248,Nostrand Av,-73.950466,40.669847,2963.428361329165
12:15:30,1,249,Kingston Av,-73.942161,40.669399,3082.2283613291647
12:35:30,1,250,Crown Hts-Utica Av,-73.932942,40.668897,3148.628361329165
12:09:30,1,251,Sutter Av-Rutland Rd,-73.92261,40.664717,3202.9484825971176
12:09:30,1,252,Saratoga Av,-73.916327,40.661453,3083.948482597117
12:39:30,3,253,Rockaway Av,-73.908946,40.662549,2978.8484825971173
12:19:30,3,254,Junius St,-73.902447,40.663515,2886.8484825971177
12:19:30,3,255,Pennsylvania Av,-73.894895,40.664635,2999.5484825971175
12:19:30,3,256,Van Siclen Av,-73.889395,40.665449,3083.548482597117
12:19:30,3,257,New Lots Av,-73.884079,40.666235,3230.048482597118
12:35:30,1,301,Harlem-148 St,-73.93647,40.82388,2722.506281745677
12:35:30,1,302,145 St,-73.936245,40.820421,2482.64012428197
12:05:30,1,401,Woodlawn,-73.878751,40.886037,3647.9090898036943
12:05:30,1,402,Mosholu Pkwy,-73.884655,40.87975,3471.9090898036948
12:05:30,1,405,Bedford Park Blvd-Lehman College,-73.890064,40.873412,3325.9090898036948
12:05:30,1,406,Kingsbridge Rd,-73.897174,40.86776,3188.909089803695
12:05:30,1,407,Fordham Rd,-73.901034,40.862803,3083.909089803695
12:05:30,1,408,183 St,-73.903879,40.858407,2977.909089803695
12:05:30,1,409,Burnside Av,-73.907684,40.853453,2862.909089803695
12:05:30,1,410,176 St,-73.911794,40.84848,2754.909089803695
12:05:30,1,411,Mt Eden Av,-73.914685,40.844434,2655.9090898036957
12:05:30,1,412,170 St,-73.917791,40.840075,2561.909089803695
12:05:30,1,413,167 St,-73.9214,40.835537,2454.909089803695
12:05:30,1,414,161 St-Yankee Stadium,-73.925831,40.827994,2319.6090898036955
12:05:30,1,415,149 St-Grand Concourse,-73.927351,40.818375,2011.6090898036957
12:25:30,1,416,138 St-Grand Concourse,-73.929849,40.813224,1745.9090898036957
12:15:30,1,418,Fulton St,-74.009509,40.710368,1648.7401242819699
12:15:30,1,419,Wall St,-74.011862,40.707557,1747.7401242819697
12:15:30,1,420,Bowling Green,-74.014065,40.704817,1837.7401242819697
12:15:30,1,423,Borough Hall,-73.990151,40.692404,2166.2401242819697
13:45:30,1,501,Eastchester-Dyre Av,-73.830834,40.8883,3547.4090898036957
12:25:30,1,502,Baychester Av,-73.838591,40.878663,3397.4090898036957
12:25:30,1,503,Gun Hill Rd,-73.846384,40.869526,3247.4090898036957
12:25:30,1,504,Pelham Pkwy,-73.855359,40.858985,3097.4090898036957
12:25:30,1,505,Morris Park,-73.860495,40.854364,3007.4090898036957
13:55:30,1,601,Pelham Bay Park,-73.828121,40.852462,3640.52814284238
13:55:30,1,602,Buhre Av,-73.832569,40.84681,3420.8281428423797
13:55:30,1,603,Middletown Rd,-73.836322,40.843863,3338.8281428423797
13:55:30,1,604,Westchester Sq-E Tremont Av,-73.842952,40.839892,3150.6090909090913
13:55:30,1,606,Zerega Av,-73.847036,40.836488,3032.6090909090913
13:55:30,1,607,Castle Hill Av,-73.851222,40.834255,2950.709090909091
12:45:30,1,608,Parkchester,-73.860816,40.833226,2623.909090909091
12:45:30,1,609,St Lawrence Av,-73.867618,40.831509,2901.453403100101
12:45:30,1,610,Morrison Av-Soundview,-73.874516,40.829521,2768.453403100101
12:45:30,1,611,Elder Av,-73.879159,40.828584,2679.4534031001003
12:45:30,1,612,Whitlock Av,-73.886283,40.826525,2542.453403100101
12:45:30,1,613,Hunts Point Av,-73.890549,40.820948,2271.509090909091
12:05:30,1,614,Longwood Av,-73.896435,40.816104,2440.1177859393038
12:05:30,1,615,E 149 St,-73.904098,40.812118,2312.1177859393038
12:05:30,1,616,E 143 St-St Mary's St,-73.907657,40.808719,2222.1177859393038
12:05:30,1,617,Cypress Av,-73.914042,40.805368,2103.1177859393038
12:05:30,1,618,Brook Av,-73.91924,40.807566,2024.1177859393035
12:05:30,1,619,3 Av-138 St,-73.926138,40.810476,1867.5090909090911
12:25:30,1,621,125 St,-73.937594,40.804138,1552.4090898036955
12:25:30,1,622,116 St,-73.941617,40.798629,1514.9090909090912
12:15:30,1,623,110 St,-73.94425,40.79502,1418.7090909090912
12:15:30,1,624,103 St,-73.947478,40.7906,1328.7090909090912
12:15:30,1,625,96 St,-73.95107,40.785672,1223.809090909091
12:25:30,1,626,86 St,-73.955589,40.779492,1114.409090909091
12:15:30,1,627,77 St,-73.959874,40.77362,997.209090909091
12:15:30,1,628,68 St-Hunter College,-73.96387,40.768141,891.1090909090909
12:09:30,1,629,59 St,-73.967967,40.762526,767.1090909090909
12:15:30,1,630,51 St,-73.97192,40.757107,650.7852807608517
12:09:30,1,631,Grand Central-42 St,-73.976848,40.751776,794.7852807608518
12:09:30,1,632,33 St,-73.982076,40.746081,939.2401242819699
12:09:30,1,633,28 St,-73.984264,40.74307,1017.2401242819699
12:09:30,1,634,23 St,-73.986599,40.739864,1097.2401242819699
12:15:30,1,635,14 St-Union Sq,-73.989951,40.734673,1191.2401242819699
12:09:30,1,636,Astor Pl,-73.99107,40.730054,1350.709090909091
12:09:30,1,637,Bleecker St,-73.994659,40.725915,1458.709090909091
12:09:30,1,638,Spring St,-73.997141,40.722301,1550.709090909091
12:15:30,1,639,Canal St,-74.000193,40.718803,1642.5090909090911
12:15:30,1,640,Brooklyn Bridge-City Hall,-74.004131,40.713065,1528.7401242819699
12:05:30,1,701,Flushing-Main St,-73.83003,40.7596,1717.8980007864766
12:05:30,1,702,Mets-Willets Point,-73.845625,40.754622,1526.1524841729251
12:05:30,1,705,111 St,-73.855334,40.75173,1408.009627030068
12:05:30,1,706,103 St-Corona Plaza,-73.8627,40.749865,1319.0096270300678
12:05:30,1,707,Junction Blvd,-73.869527,40.749145,1159.0096270300678
12:05:30,1,708,90 St-Elmhurst Av,-73.876613,40.748408,1076.0096270300678
12:05:30,1,709,82 St-Jackson Hts,-73.883697,40.747659,900.0096270300678
12:01:00,1,710,74 St-Broadway,-73.891394,40.746848,722.1945618845753
12:01:00,1,711,69 St,-73.896403,40.746325,869.1945618845753
12:01:00,1,712,61 St-Woodside,-73.902984,40.74563,973.1945618845753
12:01:00,1,713,52 St,-73.912549,40.744149,949.8755102040815
13:55:30,1,714,46 St-Bliss St,-73.918435,40.743132,885.8755102040815
13:55:30,1,715,40 St-Lowery St,-73.924016,40.743781,818.8755102040815
13:55:30,1,716,33 St-Rawson St,-73.930997,40.744587,686.8755102040815
13:55:30,1,718,Queensboro Plaza,-73.940202,40.750582,489.6755102040817
13:55:30,1,719,Court Sq,-73.945264,40.747023,388.7755102040816
13:55:30,1,720,Hunters Point Av,-73.948916,40.742216,491.1755102040816
13:55:30,1,721,Vernon Blvd-Jackson Av,-73.953581,40.742626,537.4755102040816
12:29:30,1,723,Grand Central-42 St,-73.976041,40.751431,750.1755102040815
13:55:30,1,724,5 Av,-73.981963,40.753821,838.1755102040815
13:55:30,1,725,Times Sq-42 St,-73.987691,40.755477,925.5755102040816
12:05:30,1,726,34 St-Hudson Yards,-74.00191,40.755882,1055.5755102040816
12:05:30,1,901,Grand Central-42 St,-73.979189,40.752769,864.2401242819699
12:15:30,2,902,Times Sq-42 St,-73.986229,40.755983,981.2401242819699
13:49:30,0,A02,Inwood-207 St,-73.919899,40.868072,3177.8637848261633
13:49:30,0,A03,Dyckman St,-73.927271,40.865491,3057.8637848261633
13:49:30,0,A05,190 St,-73.93418,40.859022,2892.8637848261633
13:49:30,0,A06,181 St,-73.937969,40.851695,2767.863784826163
13:49:30,0,A07,175 St,-73.939704,40.847391,2647.863784826163
13:49:30,0,A09,168 St,-73.939561,40.840719,2476.063784826163
13:49:30,0,A10,163 St-Amsterdam Av,-73.939892,40.836013,2467.8058885458745
13:49:30,0,A11,155 St,-73.941514,40.830518,2317.179949701194
13:49:30,0,A12,145 St,-73.944216,40.824783,2167.8058885458745
12:19:30,0,A14,135 St,-73.947649,40.817894,2042.8058885458745
13:25:30,0,A15,125 St,-73.952343,40.811109,1835.0479922655857
12:19:30,0,A16,116 St,-73.954882,40.805085,2000.2058885458744
12:19:30,0,A17,Cathedral Pkwy (110 St),-73.958161,40.800603,2023.8897923079403
12:19:30,0,A18,103 St,-73.961454,40.796092,1907.8897923079403
12:19:30,0,A19,96 St,-73.964696,40.791642,1789.8897923079403
12:19:30,0,A20,86 St,-73.968916,40.785868,1669.8897923079403
12:19:30,0,A21,81 St-Museum of Natural History,-73.972143,40.781433,1549.8897923079403
12:19:30,0,A22,72 St,-73.97641,40.775594,1429.8897923079403
12:19:30,0,A24,59 St-Columbus Circle,-73.981736,40.768296,1249.8897923079403
12:19:30,0,A25,50 St,-73.985984,40.762456,1014.2564585772426
12:19:30,0,A27,42 St-Port Authority Bus Terminal,-73.989735,40.757308,1101.2401242819699
12:19:30,0,A28,34 St-Penn Station,-73.993391,40.752287,1226.2401242819697
12:19:30,0,A30,23 St,-73.998041,40.745906,1346.2401242819697
13:19:30,0,A31,14 St,-74.00169,40.740893,1412.2401242819699
13:19:30,0,A32,W 4 St-Wash Sq,-74.000495,40.732338,1583.2401242819699
12:19:30,0,A33,Spring St,-74.003739,40.726227,1736.2401242819697
13:19:30,0,A34,Canal St,-74.005229,40.720824,1823.2401242819699
13:19:30,0,A36,Chambers St,-74.008585,40.714111,1985.5401242819698
13:19:30,0,A38,Fulton St,-74.007691,40.710197,1878.2401235667141
13:19:30,0,A40,High St,-73.990531,40.699337,2098.0401235667146
12:29:30,1,A41,Jay St-MetroTech,-73.987342,40.692338,2233.1755102040815
12:19:30,1,A42,Hoyt-Schermerhorn Sts,-73.985001,40.688484,1881.7755102040817
12:19:30,1,A43,Lafayette Av,-73.973946,40.686113,2279.3712564828443
12:19:30,1,A44,Clinton-Washington Avs,-73.965838,40.683263,2394.3712564828443
12:19:30,1,A45,Franklin Av,-73.956848,40.68138,2514.3712564828443
13:19:30,1,A46,Nostrand Av,-73.950426,40.680438,2524.166813981776
12:19:30,1,A47,Kingston-Throop Avs,-73.940858,40.679921,2645.266813981776
13:19:30,1,A48,Utica Av,-73.930729,40.679364,2722.366813981776
12:19:30,1,A49,Ralph Av,-73.920786,40.678822,2673.1668698670915
12:19:30,1,A50,Rockaway Av,-73.911946,40.67834,2553.1668698670915
13:19:30,1,A51,Broadway Junction,-73.905316,40.678334,2435.1668698670915
13:19:30,0,A52,Liberty Av,-73.896548,40.674542,2610.166869867091
13:19:30,1,A53,Van Siclen Av,-73.890358,40.67271,2730.166869867091
13:19:30,1,A54,Shepherd Av,-73.88075,40.67413,2850.166869867091
13:19:30,1,A55,Euclid Av,-73.872106,40.675377,2855.1668698670915
13:19:30,1,A57,Grant Av,-73.86505,40.677044,3020.1668698670915
13:19:30,1,A59,80 St,-73.858992,40.679371,3142.166869867091
13:19:30,1,A60,88 St,-73.85147,40.679843,3263.166869867091
13:19:30,1,A61,Rockaway Blvd,-73.843853,40.680429,3383.166869867091
13:19:30,1,A63,104 St,-73.837683,40.681711,3503.166869867091
13:19:30,1,A64,111 St,-73.832163,40.684331,3623.166869867091
13:19:30,1,A65,Ozone Park-Lefferts Blvd,-73.825798,40.685951,3755.1668698670915
12:05:30,0,B04,21 St-Queensbridge,-73.942836,40.754203,1111.2371134020618
12:05:30,0,B06,Roosevelt Island,-73.95326,40.759145,1226.3090898036953
12:25:30,0,B08,Lexington Av/63 St,-73.966113,40.764629,898.1000000000001
13:39:30,0,B10,57 St,-73.97745,40.763972,1134.524558731401
13:55:30,0,B12,9 Av,-73.994324,40.646292,3423.6477334859414
13:55:30,0,B13,Fort Hamilton Pkwy,-73.994304,40.640914,3613.6477334859414
13:55:30,0,B14,50 St,-73.994791,40.63626,3733.6477334859414
13:55:30,0,B15,55 St,-73.995476,40.631435,3853.6477334859414
13:55:30,0,B16,62 St,-73.996895,40.626472,3987.708479678873
13:55:30,0,B17,71 St,-73.998864,40.619589,4107.708479678873
13:55:30,0,B18,79 St,-74.00061,40.613501,4230.708479678873
13:55:30,0,B19,18 Av,-74.001736,40.607954,4345.708479678873
13:55:30,0,B20,20 Av,-73.998168,40.604556,4460.708479678873
13:55:30,0,B21,Bay Pkwy,-73.993728,40.601875,4570.708479678873
13:55:30,0,B22,25 Av,-73.986829,40.597704,4725.947733485941
13:55:30,0,B23,Bay 50 St,-73.983765,40.588841,4743.175510204082
12:25:30,0,D01,Norwood-205 St,-73.878855,40.874811,3543.047992265586
12:25:30,0,D03,Bedford Park Blvd,-73.887138,40.873244,3315.047992265586
12:25:30,0,D04,Kingsbridge Rd,-73.893509,40.866978,3175.047992265586
12:25:30,0,D05,Fordham Rd,-73.897749,40.861296,3055.047992265586
12:25:30,0,D06,182-183 Sts,-73.900741,40.856093,2983.047992265586
13:25:30,0,D07,Tremont Av,-73.905227,40.85041,2870.047992265586
13:25:30,0,D08,174-175 Sts,-73.910136,40.8459,2879.1479922655853
13:25:30,0,D09,170 St,-73.9134,40.839306,2750.947992265585
13:25:30,0,D10,167 St,-73.91844,40.833771,2627.947992265585
13:25:30,0,D11,161 St-Yankee Stadium,-73.925651,40.827905,2497.947992265585
13:25:30,0,D12,155 St,-73.938209,40.830135,2343.0479922655854
13:25:30,0,D13,145 St,-73.944216,40.824783,2085.0479922655854
12:19:30,0,D14,7 Av,-73.981637,40.762862,894.2564585772427
12:09:30,0,D15,47-50 Sts-Rockefeller Ctr,-73.981329,40.758663,699.2484848484848
12:29:30,0,D16,42 St-Bryant Pk,-73.984569,40.754222,843.061224489796
12:29:30,0,D17,34 St-Herald Sq,-73.987823,40.749719,953.061224489796
12:29:30,0,D18,23 St,-73.992821,40.742878,1121.8612244897959
12:29:30,0,D19,14 St,-73.996209,40.738228,1230.661224489796
12:29:30,0,D20,W 4 St-Wash Sq,-74.000495,40.732338,1398.1755102040818
13:55:30,0,D21,Broadway-Lafayette St,-73.996204,40.725297,1577.1755102040818
13:55:30,0,D22,Grand St,-73.993753,40.718267,1752.1755102040818
13:45:30,0,D24,Atlantic Av-Barclays Ctr,-73.97689,40.68446,2538.1755102040815
12:09:30,0,D25,7 Av,-73.972367,40.67705,2718.1755102040815
12:09:30,0,D26,Prospect Park,-73.962246,40.661614,3005.175510204082
12:09:30,0,D27,Parkside Av,-73.961495,40.655292,3144.50202756795
12:09:30,0,D28,Church Av,-73.962982,40.650527,3188.975510204082
12:09:30,0,D29,Beverley Rd,-73.964492,40.644031,3337.6659878137166
12:09:30,0,D30,Cortelyou Rd,-73.963891,40.640927,3452.665987813716
12:19:30,0,D31,Newkirk Plaza,-73.962793,40.635082,3408.9755102040817
12:19:30,0,D32,Avenue H,-73.961639,40.62927,3563.295511090999
12:19:30,0,D33,Avenue J,-73.960803,40.625039,3684.295511090999
12:19:30,0,D34,Avenue M,-73.959399,40.617618,3812.295511090999
12:19:30,0,D35,Kings Hwy,-73.957734,40.60867,3752.4755102040817
13:49:30,0,D37,Avenue U,-73.955929,40.5993,3997.485822284465
13:49:30,0,D38,Neck Rd,-73.955161,40.595246,4152.685822284466
12:19:30,0,D39,Sheepshead Bay,-73.954155,40.586896,4092.2155119779163
13:49:30,0,D40,Brighton Beach,-73.961376,40.577621,4272.215511977916
13:49:30,0,D41,Ocean Pkwy,-73.968501,40.576312,4452.315511977917
13:49:30,0,D42,W 8 St-NY Aquarium,-73.975939,40.576127,4266.575510204082
13:49:30,0,D43,Coney Island-Stillwell Av,-73.981233,40.577422,4401.075510204081
12:19:30,0,E01,World Trade Center,-74.009781,40.712582,2072.207335051623
12:05:30,0,F01,Jamaica-179 St,-73.783817,40.712646,1921.2371134020618
12:05:30,0,F02,169 St,-73.793604,40.71047,1831.2371134020618
12:05:30,0,F03,Parsons Blvd,-73.803326,40.707564,1711.2371134020618
12:05:30,0,F04,Sutphin Blvd,-73.810708,40.70546,1621.2371134020618
12:05:30,0,F05,Briarwood,-73.820574,40.709179,1501.2371134020618
12:05:30,0,F06,Kew Gardens-Union Tpke,-73.831008,40.714441,1381.2371134020618
12:05:30,0,F07,75 Av,-73.837324,40.718331,1291.2371134020618
12:19:30,0,F09,Court Sq-23 St,-73.946,40.747846,224.4
12:19:30,0,F11,Lexington Av/53 St,-73.969055,40.757552,415.3090909090909
12:19:30,0,F12,5 Av/53 St,-73.975224,40.760167,513.1878787878788
12:29:30,0,F14,2 Av,-73.989938,40.723402,1753.1755102040815
12:29:30,0,F15,Delancey St-Essex St,-73.988114,40.718611,1873.1755102040815
12:29:30,0,F16,East Broadway,-73.990173,40.713715,1963.1755102040815
12:29:30,0,F18,York St,-73.986751,40.701397,2143.1755102040815
12:19:30,1,F20,Bergen St,-73.990862,40.686145,2126.7755102040815
12:19:30,1,F21,Carroll St,-73.995048,40.680303,2251.775510204082
12:19:30,1,F22,Smith-9 Sts,-73.995959,40.67358,2436.775510204082
12:19:30,1,F23,4 Av-9 St,-73.989779,40.670272,2556.775510204082
12:19:30,1,F24,7 Av,-73.980305,40.666271,2653.1755102040815
12:19:30,1,F25,15 St-Prospect Park,-73.979493,40.660365,2806.7755102040824
12:19:30,1,F26,Fort Hamilton Pkwy,-73.975776,40.650782,3046.7755102040824
12:19:30,1,F27,Church Av,-73.979678,40.644041,2893.1755102040815
12:19:30,1,F29,Ditmas Av,-73.978172,40.636119,3013.1755102040815
12:19:30,1,F30,18 Av,-73.976971,40.629755,3133.1755102040815
12:19:30,1,F31,Avenue I,-73.976127,40.625322,3193.1755102040815
12:19:30,1,F32,Bay Pkwy,-73.975264,40.620769,3253.1755102040815
12:19:30,1,F33,Avenue N,-73.974197,40.61514,3373.1755102040815
12:19:30,1,F34,Avenue P,-73.973022,40.608944,3463.1755102040815
12:19:30,1,F35,Kings Hwy,-73.972361,40.603217,3748.1755102040815
12:19:30,1,F36,Avenue U,-73.973357,40.596063,3869.0755102040816
12:19:30,1,F38,Avenue X,-73.97425,40.58962,3989.0755102040816
12:29:30,0,F39,Neptune Av,-73.974574,40.581011,4141.575510204082
13:59:30,0,G05,Jamaica Center-Parsons/Archer,-73.801109,40.702147,2089.237113402062
12:35:30,0,G06,Sutphin Blvd-Archer Av-JFK Airport,-73.807969,40.700486,1959.2371134020618
12:35:30,0,G07,Jamaica-Van Wyck,-73.816859,40.702566,1783.2371134020618
12:05:30,0,G08,Forest Hills-71 Av,-73.844521,40.721691,1144.9871134020618
12:05:30,0,G09,67 Av,-73.852719,40.726523,1024.9871134020618
12:05:30,0,G10,63 Dr-Rego Park,-73.861604,40.729846,931.2371134020618
12:05:30,0,G11,Woodhaven Blvd,-73.869229,40.733106,841.2371134020618
12:05:30,0,G12,Grand Av-Newtown,-73.877223,40.737015,721.2371134020618
12:05:30,0,G13,Elmhurst Av,-73.882017,40.742454,631.2371134020618
12:05:30,0,G14,Jackson Hts-Roosevelt Av,-73.891338,40.746644,511.2371134020618
12:01:00,0,G15,65 St,-73.898453,40.749669,421.2371134020618
12:01:00,0,G16,Northern Blvd,-73.906006,40.752885,326.9072164948454
12:01:00,0,G18,46 St,-73.913333,40.756312,236.90721649484536
12:01:00,0,G19,Steinway St,-73.92074,40.756879,120.0
12:11:30,0,G20,36 St,-73.928781,40.752039,0.0
12:05:30,0,G21,Queens Plaza,-73.937243,40.748973,120.0
12:39:30,1,G22,Court Sq,-73.943832,40.746554,328.7755102040816
12:19:30,1,G24,21 St,-73.949724,40.744065,448.7755102040816
12:19:30,1,G26,Greenpoint Av,-73.954449,40.731352,623.7755102040817
12:19:30,1,G28,Nassau Av,-73.951277,40.724635,748.7755102040817
12:19:30,1,G29,Metropolitan Av,-73.951418,40.712792,933.7755102040817
12:19:30,1,G30,Broadway,-73.950308,40.706092,1051.7755102040817
12:19:30,1,G31,Flushing Av,-73.950234,40.700377,1171.7755102040817
12:19:30,1,G32,Myrtle-Willoughby Avs,-73.949046,40.694568,1288.7755102040817
12:19:30,1,G33,Bedford-Nostrand Avs,-73.953522,40.689627,1408.7755102040817
12:19:30,1,G34,Classon Av,-73.96007,40.688873,1523.7755102040817
12:19:30,1,G35,Clinton-Washington Avs,-73.966839,40.688089,1636.7755102040817
12:19:30,1,G36,Fulton St,-73.975375,40.687119,1756.7755102040817
12:29:30,1,H01,Aqueduct Racetrack,-73.834058,40.668234,3625.166869867091
13:09:30,1,H02,Aqueduct-N Conduit Av,-73.834058,40.668234,3686.987612617259
13:09:30,1,H03,Howard Beach-JFK Airport,-73.830301,40.660476,3862.9876126172594
13:09:30,1,H04,Broad Channel,-73.815925,40.608382,4416.066869867091
13:09:30,1,H06,Beach 67 St,-73.796924,40.590927,4857.666869867091
13:09:30,1,H07,Beach 60 St,-73.788522,40.592374,4987.666869867091
13:09:30,1,H08,Beach 44 St,-73.776013,40.592943,5114.666869867091
13:09:30,1,H09,Beach 36 St,-73.768175,40.595398,5237.666869867091
13:09:30,1,H10,Beach 25 St,-73.761353,40.600066,5357.666869867091
13:09:30,1,H11,Far Rockaway-Mott Av,-73.755405,40.603995,5477.666869867091
12:29:30,1,H12,Beach 90 St,-73.813641,40.588034,4762.866869867091
12:29:30,1,H13,Beach 98 St,-73.820558,40.585307,4885.866869867091
12:29:30,1,H14,Beach 105 St,-73.827559,40.583209,5000.866869867091
12:29:30,1,H15,Rockaway Park-Beach 116 St,-73.835592,40.580903,5123.866869867091
12:09:30,0,J12,121 St,-73.828294,40.700492,2397.037113402062
12:09:30,0,J13,111 St,-73.836345,40.697418,2509.237113402062
12:09:30,0,J14,104 St,-73.84433,40.695178,2623.8371134020617
12:09:30,0,J15,Woodhaven Blvd,-73.851576,40.693879,2719.237113402062
12:09:30,0,J16,85 St-Forest Pkwy,-73.86001,40.692435,3067.4189321257404
12:09:30,0,J17,75 St-Elderts Ln,-73.867139,40.691324,2899.237113402062
12:09:30,0,J19,Cypress Hills,-73.87255,40.689941,3220.000202405696
12:09:30,0,J20,Crescent St,-73.873785,40.683194,2825.1668698670915
12:09:30,0,J21,Norwood Av,-73.880039,40.68141,2735.1668698670915
12:09:30,0,J22,Cleveland St,-73.884639,40.679947,2803.042657840495
12:09:30,0,J23,Van Siclen Av,-73.891688,40.678024,2585.1668698670915
12:19:30,3,J24,Alabama Av,-73.898654,40.676992,2525.1668698670915
12:09:30,0,J27,Broadway Junction,-73.904512,40.679498,2421.8484825971177
12:19:30,3,J28,Chauncey St,-73.910456,40.682893,2495.1668698670915
12:49:30,0,J29,Halsey St,-73.916559,40.68637,2670.166869867091
12:49:30,0,J30,Gates Av,-73.92227,40.68963,2645.1668698670915
12:49:30,0,J31,Kosciuszko St,-73.928814,40.693342,2621.251488435511
13:55:30,1,L01,8 Av,-74.002578,40.739777,1472.2401242819699
12:15:30,2,L02,6 Av,-73.996786,40.737335,1458.8430432134746
13:55:30,1,L03,14 St-Union Sq,-73.99073,40.734789,1405.2011640635403
12:05:30,1,L05,3 Av,-73.986122,40.732849,1497.1011640635404
12:05:30,1,L06,1 Av,-73.981628,40.730953,1498.7484825971176
12:19:30,2,L08,Bedford Av,-73.956872,40.717304,1287.7484825971176
12:19:30,2,L10,Lorimer St,-73.950275,40.714063,1201.7484825971176
12:19:30,2,L11,Graham Av,-73.944053,40.714565,1257.5484825971178
12:19:30,2,L12,Grand St,-73.94067,40.711926,1357.5484825971178
12:19:30,2,L13,Montrose Av,-73.93985,40.707739,1405.5484825971178
12:19:30,2,L14,Morgan Av,-73.933147,40.706152,1497.548482597118
12:19:30,2,L15,Jefferson St,-73.922913,40.706607,1602.7484825971176
12:19:30,2,L16,DeKalb Av,-73.918425,40.703811,1681.7484825971176
12:19:30,2,L17,Myrtle-Wyckoff Avs,-73.911586,40.699814,1777.7484825971176
12:19:30,2,L19,Halsey St,-73.904084,40.695602,1852.7484825971176
12:19:30,2,L20,Wilson Av,-73.904046,40.688764,1988.7484825971176
12:19:30,2,L21,Bushwick Av-Aberdeen St,-73.905249,40.682829,2102.7484825971173
12:19:30,2,L22,Broadway Junction,-73.90324,40.678856,2196.8484825971177
12:19:30,2,L24,Atlantic Av,-73.903097,40.675345,2374.8484825971177
12:19:30,2,L25,Sutter Av,-73.901975,40.669367,2473.8484825971177
12:19:30,2,L26,Livonia Av,-73.900571,40.664038,2556.8484825971177
12:19:30,2,L27,New Lots Av,-73.899232,40.658733,2633.6484825971174
12:19:30,2,L28,East 105 St,-73.899485,40.650573,2787.648482597118
12:19:30,2,L29,Canarsie-Rockaway Pkwy,-73.90185,40.646654,3046.6484825971174
13:29:30,3,M01,Middle Village-Metropolitan Av,-73.889601,40.711396,2487.148482597118
13:09:30,3,M04,Fresh Pond Rd,-73.895877,40.706186,2355.148482597118
13:29:30,3,M05,Forest Av,-73.903077,40.704423,2244.1484825971174
13:09:30,3,M06,Seneca Av,-73.90774,40.702762,2124.1484825971174
12:39:30,3,M08,Myrtle-Wyckoff Avs,-73.912385,40.69943,2002.7484825971176
12:49:30,3,M09,Knickerbocker Av,-73.919711,40.698664,2122.748482597118
12:59:30,0,M10,Central Av,-73.927397,40.697857,2260.7484825971173
12:29:30,0,M11,Myrtle Av,-73.935657,40.697207,2436.3388669374035
12:29:30,0,M12,Flushing Av,-73.941126,40.70026,2567.7484825971173
12:29:30,0,M13,Lorimer St,-73.947408,40.703869,2477.2612244897964
12:29:30,0,M14,Hewes St,-73.953431,40.70687,2357.2612244897964
12:29:30,0,M16,Marcy Av,-73.957757,40.708359,2246.2612244897964
12:29:30,0,M18,Delancey St-Essex St,-73.987437,40.718315,1826.2612244897964
12:09:30,0,M19,Bowery,-73.993915,40.72028,1889.5401242819698
12:25:30,1,M20,Canal St,-73.999892,40.718092,1768.7401242819699
12:25:30,1,M21,Chambers St,-74.003401,40.713243,1648.7401242819699
12:25:30,1,M22,Fulton St,-74.007582,40.710374,1768.7401242819699
12:25:30,1,M23,Broad St,-74.011056,40.706476,1836.7401242819699
12:05:30,0,N02,8 Av,-74.011719,40.635064,3643.7084796788736
12:05:30,0,N03,Fort Hamilton Pkwy,-74.005351,40.631386,3820.108479678873
12:05:30,0,N04,New Utrecht Av,-73.996353,40.624842,3974.608479678873
12:05:30,0,N05,18 Av,-73.990414,40.620671,4081.6084796788728
12:05:30,0,N06,20 Av,-73.985026,40.61741,4156.608479678873
12:05:30,0,N07,Bay Pkwy,-73.981848,40.611815,4311.608479678873
12:05:30,0,N08,Kings Hwy,-73.980353,40.603923,4463.708479678874
12:05:30,0,N09,Avenue U,-73.979137,40.597473,4596.708479678874
12:05:30,0,N10,86 St,-73.97823,40.592721,4726.475510204082
12:35:30,0,Q01,Canal St,-74.00046,40.718383,1743.5056710535168
12:05:30,1,Q03,72 St,-73.958424,40.768799,1024.5000000000002
12:05:30,1,Q04,86 St,-73.951787,40.777891,1358.5000000000002
12:05:30,1,Q05,96 St,-73.947152,40.784318,1433.2000000000003
12:05:30,0,R01,Astoria-Ditmars Blvd,-73.912034,40.775036,1370.1678183915665
12:05:30,0,R03,Astoria Blvd,-73.917843,40.770258,1255.1678183915665
12:05:30,0,R04,30 Av,-73.921479,40.766779,1131.1678183915665
12:05:30,0,R05,Broadway,-73.925508,40.76182,1011.1678183915665
12:05:30,0,R06,36 Av,-73.929575,40.756804,881.1678183915664
12:05:30,0,R08,39 Av-Dutch Kills,-73.932755,40.752882,736.3678183915664
12:05:30,0,R09,Queensboro Plaza,-73.940202,40.750582,541.3678183915664
12:05:30,0,R11,Lexington Av/59 St,-73.967258,40.76266,703.1000000000001
12:05:30,0,R13,5 Av/59 St,-73.973347,40.764811,831.1000000000001
12:05:30,0,R14,57 St-7 Av,-73.980658,40.764664,1011.1
12:05:30,0,R15,49 St,-73.984139,40.759901,1146.1
12:35:30,0,R16,Times Sq-42 St,-73.986754,40.754672,1101.2401242819699
12:35:30,0,R17,34 St-Herald Sq,-73.98795,40.749567,1163.5668423467753
12:05:30,0,R18,28 St,-73.988691,40.745494,1288.061224489796
12:05:30,0,R19,23 St,-73.989344,40.741303,1403.061224489796
12:35:30,0,R20,14 St-Union Sq,-73.990568,40.735736,1402.2564638906597
12:05:30,0,R21,8 St-NYU,-73.992629,40.730328,1547.2401242819699
12:05:30,0,R22,Prince St,-73.997702,40.724329,1667.2401242819699
12:05:30,0,R23,Canal St,-74.001775,40.719527,1787.2401242819699
12:05:30,0,R24,City Hall,-74.006978,40.713282,1962.2401242819697
12:05:30,0,R25,Cortlandt St,-74.011029,40.710668,2097.2401242819697
12:05:30,0,R26,Rector St,-74.013342,40.70722,2217.2401242819697
12:05:30,0,R27,Whitehall St-South Ferry,-74.012994,40.703087,2337.2401242819697
12:25:30,0,R28,Court St,-73.991777,40.6941,2406.2401242819697
12:25:30,0,R29,Jay St-MetroTech,-73.985942,40.69218,2368.1755102040815
13:45:30,0,R30,DeKalb Av,-73.981824,40.690635,2271.147733485942
13:55:30,0,R31,Atlantic Av-Barclays Ctr,-73.97881,40.683666,2466.147733485942
13:45:30,0,R32,Union St,-73.98311,40.677316,2711.147733485942
13:45:30,0,R33,4 Av-9 St,-73.988302,40.670847,2781.775510204082
13:45:30,0,R34,Prospect Av,-73.992872,40.665414,2901.775510204082
13:45:30,0,R35,25 St,-73.998091,40.660397,3000.775510204082
13:55:30,0,R36,36 St,-74.003549,40.655144,3003.1477334859414
13:45:30,0,R39,45 St,-74.010006,40.648939,3253.7084796788736
13:45:30,0,R40,53 St,-74.014034,40.645069,3373.7084796788736
13:45:30,0,R41,59 St,-74.017881,40.641362,3427.708479678873
13:45:30,0,R42,Bay Ridge Av,-74.023377,40.634967,3608.2490198972264
13:45:30,0,R43,77 St,-74.02551,40.629742,3723.2490198972264
13:45:30,0,R44,86 St,-74.028398,40.622687,3942.0140331151524
13:45:30,0,R45,Bay Ridge-95 St,-74.030876,40.616622,4062.0140331151524
12:09:30,0,S01,Franklin Av,-73.955827,40.680596,2574.3712564828443
12:19:30,2,S03,Park Pl,-73.957624,40.674772,2708.7712564828444
12:09:30,0,S04,Botanic Garden,-73.959245,40.670343,2880.3712564828443
