start_time,ntransfers,stop_id,stop_name,stop_lon,stop_lat,duration
12:18:00,2,101,Van Cortlandt Park-242 St,-73.898583,40.889248,4460.963251543045
12:18:00,2,103,238 St,-73.90087,40.884667,4294.963251543045
12:18:00,2,104,231 St,-73.904834,40.878856,4168.769662189483
12:18:00,2,106,Marble Hill-225 St,-73.909831,40.874561,4058.7696621894834
12:18:00,2,107,215 St,-73.915279,40.869444,3905.5632515430448
12:18:00,2,108,207 St,-73.918822,40.864621,3812.7696621894834
12:18:00,2,109,Dyckman St,-73.925536,40.860531,3691.7696621894834
12:18:00,2,110,191 St,-73.929412,40.855225,3584.769662189484
12:18:00,2,111,181 St,-73.933596,40.849505,3473.7696621894834
12:18:00,2,112,168 St-Washington Hts,-73.940133,40.840556,3338.7696621894834
12:18:00,2,113,157 St,-73.94489,40.834041,3250.2121914386757
12:18:00,2,114,145 St,-73.95036,40.826551,3120.2121914386757
12:18:00,2,115,137 St-City College,-73.953676,40.822008,3006.2121914386757
12:18:00,2,116,125 St,-73.958372,40.815581,2885.4121914386756
12:18:00,2,117,116 St-Columbia University,-73.96411,40.807722,2720.4121914386756
12:18:00,2,118,Cathedral Pkwy (110 St),-73.966847,40.803967,2635.412191438676
12:18:00,2,119,103 St,-73.968379,40.799446,2547.4121914386756
12:18:00,2,120,96 St,-73.972323,40.793919,2236.1447189331057
12:18:00,2,121,86 St,-73.976218,40.788644,2284.3121914386757
12:18:00,2,122,79 St,-73.979917,40.783934,2190.6121914386754
12:18:00,2,123,72 St,-73.98197,40.778453,2018.4447189331054
12:18:00,2,124,66 St-Lincoln Center,-73.982209,40.77344,2083.444718933106
12:18:00,2,125,59 St-Columbus Circle,-73.981929,40.768247,1989.4447189331056
12:18:00,2,126,50 St,-73.983849,40.761728,1861.4447189331054
12:18:00,2,127,Times Sq-42 St,-73.987495,40.75529,1733.4447189331054
12:18:00,2,128,34 St-Penn Station,-73.991057,40.750373,1635.214284181595
12:18:00,2,129,28 St,-73.993365,40.747215,1658.214284181595
12:18:00,2,130,23 St,-73.995657,40.744081,1579.214284181595
12:18:00,2,131,18 St,-73.997871,40.74104,1502.2142841815948
12:18:00,2,132,14 St,-74.000201,40.737826,1419.2142841815948
12:27:00,2,133,Christopher St-Sheridan Sq,-74.002906,40.733422,1533.014284181595
12:16:30,1,134,Houston St,-74.005367,40.728251,1637.014284181595
12:16:30,1,135,Canal St,-74.006277,40.722854,1746.2142841815948
12:16:30,1,136,Franklin St,-74.006886,40.719318,1821.2142841815948
12:16:30,1,137,Chambers St,-74.009266,40.715478,1739.114284181595
12:07:30,1,138,WTC Cortlandt,-74.012188,40.711835,1888.452171373367
12:07:30,1,139,Rector St,-74.013783,40.707513,1786.452171373367
12:07:30,1,142,South Ferry,-74.013664,40.702068,1643.4521713733673
12:27:00,2,201,Wakefield-241 St,-73.85062,40.903125,5122.5610666275015
12:27:00,2,204,Nereid Av,-73.854376,40.898379,4861.918914794923
12:27:00,2,205,233 St,-73.857473,40.893193,4704.318914794923
12:27:00,2,206,225 St,-73.860341,40.888022,4604.318914794922
12:27:00,2,207,219 St,-73.862633,40.883895,4519.118914794923
12:27:00,2,208,Gun Hill Rd,-73.866256,40.87785,4403.818914794922
12:27:00,2,209,Burke Av,-73.867164,40.871356,4414.5610666275015
12:27:00,2,210,Allerton Av,-73.867352,40.865462,4311.5610666275015
12:27:00,2,211,Pelham Pkwy,-73.867615,40.857192,4186.561066627502
12:27:00,2,212,Bronx Park East,-73.868457,40.848828,4047.5610666275024
12:27:00,2,213,E 180 St,-73.873488,40.841894,3552.5
12:27:00,2,214,West Farms Sq-E Tremont Av,-73.880049,40.840295,3948.156180238724
12:27:00,2,215,174 St,-73.887734,40.837288,3799.156180238724
12:27:00,2,216,Freeman St,-73.891865,40.829993,3653.1561802387246
12:27:00,2,217,Simpson St,-73.893064,40.824073,3526.1561802387246
12:27:00,2,218,Intervale Av,-73.896736,40.822181,3440.1561802387246
12:27:00,2,219,Prospect Av,-73.90177,40.819585,3337.1561802387246
12:27:00,2,220,Jackson Av,-73.907807,40.81649,3213.156180238724
12:27:00,2,221,3 Av-149 St,-73.917757,40.816109,2826.5
12:27:00,2,222,149 St-Grand Concourse,-73.926718,40.81841,2706.5
12:18:00,2,224,135 St,-73.94077,40.814229,2877.8447189331055
12:18:00,2,225,125 St,-73.945495,40.807754,2738.8447189331055
12:18:00,2,226,116 St,-73.949625,40.802098,2625.8447189331055
12:18:00,2,227,Central Park North (110 St),-73.951822,40.799075,2537.1447189331057
12:16:30,1,228,Park Place,-74.008811,40.713051,1725.8884296417239
12:48:30,1,229,Fulton St,-74.006571,40.709416,1589.645402431488
12:07:30,1,230,Wall St,-74.0091,40.706821,1678.645402431488
12:07:30,2,231,Clark St,-73.993086,40.697466,1542.5913037776945
12:07:30,1,232,Borough Hall,-73.989998,40.693219,1440.5913037776945
12:07:30,2,233,Hoyt St,-73.985065,40.690545,1544.5913037776947
12:07:30,2,234,Nevins St,-73.980492,40.688246,1560.5913037776945
12:07:30,2,235,Atlantic Av-Barclays Ctr,-73.977666,40.684359,1615.4913037776946
12:07:30,2,236,Bergen St,-73.975098,40.680829,1717.4913037776946
12:07:30,2,237,Grand Army Plaza,-73.971046,40.675235,1841.4913037776948
12:07:30,2,238,Eastern Pkwy-Brooklyn Museum,-73.964375,40.671987,1961.6913037776949
12:07:30,2,239,Franklin Av-Medgar Evers College,-73.958131,40.670682,1824.9957462787631
12:07:30,1,241,President St-Medgar Evers College,-73.950683,40.667883,2000.4957462787631
12:07:30,1,242,Sterling St,-73.95085,40.662742,2091.995746278763
12:07:30,1,243,Winthrop St,-73.9502,40.656652,2204.495746278763
12:07:30,1,244,Church Av,-73.949575,40.650843,2300.495746278763
12:07:30,1,245,Beverly Rd,-73.948959,40.645098,2409.9957462787634
12:07:30,1,246,Newkirk Av-Little Haiti,-73.948411,40.639967,2487.995746278763
12:07:30,1,247,Flatbush Av-Brooklyn College,-73.947642,40.632836,2625.995746278763
12:07:30,1,248,Nostrand Av,-73.950466,40.669847,1980.5957462787628
12:07:30,1,249,Kingston Av,-73.942161,40.669399,2099.3957462787625
12:07:30,2,250,Crown Hts-Utica Av,-73.932942,40.668897,2157.595746278763
12:09:00,2,251,Sutter Av-Rutland Rd,-73.92261,40.664717,2330.595746278763
12:09:00,2,252,Saratoga Av,-73.916327,40.661453,2449.5957462787633
12:09:00,2,253,Rockaway Av,-73.908946,40.662549,2391.3142841815948
12:09:00,2,254,Junius St,-73.902447,40.663515,2299.3142841815948
13:07:30,2,255,Pennsylvania Av,-73.894895,40.664635,2412.0142841815946
13:07:30,2,256,Van Siclen Av,-73.889395,40.665449,2496.0142841815946
13:07:30,2,257,New Lots Av,-73.884079,40.666235,2642.514284181595
12:27:00,2,301,Harlem-148 St,-73.93647,40.82388,3285.9142841815947
12:27:00,2,302,145 St,-73.936245,40.820421,3114.8447189331055
12:18:00,2,401,Woodlawn,-73.878751,40.886037,4469.456180238723
12:18:00,2,402,Mosholu Pkwy,-73.884655,40.87975,4293.456180238723
12:18:00,2,405,Bedford Park Blvd-Lehman College,-73.890064,40.873412,4147.456180238723
12:18:00,2,406,Kingsbridge Rd,-73.897174,40.86776,4010.4561802387234
12:18:00,2,407,Fordham Rd,-73.901034,40.862803,3905.4561802387234
12:18:00,2,408,183 St,-73.903879,40.858407,3799.4561802387234
12:18:00,2,409,Burnside Av,-73.907684,40.853453,3684.456180238724
12:18:00,2,410,176 St,-73.911794,40.84848,3576.456180238724
12:18:00,2,411,Mt Eden Av,-73.914685,40.844434,3477.456180238724
12:18:00,2,412,170 St,-73.917791,40.840075,3383.456180238724
12:18:00,2,413,167 St,-73.9214,40.835537,3276.456180238724
12:18:00,2,414,161 St-Yankee Stadium,-73.925831,40.827994,3141.156180238724
12:18:00,2,415,149 St-Grand Concourse,-73.927351,40.818375,2833.156180238724
12:18:00,2,416,138 St-Grand Concourse,-73.929849,40.813224,2501.0
12:07:30,1,418,Fulton St,-74.009509,40.710368,1595.3189361095428
12:16:30,1,419,Wall St,-74.011862,40.707557,1693.018936109543
12:16:30,1,420,Bowling Green,-74.014065,40.704817,1717.5913037776947
12:07:30,2,423,Borough Hall,-73.990151,40.692404,1439.8560101509092
12:27:00,2,501,Eastchester-Dyre Av,-73.830834,40.8883,4302.500000000001
12:27:00,2,502,Baychester Av,-73.838591,40.878663,4152.500000000001
12:27:00,2,503,Gun Hill Rd,-73.846384,40.869526,4002.5000000000005
12:27:00,2,504,Pelham Pkwy,-73.855359,40.858985,3852.5000000000005
12:27:00,2,505,Morris Park,-73.860495,40.854364,3762.5
12:18:00,2,601,Pelham Bay Park,-73.828121,40.852462,4490.576192746843
12:18:00,2,602,Buhre Av,-73.832569,40.84681,4270.876192746842
12:18:00,2,603,Middletown Rd,-73.836322,40.843863,4188.876192746843
12:18:00,2,604,Westchester Sq-E Tremont Av,-73.842952,40.839892,4000.657140813555
12:18:00,2,606,Zerega Av,-73.847036,40.836488,3882.657140813555
12:18:00,2,607,Castle Hill Av,-73.851222,40.834255,3800.757140813555
12:18:00,2,608,Parkchester,-73.860816,40.833226,3473.957140813555
12:18:00,2,609,St Lawrence Av,-73.867618,40.831509,3751.5014530045646
12:18:00,2,610,Morrison Av-Soundview,-73.874516,40.829521,3618.5014530045646
12:18:00,2,611,Elder Av,-73.879159,40.828584,3529.5014530045646
12:18:00,2,612,Whitlock Av,-73.886283,40.826525,3392.5014530045646
12:18:00,2,613,Hunts Point Av,-73.890549,40.820948,3121.5571408135547
12:18:00,2,614,Longwood Av,-73.896435,40.816104,3290.1658358437676
12:18:00,2,615,E 149 St,-73.904098,40.812118,3162.1658358437676
12:18:00,2,616,E 143 St-St Mary's St,-73.907657,40.808719,3072.1658358437676
12:18:00,2,617,Cypress Av,-73.914042,40.805368,2953.1658358437676
12:18:00,2,618,Brook Av,-73.91924,40.807566,2874.1658358437676
12:18:00,2,619,3 Av-138 St,-73.926138,40.810476,2717.5571408135547
12:18:00,2,621,125 St,-73.937594,40.804138,2307.5
12:18:00,2,622,116 St,-73.941617,40.798629,2347.502461944308
12:18:00,2,623,110 St,-73.94425,40.79502,2245.5024619443075
12:18:00,2,624,103 St,-73.947478,40.7906,2157.5024619443075
12:18:00,2,625,96 St,-73.95107,40.785672,2050.5024619443075
12:18:00,2,626,86 St,-73.955589,40.779492,1934.5024619443077
12:18:00,2,627,77 St,-73.959874,40.77362,1818.5024619443077
12:18:00,2,628,68 St-Hunter College,-73.96387,40.768141,1710.5024619443077
12:18:00,2,629,59 St,-73.967967,40.762526,1580.5024619443077
12:18:00,2,630,51 St,-73.97192,40.757107,1459.0476184231893
12:18:00,2,631,Grand Central-42 St,-73.976848,40.751776,1565.0000000000002
12:27:00,2,632,33 St,-73.982076,40.746081,1570.5952382087708
12:27:00,2,633,28 St,-73.984264,40.74307,1491.5952382087708
12:27:00,2,634,23 St,-73.986599,40.739864,1394.5952382087708
12:07:30,1,635,14 St-Union Sq,-73.989951,40.734673,1257.671427488327
12:18:00,2,636,Astor Pl,-73.99107,40.730054,1352.414284181595
12:07:30,1,637,Bleecker St,-73.994659,40.725915,1460.414284181595
12:07:30,1,638,Spring St,-73.997141,40.722301,1548.3714274883273
12:07:30,1,639,Canal St,-74.000193,40.718803,1638.3714274883273
12:07:30,1,640,Brooklyn Bridge-City Hall,-74.004131,40.713065,1621.8447189331055
12:09:00,1,701,Flushing-Main St,-73.83003,40.7596,2397.4428571428575
12:09:00,1,702,Mets-Willets Point,-73.845625,40.754622,2187.4428571428575
12:09:00,1,705,111 St,-73.855334,40.75173,2309.3
12:09:00,1,706,103 St-Corona Plaza,-73.8627,40.749865,2220.3
12:09:00,1,707,Junction Blvd,-73.869527,40.749145,1940.3000000000002
12:09:00,1,708,90 St-Elmhurst Av,-73.876613,40.748408,2143.3
12:09:00,1,709,82 St-Jackson Hts,-73.883697,40.747659,2188.7851372341493
12:09:00,1,710,74 St-Broadway,-73.891394,40.746848,1995.9923081874852
12:09:00,1,711,69 St,-73.896403,40.746325,1848.9923081874854
12:09:00,1,712,61 St-Woodside,-73.902984,40.74563,1700.3000000000002
12:09:00,1,713,52 St,-73.912549,40.744149,1581.1
12:09:00,1,714,46 St-Bliss St,-73.918435,40.743132,1517.1
12:09:00,1,715,40 St-Lowery St,-73.924016,40.743781,1450.1
12:09:00,1,716,33 St-Rawson St,-73.930997,40.744587,1318.1
12:09:00,1,718,Queensboro Plaza,-73.940202,40.750582,1120.9
12:09:00,1,719,Court Sq,-73.945264,40.747023,1020.0
12:09:00,1,720,Hunters Point Av,-73.948916,40.742216,1122.4
12:09:00,1,721,Vernon Blvd-Jackson Av,-73.953581,40.742626,1168.7
12:09:00,1,723,Grand Central-42 St,-73.976041,40.751431,1381.4000000000003
12:09:00,1,724,5 Av,-73.981963,40.753821,1469.4
12:09:00,1,725,Times Sq-42 St,-73.987691,40.755477,1556.8000000000002
12:09:00,1,726,34 St-Hudson Yards,-74.00191,40.755882,1686.8000000000002
12:09:00,2,901,Grand Central-42 St,-73.979189,40.752769,1505.0000000000002
12:09:00,2,902,Times Sq-42 St,-73.986229,40.755983,1622.0
13:48:30,0,A02,Inwood-207 St,-73.919899,40.868072,3815.080530977249
12:38:30,0,A03,Dyckman St,-73.927271,40.865491,3695.080530977249
12:38:30,0,A05,190 St,-73.93418,40.859022,3530.080530977249
12:38:30,0,A06,181 St,-73.937969,40.851695,3405.0805309772486
12:38:30,0,A07,175 St,-73.939704,40.847391,3285.0805309772486
12:38:30,0,A09,168 St,-73.939561,40.840719,3113.280530977249
12:58:30,0,A10,163 St-Amsterdam Av,-73.939892,40.836013,3105.0226346969603
12:38:30,0,A11,155 St,-73.941514,40.830518,2954.3966958522797
12:38:30,0,A12,145 St,-73.944216,40.824783,2805.0226346969603
12:38:30,0,A14,135 St,-73.947649,40.817894,2680.0226346969603
12:38:30,0,A15,125 St,-73.952343,40.811109,2472.2647384166717
13:48:30,0,A16,116 St,-73.954882,40.805085,2637.4226346969604
13:48:30,0,A17,Cathedral Pkwy (110 St),-73.958161,40.800603,2666.964738416672
13:48:30,0,A18,103 St,-73.961454,40.796092,2550.964738416672
13:48:30,0,A19,96 St,-73.964696,40.791642,2432.964738416672
13:48:30,0,A20,86 St,-73.968916,40.785868,2312.964738416672
13:48:30,0,A21,81 St-Museum of Natural History,-73.972143,40.781433,2192.964738416672
13:48:30,0,A22,72 St,-73.97641,40.775594,2072.964738416672
12:36:30,1,A24,59 St-Columbus Circle,-73.981736,40.768296,1892.9647384166717
12:36:30,1,A25,50 St,-73.985984,40.762456,1745.5000000000007
12:38:30,0,A27,42 St-Port Authority Bus Terminal,-73.989735,40.757308,1733.4447189331054
12:38:30,0,A28,34 St-Penn Station,-73.993391,40.752287,1637.714284181595
12:07:30,0,A30,23 St,-73.998041,40.745906,1574.714284181595
12:07:30,0,A31,14 St,-74.00169,40.740893,1454.714284181595
12:07:30,0,A32,W 4 St-Wash Sq,-74.000495,40.732338,1584.714284181595
12:07:30,0,A33,Spring St,-74.003739,40.726227,1709.3142841815952
12:07:30,0,A34,Canal St,-74.005229,40.720824,1627.595746278763
12:07:30,0,A36,Chambers St,-74.008585,40.714111,1492.3913037776947
12:07:30,0,A38,Fulton St,-74.007691,40.710197,1372.3913037776947
12:07:30,0,A40,High St,-73.990531,40.699337,1137.3913037776945
12:07:30,0,A41,Jay St-MetroTech,-73.987342,40.692338,950.3913037776946
12:07:30,0,A42,Hoyt-Schermerhorn Sts,-73.985001,40.688484,592.0
12:38:30,0,A43,Lafayette Av,-73.973946,40.686113,990.5957462787628
12:38:30,0,A44,Clinton-Washington Avs,-73.965838,40.683263,1105.595746278763
12:38:30,0,A45,Franklin Av,-73.956848,40.68138,1225.595746278763
13:38:30,0,A46,Nostrand Av,-73.950426,40.680438,1235.3913037776947
12:38:30,0,A47,Kingston-Throop Avs,-73.940858,40.679921,1356.4913037776948
13:38:30,0,A48,Utica Av,-73.930729,40.679364,1433.591303777695
12:38:30,0,A49,Ralph Av,-73.920786,40.678822,1556.591303777695
12:38:30,0,A50,Rockaway Av,-73.911946,40.67834,1676.591303777695
13:38:30,0,A51,Broadway Junction,-73.905316,40.678334,1733.591303777695
12:38:30,0,A52,Liberty Av,-73.896548,40.674542,1871.791303777695
13:38:30,0,A53,Van Siclen Av,-73.890358,40.67271,1986.791303777695
13:38:30,0,A54,Shepherd Av,-73.88075,40.67413,2111.7913037776952
13:38:30,0,A55,Euclid Av,-73.872106,40.675377,2172.098212242126
13:38:30,0,A57,Grant Av,-73.86505,40.677044,2334.6913037776953
13:38:30,0,A59,80 St,-73.858992,40.679371,2459.098212242126
13:38:30,0,A60,88 St,-73.85147,40.679843,2580.098212242126
13:38:30,0,A61,Rockaway Blvd,-73.843853,40.680429,2700.098212242126
13:38:30,0,A63,104 St,-73.837683,40.681711,2820.098212242126
13:38:30,0,A64,111 St,-73.832163,40.684331,2940.098212242126
13:38:30,0,A65,Ozone Park-Lefferts Blvd,-73.825798,40.685951,3051.8913037776947
13:07:30,1,B04,21 St-Queensbridge,-73.942836,40.754203,2153.9561802387243
12:18:00,1,B06,Roosevelt Island,-73.95326,40.759145,2047.856180238724
12:18:00,1,B08,Lexington Av/63 St,-73.966113,40.764629,1762.5923081874848
12:18:00,1,B10,57 St,-73.97745,40.763972,1874.4
12:07:30,0,B12,9 Av,-73.994324,40.646292,2200.4396234512333
12:07:30,0,B13,Fort Hamilton Pkwy,-73.994304,40.640914,2320.4396234512333
12:07:30,0,B14,50 St,-73.994791,40.63626,2432.4396234512333
12:07:30,0,B15,55 St,-73.995476,40.631435,2559.4396234512333
12:07:30,0,B16,62 St,-73.996895,40.626472,2664.4396234512333
12:07:30,0,B17,71 St,-73.998864,40.619589,2784.4396234512333
12:07:30,0,B18,79 St,-74.00061,40.613501,2907.4396234512333
12:07:30,0,B19,18 Av,-74.001736,40.607954,3022.439623451233
12:07:30,0,B20,20 Av,-73.998168,40.604556,3137.439623451233
12:07:30,0,B21,Bay Pkwy,-73.993728,40.601875,3247.439623451233
12:07:30,0,B22,25 Av,-73.986829,40.597704,3405.439623451233
13:08:30,0,B23,Bay 50 St,-73.983765,40.588841,3531.165138959885
12:09:00,4,D01,Norwood-205 St,-73.878855,40.874811,4180.264738416671
12:09:00,4,D03,Bedford Park Blvd,-73.887138,40.873244,3952.264738416671
12:09:00,4,D04,Kingsbridge Rd,-73.893509,40.866978,3812.2647384166717
12:09:00,4,D05,Fordham Rd,-73.897749,40.861296,3692.2647384166717
12:09:00,4,D06,182-183 Sts,-73.900741,40.856093,3620.2647384166717
13:48:30,0,D07,Tremont Av,-73.905227,40.85041,3507.2647384166717
13:48:30,0,D08,174-175 Sts,-73.910136,40.8459,3516.364738416671
13:48:30,0,D09,170 St,-73.9134,40.839306,3388.164738416671
13:48:30,0,D10,167 St,-73.91844,40.833771,3265.164738416671
13:48:30,0,D11,161 St-Yankee Stadium,-73.925651,40.827905,3135.164738416671
13:48:30,0,D12,155 St,-73.938209,40.830135,2980.264738416671
12:38:30,0,D13,145 St,-73.944216,40.824783,2722.264738416671
13:38:00,1,D14,7 Av,-73.981637,40.762862,1535.0
12:18:00,1,D15,47-50 Sts-Rockefeller Ctr,-73.981329,40.758663,1474.2857142857144
12:18:00,1,D16,42 St-Bryant Pk,-73.984569,40.754222,1594.2857142857144
12:48:30,0,D17,34 St-Herald Sq,-73.987823,40.749719,1666.7142841815948
12:27:00,2,D18,23 St,-73.992821,40.742878,1546.1961029052736
12:07:30,0,D19,14 St,-73.996209,40.738228,1434.2142841815948
12:07:30,0,D20,W 4 St-Wash Sq,-74.000495,40.732338,1554.2142841815948
12:07:30,0,D21,Broadway-Lafayette St,-73.996204,40.725297,1655.3913037776945
12:07:30,0,D22,Grand St,-73.993753,40.718267,1845.8999998569489
12:07:30,1,D24,Atlantic Av-Barclays Ctr,-73.97689,40.68446,1671.9913037776946
12:07:30,1,D25,7 Av,-73.972367,40.67705,1844.9913037776946
12:07:30,1,D26,Prospect Park,-73.962246,40.661614,1776.595746278763
12:07:30,1,D27,Parkside Av,-73.961495,40.655292,2154.9195552349092
12:07:30,1,D28,Church Av,-73.962982,40.650527,2020.395746278763
12:07:30,1,D29,Beverley Rd,-73.964492,40.644031,2169.0862238883974
12:07:30,1,D30,Cortelyou Rd,-73.963891,40.640927,2284.0862238883974
12:07:30,1,D31,Newkirk Plaza,-73.962793,40.635082,2240.395746278763
12:07:30,1,D32,Avenue H,-73.961639,40.62927,2394.7157471656797
12:07:30,1,D33,Avenue J,-73.960803,40.625039,2515.7157471656797
12:07:30,1,D34,Avenue M,-73.959399,40.617618,2643.7157471656797
12:38:30,1,D35,Kings Hwy,-73.957734,40.60867,2583.895746278763
13:58:30,1,D37,Avenue U,-73.955929,40.5993,2828.906058359146
13:58:30,1,D38,Neck Rd,-73.955161,40.595246,2984.106058359146
12:38:30,1,D39,Sheepshead Bay,-73.954155,40.586896,2923.635748052597
13:58:30,1,D40,Brighton Beach,-73.961376,40.577621,3103.635748052597
13:38:30,0,D41,Ocean Pkwy,-73.968501,40.576312,3283.7357480525975
13:38:30,0,D42,W 8 St-NY Aquarium,-73.975939,40.576127,3054.5651389598847
13:38:30,0,D43,Coney Island-Stillwell Av,-73.981233,40.577422,3189.0651389598847
12:27:30,0,E01,World Trade Center,-74.009781,40.712582,1792.3913037776947
12:18:00,1,F01,Jamaica-179 St,-73.783817,40.712646,3210.0126236061433
12:18:00,1,F02,169 St,-73.793604,40.71047,3120.0126236061433
12:18:00,1,F03,Parsons Blvd,-73.803326,40.707564,3000.0126236061433
12:18:00,1,F04,Sutphin Blvd,-73.810708,40.70546,2910.0126236061433
12:18:00,1,F05,Briarwood,-73.820574,40.709179,2790.0126236061433
13:38:00,1,F06,Kew Gardens-Union Tpke,-73.831008,40.714441,2670.0126236061433
12:18:00,1,F07,75 Av,-73.837324,40.718331,2580.0126236061433
12:18:00,1,F09,Court Sq-23 St,-73.946,40.747846,1020.0
13:38:00,1,F11,Lexington Av/53 St,-73.969055,40.757552,1223.5714285714284
13:38:00,1,F12,5 Av/53 St,-73.975224,40.760167,1322.7551020408164
12:07:30,0,F14,2 Av,-73.989938,40.723402,1565.3913037776945
12:07:30,0,F15,Delancey St-Essex St,-73.988114,40.718611,1445.3913037776945
12:07:30,0,F16,East Broadway,-73.990173,40.713715,1355.3913037776945
12:07:30,0,F18,York St,-73.986751,40.701397,1175.3913037776945
12:16:30,0,F20,Bergen St,-73.990862,40.686145,712.0
12:16:30,0,F21,Carroll St,-73.995048,40.680303,879.1000000000001
12:16:30,0,F22,Smith-9 Sts,-73.995959,40.67358,1056.1000000000001
12:16:30,0,F23,4 Av-9 St,-73.989779,40.670272,1176.1000000000001
12:16:30,0,F24,7 Av,-73.980305,40.666271,1348.1000000000001
12:16:30,0,F25,15 St-Prospect Park,-73.979493,40.660365,1483.1000000000001
12:16:30,0,F26,Fort Hamilton Pkwy,-73.975776,40.650782,1658.1000000000004
12:16:30,0,F27,Church Av,-73.979678,40.644041,1681.1651389598846
12:16:30,0,F29,Ditmas Av,-73.978172,40.636119,1801.1651389598846
12:16:30,0,F30,18 Av,-73.976971,40.629755,1921.1651389598846
12:16:30,0,F31,Avenue I,-73.976127,40.625322,1981.1651389598846
12:16:30,0,F32,Bay Pkwy,-73.975264,40.620769,2041.1651389598846
12:16:30,0,F33,Avenue N,-73.974197,40.61514,2161.1651389598846
12:16:30,0,F34,Avenue P,-73.973022,40.608944,2251.1651389598846
12:16:30,0,F35,Kings Hwy,-73.972361,40.603217,2536.1651389598846
13:38:30,0,F36,Avenue U,-73.973357,40.596063,2657.0651389598847
13:38:30,0,F38,Avenue X,-73.97425,40.58962,2777.0651389598847
13:38:30,0,F39,Neptune Av,-73.974574,40.581011,2929.5651389598847
13:38:00,1,G05,Jamaica Center-Parsons/Archer,-73.801109,40.702147,3137.6326714515685
13:38:00,1,G06,Sutphin Blvd-Archer Av-JFK Airport,-73.807969,40.700486,3077.6326714515685
13:38:00,1,G07,Jamaica-Van Wyck,-73.816859,40.702566,3072.0126236061433
13:38:00,1,G08,Forest Hills-71 Av,-73.844521,40.721691,2433.7626236061433
13:38:00,1,G09,67 Av,-73.852719,40.726523,2313.7626236061433
13:38:00,1,G10,63 Dr-Rego Park,-73.861604,40.729846,2220.0126236061433
13:38:00,1,G11,Woodhaven Blvd,-73.869229,40.733106,2130.0126236061433
13:38:00,1,G12,Grand Av-Newtown,-73.877223,40.737015,2010.0126236061433
13:38:00,1,G13,Elmhurst Av,-73.882017,40.742454,1920.0126236061433
13:38:00,1,G14,Jackson Hts-Roosevelt Av,-73.891338,40.746644,1800.0126236061435
13:38:00,1,G15,65 St,-73.898453,40.749669,1710.0126236061435
12:18:00,1,G16,Northern Blvd,-73.906006,40.752885,1615.6827266989271
12:18:00,1,G18,46 St,-73.913333,40.756312,1525.6827266989271
12:18:00,1,G19,Steinway St,-73.92074,40.756879,1408.7755102040817
12:18:00,1,G20,36 St,-73.928781,40.752039,1288.7755102040817
12:18:00,1,G21,Queens Plaza,-73.937243,40.748973,1143.3673469387757
12:09:00,0,G22,Court Sq,-73.943832,40.746554,960.0
12:09:00,0,G24,21 St,-73.949724,40.744065,840.0
12:09:00,0,G26,Greenpoint Av,-73.954449,40.731352,665.0
12:09:00,0,G28,Nassau Av,-73.951277,40.724635,540.0
12:09:00,0,G29,Metropolitan Av,-73.951418,40.712792,355.0
12:09:00,0,G30,Broadway,-73.950308,40.706092,228.0
12:09:00,0,G31,Flushing Av,-73.950234,40.700377,108.0
12:09:00,0,G32,Myrtle-Willoughby Avs,-73.949046,40.694568,0.0
12:07:30,0,G33,Bedford-Nostrand Avs,-73.953522,40.689627,120.0
12:07:30,0,G34,Classon Av,-73.96007,40.688873,235.00000000000003
12:07:30,0,G35,Clinton-Washington Avs,-73.966839,40.688089,348.00000000000006
12:07:30,0,G36,Fulton St,-73.975375,40.687119,468.00000000000006
12:48:30,0,H01,Aqueduct Racetrack,-73.834058,40.668234,2942.098212242126
13:28:30,0,H02,Aqueduct-N Conduit Av,-73.834058,40.668234,2936.991303777695
13:28:30,0,H03,Howard Beach-JFK Airport,-73.830301,40.660476,3112.9913037776946
13:28:30,0,H04,Broad Channel,-73.815925,40.608382,3732.9982122421256
13:28:30,0,H06,Beach 67 St,-73.796924,40.590927,4131.691303777694
13:28:30,0,H07,Beach 60 St,-73.788522,40.592374,4256.691303777694
13:28:30,0,H08,Beach 44 St,-73.776013,40.592943,4387.691303777694
13:28:30,0,H09,Beach 36 St,-73.768175,40.595398,4507.691303777694
13:28:30,0,H10,Beach 25 St,-73.761353,40.600066,4673.491303777694
13:28:30,0,H11,Far Rockaway-Mott Av,-73.755405,40.603995,4794.598212242126
12:48:30,0,H12,Beach 90 St,-73.813641,40.588034,4079.7982122421263
12:48:30,0,H13,Beach 98 St,-73.820558,40.585307,4202.798212242126
12:48:30,0,H14,Beach 105 St,-73.827559,40.583209,4301.991303777694
12:48:30,0,H15,Rockaway Park-Beach 116 St,-73.835592,40.580903,4415.991303777695
13:38:30,1,J12,121 St,-73.828294,40.700492,2837.6326714515685
13:38:30,1,J13,111 St,-73.836345,40.697418,3002.6326714515685
13:38:30,1,J14,104 St,-73.84433,40.695178,2657.6326714515685
13:38:30,1,J15,Woodhaven Blvd,-73.851576,40.693879,2567.6326714515685
13:38:30,1,J16,85 St-Forest Pkwy,-73.86001,40.692435,2767.6326714515685
13:38:30,1,J17,75 St-Elderts Ln,-73.867139,40.691324,2387.6326714515685
13:38:30,1,J19,Cypress Hills,-73.87255,40.689941,2632.4660039901732
13:38:30,1,J20,Crescent St,-73.873785,40.683194,2237.6326714515685
13:38:30,1,J21,Norwood Av,-73.880039,40.68141,2147.6326714515685
13:38:30,1,J22,Cleveland St,-73.884639,40.679947,2215.508459424972
13:38:30,1,J23,Van Siclen Av,-73.891688,40.678024,1997.6326714515685
13:38:30,1,J24,Alabama Av,-73.898654,40.676992,1937.6326714515685
13:38:30,1,J27,Broadway Junction,-73.904512,40.679498,1834.3142841815948
13:38:30,1,J28,Chauncey St,-73.910456,40.682893,1907.6326714515685
13:38:30,1,J29,Halsey St,-73.916559,40.68637,2082.6326714515685
13:38:30,1,J30,Gates Av,-73.92227,40.68963,2057.6326714515685
13:38:30,1,J31,Kosciuszko St,-73.928814,40.693342,2033.7172900199892
12:18:00,1,L01,8 Av,-74.002578,40.739777,1353.114284181595
12:18:00,1,L02,6 Av,-73.996786,40.737335,1209.2142841815948
12:18:00,1,L03,14 St-Union Sq,-73.99073,40.734789,1034.2142841815948
12:18:00,1,L05,3 Av,-73.986122,40.732849,970.2142841815948
12:18:00,1,L06,1 Av,-73.981628,40.730953,911.2142841815948
12:18:00,1,L08,Bedford Av,-73.956872,40.717304,700.2142841815948
12:09:00,1,L10,Lorimer St,-73.950275,40.714063,614.2142841815948
12:09:00,1,L11,Graham Av,-73.944053,40.714565,670.014284181595
12:09:00,1,L12,Grand St,-73.94067,40.711926,770.014284181595
12:09:00,1,L13,Montrose Av,-73.93985,40.707739,818.014284181595
12:09:00,1,L14,Morgan Av,-73.933147,40.706152,910.014284181595
12:09:00,1,L15,Jefferson St,-73.922913,40.706607,1015.2142841815948
12:09:00,1,L16,DeKalb Av,-73.918425,40.703811,1094.2142841815948
12:09:00,1,L17,Myrtle-Wyckoff Avs,-73.911586,40.699814,1190.2142841815948
12:09:00,1,L19,Halsey St,-73.904084,40.695602,1265.2142841815948
12:09:00,1,L20,Wilson Av,-73.904046,40.688764,1401.2142841815948
12:09:00,1,L21,Bushwick Av-Aberdeen St,-73.905249,40.682829,1515.2142841815948
12:09:00,1,L22,Broadway Junction,-73.90324,40.678856,1609.3142841815948
12:09:00,1,L24,Atlantic Av,-73.903097,40.675345,1787.3142841815948
12:09:00,1,L25,Sutter Av,-73.901975,40.669367,1886.3142841815948
12:09:00,1,L26,Livonia Av,-73.900571,40.664038,1969.3142841815948
12:09:00,1,L27,New Lots Av,-73.899232,40.658733,2046.1142841815947
12:09:00,1,L28,East 105 St,-73.899485,40.650573,2200.114284181595
12:09:00,1,L29,Canarsie-Rockaway Pkwy,-73.90185,40.646654,2459.1142841815954
12:18:00,2,M01,Middle Village-Metropolitan Av,-73.889601,40.711396,1899.614284181595
12:18:00,2,M04,Fresh Pond Rd,-73.895877,40.706186,1767.614284181595
12:18:00,2,M05,Forest Av,-73.903077,40.704423,1656.614284181595
12:18:00,2,M06,Seneca Av,-73.90774,40.702762,1536.614284181595
12:09:00,2,M08,Myrtle-Wyckoff Avs,-73.912385,40.69943,1415.2142841815948
12:58:00,2,M09,Knickerbocker Av,-73.919711,40.698664,1535.2142841815948
12:58:00,2,M10,Central Av,-73.927397,40.697857,1673.214284181595
12:58:00,2,M11,Myrtle Av,-73.935657,40.697207,1848.8046685218812
12:09:00,2,M12,Flushing Av,-73.941126,40.70026,1980.214284181595
12:07:30,1,M13,Lorimer St,-73.947408,40.703869,2102.214284181595
12:07:30,1,M14,Hewes St,-73.953431,40.70687,2209.791303777695
12:07:30,1,M16,Marcy Av,-73.957757,40.708359,2104.791303777695
12:58:30,0,M18,Delancey St-Essex St,-73.987437,40.718315,1685.3913037776945
12:07:30,1,M19,Bowery,-73.993915,40.72028,1800.3913037776947
12:07:30,1,M20,Canal St,-73.999892,40.718092,1830.6550641059875
12:38:30,1,M21,Chambers St,-74.003401,40.713243,1732.3913037776947
12:38:30,1,M22,Fulton St,-74.007582,40.710374,1597.3913037776947
12:38:30,1,M23,Broad St,-74.011056,40.706476,1665.3913037776947
12:07:30,0,N02,8 Av,-74.011719,40.635064,2380.273018503189
12:07:30,0,N03,Fort Hamilton Pkwy,-74.005351,40.631386,2556.6730185031893
12:07:30,0,N04,New Utrecht Av,-73.996353,40.624842,2711.1730185031893
12:07:30,0,N05,18 Av,-73.990414,40.620671,2818.1730185031893
12:07:30,0,N06,20 Av,-73.985026,40.61741,2893.1730185031893
12:07:30,0,N07,Bay Pkwy,-73.981848,40.611815,3048.1730185031893
12:07:30,0,N08,Kings Hwy,-73.980353,40.603923,3200.273018503189
12:07:30,0,N09,Avenue U,-73.979137,40.597473,3333.273018503189
12:07:30,0,N10,86 St,-73.97823,40.592721,3480.07301850319
13:18:00,2,Q01,Canal St,-74.00046,40.718383,1604.9339110851288
12:18:00,1,Q03,72 St,-73.958424,40.768799,1926.7923081874847
12:18:00,1,Q04,86 St,-73.951787,40.777891,2085.7923081874847
12:18:00,1,Q05,96 St,-73.947152,40.784318,2202.7923081874847
12:09:00,2,R01,Astoria-Ditmars Blvd,-73.912034,40.775036,2001.392308187485
12:09:00,2,R03,Astoria Blvd,-73.917843,40.770258,1886.392308187485
12:09:00,2,R04,30 Av,-73.921479,40.766779,1762.392308187485
12:09:00,2,R05,Broadway,-73.925508,40.76182,1642.392308187485
12:09:00,2,R06,36 Av,-73.929575,40.756804,1512.3923081874848
12:09:00,2,R08,39 Av-Dutch Kills,-73.932755,40.752882,1367.5923081874848
12:09:00,2,R09,Queensboro Plaza,-73.940202,40.750582,1172.5923081874848
12:09:00,2,R11,Lexington Av/59 St,-73.967258,40.76266,1537.5923081874848
12:09:00,2,R13,5 Av/59 St,-73.973347,40.764811,1667.5923081874848
12:09:00,2,R14,57 St-7 Av,-73.980658,40.764664,1841.4000016689301
12:09:00,2,R15,49 St,-73.984139,40.759901,1853.4447189331054
12:09:00,2,R16,Times Sq-42 St,-73.986754,40.754672,1613.4447189331054
12:18:00,2,R17,34 St-Herald Sq,-73.98795,40.749567,1493.4447189331054
12:18:00,2,R18,28 St,-73.988691,40.745494,1508.2683370113373
12:18:00,2,R19,23 St,-73.989344,40.741303,1393.2683370113373
12:18:00,2,R20,14 St-Union Sq,-73.990568,40.735736,1259.2142841815948
12:18:00,2,R21,8 St-NYU,-73.992629,40.730328,1390.2142841815948
12:48:30,1,R22,Prince St,-73.997702,40.724329,1510.2142841815948
12:48:30,1,R23,Canal St,-74.001775,40.719527,1630.2142841815948
12:48:30,1,R24,City Hall,-74.006978,40.713282,1805.2142841815948
12:48:30,1,R25,Cortlandt St,-74.011029,40.710668,1766.1521713733673
12:48:30,1,R26,Rector St,-74.013342,40.70722,1531.452171373367
12:48:30,1,R27,Whitehall St-South Ferry,-74.012994,40.703087,1463.4521713733673
12:48:30,1,R28,Court St,-73.991777,40.6941,1200.5913037776945
12:38:30,1,R29,Jay St-MetroTech,-73.985942,40.69218,1085.3913037776945
12:38:30,1,R30,DeKalb Av,-73.981824,40.690635,1210.4913037776946
12:07:30,1,R31,Atlantic Av-Barclays Ctr,-73.97881,40.683666,1390.4913037776946
13:08:30,1,R32,Union St,-73.98311,40.677316,1534.7000000000003
12:16:30,1,R33,4 Av-9 St,-73.988302,40.670847,1401.1000000000001
12:16:30,1,R34,Prospect Av,-73.992872,40.665414,1521.1000000000001
12:16:30,1,R35,25 St,-73.998091,40.660397,1620.1000000000001
12:16:30,1,R36,36 St,-74.003549,40.655144,1761.1000000000001
12:07:30,0,R39,45 St,-74.010006,40.648939,1979.8727284431457
12:07:30,0,R40,53 St,-74.014034,40.645069,2100.8727284431457
12:07:30,0,R41,59 St,-74.017881,40.641362,2164.273018503189
12:07:30,0,R42,Bay Ridge Av,-74.023377,40.634967,2344.8135587215424
12:07:30,0,R43,77 St,-74.02551,40.629742,2459.8135587215424
12:07:30,0,R44,86 St,-74.028398,40.622687,2678.5785719394685
12:07:30,0,R45,Bay Ridge-95 St,-74.030876,40.616622,2798.5785719394685
12:38:30,1,S01,Franklin Av,-73.955827,40.680596,1285.595746278763
12:38:30,1,S03,Park Pl,-73.957624,40.674772,1419.9957462787631
12:38:30,1,S04,Botanic Garden,-73.959245,40.670343,1591.595746278763
