start_time,ntransfers,stop_id,stop_name,stop_lon,stop_lat,duration
12:15:30,1,101,Van Cortlandt Park-242 St,-73.898583,40.889248,4533.1827222347265
12:15:30,1,103,238 St,-73.90087,40.884667,4362.420986986161
12:15:30,1,104,231 St,-73.904834,40.878856,4221.420986986161
12:15:30,1,106,Marble Hill-225 St,-73.909831,40.874561,4111.420986986161
12:15:30,1,107,215 St,-73.915279,40.869444,3977.782722234726
12:15:30,1,108,207 St,-73.918822,40.864621,3865.4209869861606
12:15:30,1,109,Dyckman St,-73.925536,40.860531,3744.4209869861606
12:15:30,1,110,191 St,-73.929412,40.855225,3637.4209869861606
12:15:30,1,111,181 St,-73.933596,40.849505,3526.4209869861606
12:15:30,1,112,168 St-Washington Hts,-73.940133,40.840556,3391.4209869861606
12:15:30,1,113,157 St,-73.94489,40.834041,3279.4209869861606
12:15:30,1,114,145 St,-73.95036,40.826551,3149.4209869861606
12:15:30,1,115,137 St-City College,-73.953676,40.822008,3035.4209869861606
12:15:30,1,116,125 St,-73.958372,40.815581,2914.620986986161
12:15:30,1,117,116 St-Columbia University,-73.96411,40.807722,2749.620986986161
12:15:30,1,118,Cathedral Pkwy (110 St),-73.966847,40.803967,2664.620986986161
12:15:30,1,119,103 St,-73.968379,40.799446,2576.620986986161
12:15:30,1,120,96 St,-73.972323,40.793919,2230.5000016689305
12:55:30,1,121,86 St,-73.976218,40.788644,2313.520986986161
12:55:30,1,122,79 St,-73.979917,40.783934,2219.8209869861603
12:15:30,1,123,72 St,-73.98197,40.778453,2012.8000016689302
12:00:30,1,124,66 St-Lincoln Center,-73.982209,40.77344,2077.8000016689302
12:00:30,1,125,59 St-Columbus Circle,-73.981929,40.768247,1983.8000016689302
12:00:30,1,126,50 St,-73.983849,40.761728,1855.80000166893
12:15:30,1,127,Times Sq-42 St,-73.987495,40.75529,1727.80000166893
12:10:30,1,128,34 St-Penn Station,-73.991057,40.750373,1853.129808187485
12:10:30,1,129,28 St,-73.993365,40.747215,1934.1298081874847
12:10:30,1,130,23 St,-73.995657,40.744081,2011.1298081874847
12:10:30,1,131,18 St,-73.997871,40.74104,2085.1298081874847
12:10:30,1,132,14 St,-74.000201,40.737826,2049.30000166893
13:35:30,1,133,Christopher St-Sheridan Sq,-74.002906,40.733422,2272.929808187485
13:35:30,1,134,Houston St,-74.005367,40.728251,2376.929808187485
13:35:30,1,135,Canal St,-74.006277,40.722854,2506.929808187485
12:50:30,1,136,Franklin St,-74.006886,40.719318,2579.929808187485
12:10:30,1,137,Chambers St,-74.009266,40.715478,2345.30000166893
12:50:30,1,138,WTC Cortlandt,-74.012188,40.711835,2643.554100322723
12:50:30,1,139,Rector St,-74.013783,40.707513,2745.554100322723
12:50:30,1,142,South Ferry,-74.013664,40.702068,2888.554100322723
12:10:30,1,201,Wakefield-241 St,-73.85062,40.903125,4856.361066627502
12:10:30,1,204,Nereid Av,-73.854376,40.898379,4595.718914794922
12:10:30,1,205,233 St,-73.857473,40.893193,4438.118914794922
12:10:30,1,206,225 St,-73.860341,40.888022,4338.118914794922
12:10:30,1,207,219 St,-73.862633,40.883895,4252.918914794922
12:10:30,1,208,Gun Hill Rd,-73.866256,40.87785,4137.618914794922
12:10:30,1,209,Burke Av,-73.867164,40.871356,4148.361066627502
12:10:30,1,210,Allerton Av,-73.867352,40.865462,4045.3610666275017
12:10:30,1,211,Pelham Pkwy,-73.867615,40.857192,3920.361066627502
12:10:30,1,212,Bronx Park East,-73.868457,40.848828,3781.361066627502
12:10:30,1,213,E 180 St,-73.873488,40.841894,3286.2999999999997
12:10:30,1,214,West Farms Sq-E Tremont Av,-73.880049,40.840295,3673.9561819076534
12:10:30,1,215,174 St,-73.887734,40.837288,3524.9561819076534
12:10:30,1,216,Freeman St,-73.891865,40.829993,3378.956181907654
12:10:30,1,217,Simpson St,-73.893064,40.824073,3251.956181907654
12:10:30,1,218,Intervale Av,-73.896736,40.822181,3165.956181907654
12:10:30,1,219,Prospect Av,-73.90177,40.819585,3062.956181907654
12:10:30,1,220,Jackson Av,-73.907807,40.81649,2938.9561819076534
12:10:30,1,221,3 Av-149 St,-73.917757,40.816109,2560.2999999999997
12:10:30,1,222,149 St-Grand Concourse,-73.926718,40.81841,2440.2999999999997
12:10:30,1,224,135 St,-73.94077,40.814229,2872.2000016689303
12:15:30,1,225,125 St,-73.945495,40.807754,2733.2000016689303
12:15:30,1,226,116 St,-73.949625,40.802098,2620.2000016689303
12:15:30,1,227,Central Park North (110 St),-73.951822,40.799075,2531.5000016689305
12:10:30,1,228,Park Place,-74.008811,40.713051,2449.30000166893
12:10:30,1,229,Fulton St,-74.006571,40.709416,2588.30000166893
12:20:30,2,230,Wall St,-74.0091,40.706821,2677.30000166893
12:00:30,2,231,Clark St,-73.993086,40.697466,2886.30000166893
12:15:30,1,232,Borough Hall,-73.989998,40.693219,3018.3000016689302
12:15:30,1,233,Hoyt St,-73.985065,40.690545,3053.4870262622835
12:00:30,1,234,Nevins St,-73.980492,40.688246,2912.8000016689302
12:00:30,1,235,Atlantic Av-Barclays Ctr,-73.977666,40.684359,3002.8000016689302
12:15:30,1,236,Bergen St,-73.975098,40.680829,3157.729008674622
12:15:30,1,237,Grand Army Plaza,-73.971046,40.675235,3270.487026262283
12:15:30,1,238,Eastern Pkwy-Brooklyn Museum,-73.964375,40.671987,3390.6870262622833
12:15:30,1,239,Franklin Av-Medgar Evers College,-73.958131,40.670682,3331.3000016689302
12:00:30,1,241,President St-Medgar Evers College,-73.950683,40.667883,3506.8000016689302
12:00:30,1,242,Sterling St,-73.95085,40.662742,3598.3000016689302
12:00:30,1,243,Winthrop St,-73.9502,40.656652,3710.8000016689302
12:00:30,1,244,Church Av,-73.949575,40.650843,3806.8000016689302
12:00:30,1,245,Beverly Rd,-73.948959,40.645098,3916.30000166893
12:00:30,1,246,Newkirk Av-Little Haiti,-73.948411,40.639967,3994.30000166893
12:00:30,1,247,Flatbush Av-Brooklyn College,-73.947642,40.632836,4132.300001668929
12:00:30,1,248,Nostrand Av,-73.950466,40.669847,3589.9882387161256
12:00:30,1,249,Kingston Av,-73.942161,40.669399,3708.7882387161253
12:15:30,1,250,Crown Hts-Utica Av,-73.932942,40.668897,3775.1882387161254
12:00:30,1,251,Sutter Av-Rutland Rd,-73.92261,40.664717,3915.5652805805203
12:00:30,1,252,Saratoga Av,-73.916327,40.661453,3796.5652805805203
12:00:30,1,253,Rockaway Av,-73.908946,40.662549,3691.4652805805204
12:05:30,4,254,Junius St,-73.902447,40.663515,3599.465280580521
12:05:30,4,255,Pennsylvania Av,-73.894895,40.664635,3712.1652805805206
12:05:30,4,256,Van Siclen Av,-73.889395,40.665449,3796.1652805805206
12:05:30,4,257,New Lots Av,-73.884079,40.666235,3942.665280580521
12:35:30,1,301,Harlem-148 St,-73.93647,40.82388,3315.12307972908
12:35:30,1,302,145 St,-73.936245,40.820421,3109.200001668931
12:15:30,1,401,Woodlawn,-73.878751,40.886037,4193.049999999999
12:15:30,1,402,Mosholu Pkwy,-73.884655,40.87975,4017.0499999999993
12:15:30,1,405,Bedford Park Blvd-Lehman College,-73.890064,40.873412,3871.0499999999993
12:15:30,1,406,Kingsbridge Rd,-73.897174,40.86776,3734.0499999999993
12:15:30,1,407,Fordham Rd,-73.901034,40.862803,3629.0499999999993
12:15:30,1,408,183 St,-73.903879,40.858407,3523.0499999999993
12:15:30,1,409,Burnside Av,-73.907684,40.853453,3408.0499999999993
12:15:30,1,410,176 St,-73.911794,40.84848,3300.0499999999997
12:15:30,1,411,Mt Eden Av,-73.914685,40.844434,3201.0499999999997
12:15:30,1,412,170 St,-73.917791,40.840075,3107.0499999999993
12:15:30,1,413,167 St,-73.9214,40.835537,3000.0499999999997
12:15:30,1,414,161 St-Yankee Stadium,-73.925831,40.827994,2808.0065808296204
12:15:30,1,415,149 St-Grand Concourse,-73.927351,40.818375,2500.006580829621
12:15:30,1,416,138 St-Grand Concourse,-73.929849,40.813224,2234.7999999999997
12:00:30,1,418,Fulton St,-74.009509,40.710368,2275.3000016689302
12:00:30,1,419,Wall St,-74.011862,40.707557,2374.3000016689302
12:00:30,1,420,Bowling Green,-74.014065,40.704817,2464.3000016689302
12:00:30,1,423,Borough Hall,-73.990151,40.692404,2792.8000016689302
12:10:30,1,501,Eastchester-Dyre Av,-73.830834,40.8883,4036.2999999999997
12:10:30,1,502,Baychester Av,-73.838591,40.878663,3886.2999999999997
12:10:30,1,503,Gun Hill Rd,-73.846384,40.869526,3736.2999999999997
12:10:30,1,504,Pelham Pkwy,-73.855359,40.858985,3586.2999999999997
12:10:30,1,505,Morris Park,-73.860495,40.854364,3496.2999999999997
13:35:30,1,601,Pelham Bay Park,-73.828121,40.852462,4286.061910438537
13:35:30,1,602,Buhre Av,-73.832569,40.84681,4066.3619104385375
13:35:30,1,603,Middletown Rd,-73.836322,40.843863,3984.361910438538
13:35:30,1,604,Westchester Sq-E Tremont Av,-73.842952,40.839892,3796.142858505249
13:35:30,1,606,Zerega Av,-73.847036,40.836488,3678.142858505249
13:35:30,1,607,Castle Hill Av,-73.851222,40.834255,3596.2428585052485
12:55:30,1,608,Parkchester,-73.860816,40.833226,3269.4428585052488
12:55:30,1,609,St Lawrence Av,-73.867618,40.831509,3546.9871706962585
12:55:30,1,610,Morrison Av-Soundview,-73.874516,40.829521,3413.9871706962585
12:55:30,1,611,Elder Av,-73.879159,40.828584,3324.987170696258
12:55:30,1,612,Whitlock Av,-73.886283,40.826525,3187.9871706962585
12:55:30,1,613,Hunts Point Av,-73.890549,40.820948,2917.0428585052487
12:15:30,1,614,Longwood Av,-73.896435,40.816104,3085.6515535354615
12:15:30,1,615,E 149 St,-73.904098,40.812118,2957.6515535354615
12:15:30,1,616,E 143 St-St Mary's St,-73.907657,40.808719,2867.6515535354615
12:15:30,1,617,Cypress Av,-73.914042,40.805368,2748.6515535354615
12:15:30,1,618,Brook Av,-73.91924,40.807566,2669.651553535461
12:15:30,1,619,3 Av-138 St,-73.926138,40.810476,2513.0428585052487
12:15:30,1,621,125 St,-73.937594,40.804138,2041.2999999999997
12:10:30,1,622,116 St,-73.941617,40.798629,2166.6
12:00:30,1,623,110 St,-73.94425,40.79502,2070.4
12:00:30,1,624,103 St,-73.947478,40.7906,1980.4
12:00:30,1,625,96 St,-73.95107,40.785672,1875.5
12:15:30,1,626,86 St,-73.955589,40.779492,1681.3
12:00:30,1,627,77 St,-73.959874,40.77362,1648.8999999999999
12:00:30,1,628,68 St-Hunter College,-73.96387,40.768141,1535.2126996994018
12:00:30,1,629,59 St,-73.967967,40.762526,1418.8
12:00:30,1,630,51 St,-73.97192,40.757107,1530.6
12:00:30,1,631,Grand Central-42 St,-73.976848,40.751776,1550.80000166893
12:00:30,1,632,33 St,-73.982076,40.746081,1685.80000166893
12:00:30,1,633,28 St,-73.984264,40.74307,1763.80000166893
12:00:30,1,634,23 St,-73.986599,40.739864,1843.80000166893
12:00:30,1,635,14 St-Union Sq,-73.989951,40.734673,1817.80000166893
12:00:30,1,636,Astor Pl,-73.99107,40.730054,2104.8000016689302
12:00:30,1,637,Bleecker St,-73.994659,40.725915,2215.8000016689302
12:00:30,1,638,Spring St,-73.997141,40.722301,2300.50000166893
12:00:30,1,639,Canal St,-74.000193,40.718803,2336.3000016689302
12:00:30,1,640,Brooklyn Bridge-City Hall,-74.004131,40.713065,2155.3000016689302
12:00:30,1,701,Flushing-Main St,-73.83003,40.7596,2157.035165330342
12:00:30,1,702,Mets-Willets Point,-73.845625,40.754622,1947.035165330342
12:00:30,1,705,111 St,-73.855334,40.75173,2068.8923081874846
12:00:30,1,706,103 St-Corona Plaza,-73.8627,40.749865,1979.8923081874846
12:00:30,1,707,Junction Blvd,-73.869527,40.749145,1699.8923081874846
12:00:30,1,708,90 St-Elmhurst Av,-73.876613,40.748408,1902.8923081874846
12:00:30,1,709,82 St-Jackson Hts,-73.883697,40.747659,1958.9872352600098
12:00:30,1,710,74 St-Broadway,-73.891394,40.746848,1731.9872352600098
12:00:30,1,711,69 St,-73.896403,40.746325,1584.98723526001
12:00:30,1,712,61 St-Woodside,-73.902984,40.74563,1456.5872352600097
12:00:30,1,713,52 St,-73.912549,40.744149,1306.90000166893
12:00:30,1,714,46 St-Bliss St,-73.918435,40.743132,1242.90000166893
12:00:30,1,715,40 St-Lowery St,-73.924016,40.743781,1175.90000166893
12:00:30,1,716,33 St-Rawson St,-73.930997,40.744587,1043.90000166893
12:00:30,1,718,Queensboro Plaza,-73.940202,40.750582,875.80000166893
12:00:30,1,719,Court Sq,-73.945264,40.747023,981.3923081874848
12:00:30,1,720,Hunters Point Av,-73.948916,40.742216,1083.7923081874849
12:00:30,1,721,Vernon Blvd-Jackson Av,-73.953581,40.742626,1130.0923081874848
12:00:30,1,723,Grand Central-42 St,-73.976041,40.751431,1342.792308187485
12:00:30,1,724,5 Av,-73.981963,40.753821,1430.7923081874849
12:00:30,1,725,Times Sq-42 St,-73.987691,40.755477,1518.192308187485
12:00:30,1,726,34 St-Hudson Yards,-74.00191,40.755882,1648.192308187485
12:00:30,1,901,Grand Central-42 St,-73.979189,40.752769,1490.80000166893
12:00:30,2,902,Times Sq-42 St,-73.986229,40.755983,1607.80000166893
12:25:30,1,A02,Inwood-207 St,-73.919899,40.868072,3887.30000166893
12:25:30,1,A03,Dyckman St,-73.927271,40.865491,3767.30000166893
12:25:30,1,A05,190 St,-73.93418,40.859022,3602.30000166893
12:25:30,1,A06,181 St,-73.937969,40.851695,3477.30000166893
12:25:30,1,A07,175 St,-73.939704,40.847391,3357.30000166893
12:05:30,1,A09,168 St,-73.939561,40.840719,3185.50000166893
12:30:30,0,A10,163 St-Amsterdam Av,-73.939892,40.836013,3186.4149428844453
12:30:30,0,A11,155 St,-73.941514,40.830518,3035.789004039765
12:05:30,1,A12,145 St,-73.944216,40.824783,2880.5000016689296
12:05:30,1,A14,135 St,-73.947649,40.817894,2761.4149428844453
12:30:30,0,A15,125 St,-73.952343,40.811109,2553.6570466041567
12:25:30,1,A16,116 St,-73.954882,40.805085,2718.8149428844454
12:25:30,1,A17,Cathedral Pkwy (110 St),-73.958161,40.800603,2748.3570466041565
12:25:30,1,A18,103 St,-73.961454,40.796092,2632.3570466041565
12:25:30,1,A19,96 St,-73.964696,40.791642,2514.3570466041565
12:25:30,1,A20,86 St,-73.968916,40.785868,2394.3570466041565
12:25:30,1,A21,81 St-Museum of Natural History,-73.972143,40.781433,2274.3570466041565
12:25:30,1,A22,72 St,-73.97641,40.775594,2154.3570466041565
12:25:30,1,A24,59 St-Columbus Circle,-73.981736,40.768296,1914.80000166893
12:25:30,1,A25,50 St,-73.985984,40.762456,1826.8923081874855
13:20:30,1,A27,42 St-Port Authority Bus Terminal,-73.989735,40.757308,1727.80000166893
12:00:30,1,A28,34 St-Penn Station,-73.993391,40.752287,1852.8000016689298
12:00:30,1,A30,23 St,-73.998041,40.745906,1972.8000016689298
13:30:30,1,A31,14 St,-74.00169,40.740893,2038.80000166893
13:30:30,1,A32,W 4 St-Wash Sq,-74.000495,40.732338,2209.8000016689302
13:30:30,1,A33,Spring St,-74.003739,40.726227,2362.80000166893
13:30:30,1,A34,Canal St,-74.005229,40.720824,2442.7923081874847
12:15:30,2,A36,Chambers St,-74.008585,40.714111,2597.792308187485
13:30:30,1,A38,Fulton St,-74.007691,40.710197,2504.8000009536745
13:00:30,2,A40,High St,-73.990531,40.699337,2724.6000009536747
12:00:30,2,A41,Jay St-MetroTech,-73.987342,40.692338,2825.7923081874847
12:05:30,2,A42,Hoyt-Schermerhorn Sts,-73.985001,40.688484,2594.3923081874846
12:05:30,2,A43,Lafayette Av,-73.973946,40.686113,2991.9880544662474
12:05:30,2,A44,Clinton-Washington Avs,-73.965838,40.683263,3106.9880544662474
12:05:30,2,A45,Franklin Av,-73.956848,40.68138,3226.9880544662474
12:00:30,2,A46,Nostrand Av,-73.950426,40.680438,3236.7836119651793
12:05:30,2,A47,Kingston-Throop Avs,-73.940858,40.679921,3357.883611965179
12:00:30,2,A48,Utica Av,-73.930729,40.679364,3434.983611965179
12:05:30,2,A49,Ralph Av,-73.920786,40.678822,3385.7836678504946
12:05:30,2,A50,Rockaway Av,-73.911946,40.67834,3265.7836678504946
12:00:30,2,A51,Broadway Junction,-73.905316,40.678334,3147.7836678504946
12:00:30,2,A52,Liberty Av,-73.896548,40.674542,3322.783667850494
12:00:30,2,A53,Van Siclen Av,-73.890358,40.67271,3442.783667850494
12:00:30,2,A54,Shepherd Av,-73.88075,40.67413,3562.783667850494
12:00:30,2,A55,Euclid Av,-73.872106,40.675377,3567.7836678504946
12:00:30,2,A57,Grant Av,-73.86505,40.677044,3732.7836678504946
12:00:30,2,A59,80 St,-73.858992,40.679371,3854.7836678504946
12:00:30,2,A60,88 St,-73.85147,40.679843,3975.7836678504946
12:00:30,2,A61,Rockaway Blvd,-73.843853,40.680429,4095.7836678504946
12:25:30,1,A63,104 St,-73.837683,40.681711,4215.783667850495
12:25:30,1,A64,111 St,-73.832163,40.684331,4335.783667850495
12:25:30,1,A65,Ozone Park-Lefferts Blvd,-73.825798,40.685951,4467.783667850495
12:05:30,1,B04,21 St-Queensbridge,-73.942836,40.754203,1838.8
12:45:30,1,B06,Roosevelt Island,-73.95326,40.759145,1715.2925898551941
12:05:30,0,B08,Lexington Av/63 St,-73.966113,40.764629,1470.1000000000006
12:10:30,1,B10,57 St,-73.97745,40.763972,1718.8
12:05:30,0,B12,9 Av,-73.994324,40.646292,4016.264531469346
12:05:30,0,B13,Fort Hamilton Pkwy,-73.994304,40.640914,4206.264531469346
12:05:30,0,B14,50 St,-73.994791,40.63626,4326.264531469346
12:05:30,0,B15,55 St,-73.995476,40.631435,4446.264531469346
12:05:30,0,B16,62 St,-73.996895,40.626472,4580.325277662277
12:05:30,0,B17,71 St,-73.998864,40.619589,4700.325277662277
12:05:30,0,B18,79 St,-74.00061,40.613501,4823.325277662277
12:05:30,0,B19,18 Av,-74.001736,40.607954,4938.325277662278
12:05:30,0,B20,20 Av,-73.998168,40.604556,5053.325277662278
12:05:30,0,B21,Bay Pkwy,-73.993728,40.601875,5163.325277662278
13:25:30,0,B22,25 Av,-73.986829,40.597704,5318.564531469346
13:25:30,0,B23,Bay 50 St,-73.983765,40.588841,5335.792308187484
12:05:30,2,D01,Norwood-205 St,-73.878855,40.874811,4221.214528465271
12:05:30,2,D03,Bedford Park Blvd,-73.887138,40.873244,4008.014528465271
12:05:30,2,D04,Kingsbridge Rd,-73.893509,40.866978,3868.0145284652713
12:05:30,2,D05,Fordham Rd,-73.897749,40.861296,3748.0145284652713
12:05:30,2,D06,182-183 Sts,-73.900741,40.856093,3673.214528465271
13:25:30,2,D07,Tremont Av,-73.905227,40.85041,3556.214528465271
13:25:30,2,D08,174-175 Sts,-73.910136,40.8459,3436.214528465271
13:25:30,2,D09,170 St,-73.9134,40.839306,3314.814528465271
13:25:30,2,D10,167 St,-73.91844,40.833771,3191.814528465271
13:25:30,2,D11,161 St-Yankee Stadium,-73.925651,40.827905,3061.814528465271
12:30:30,2,D12,155 St,-73.938209,40.830135,3061.657046604156
12:30:30,0,D13,145 St,-73.944216,40.824783,2803.6570466041567
12:25:30,1,D14,7 Av,-73.981637,40.762862,1616.3923081874848
12:10:30,1,D15,47-50 Sts-Rockefeller Ctr,-73.981329,40.758663,1555.6780224731992
12:10:30,1,D16,42 St-Bryant Pk,-73.984569,40.754222,1655.7923081874849
12:10:30,1,D17,34 St-Herald Sq,-73.987823,40.749719,1745.7923081874849
12:10:30,1,D18,23 St,-73.992821,40.742878,1865.7923081874849
12:10:30,1,D19,14 St,-73.996209,40.738228,1970.7923081874847
12:10:30,1,D20,W 4 St-Wash Sq,-74.000495,40.732338,1990.7923081874849
12:10:30,1,D21,Broadway-Lafayette St,-73.996204,40.725297,2169.792308187485
12:30:30,0,D22,Grand St,-73.993753,40.718267,2344.7923081874847
12:15:30,0,D24,Atlantic Av-Barclays Ctr,-73.97689,40.68446,3130.7923081874847
12:15:30,0,D25,7 Av,-73.972367,40.67705,3310.7923081874847
12:15:30,0,D26,Prospect Park,-73.962246,40.661614,3597.7923081874847
12:15:30,0,D27,Parkside Av,-73.961495,40.655292,3771.0619049549105
12:15:30,0,D28,Church Av,-73.962982,40.650527,3781.592308187485
12:15:30,0,D29,Beverley Rd,-73.964492,40.644031,3930.282785797119
12:15:30,0,D30,Cortelyou Rd,-73.963891,40.640927,4045.282785797119
12:15:30,0,D31,Newkirk Plaza,-73.962793,40.635082,4001.5923081874844
12:15:30,0,D32,Avenue H,-73.961639,40.62927,4155.9123090744015
12:15:30,0,D33,Avenue J,-73.960803,40.625039,4276.9123090744015
12:15:30,0,D34,Avenue M,-73.959399,40.617618,4404.9123090744015
12:15:30,0,D35,Kings Hwy,-73.957734,40.60867,4345.092308187485
12:15:30,0,D37,Avenue U,-73.955929,40.5993,4590.102620267869
12:15:30,0,D38,Neck Rd,-73.955161,40.595246,4745.302620267868
12:15:30,0,D39,Sheepshead Bay,-73.954155,40.586896,4684.832309961319
12:15:30,0,D40,Brighton Beach,-73.961376,40.577621,4864.832309961319
12:15:30,0,D41,Ocean Pkwy,-73.968501,40.576312,5044.932309961318
12:15:30,0,D42,W 8 St-NY Aquarium,-73.975939,40.576127,4859.192308187485
12:15:30,0,D43,Coney Island-Stillwell Av,-73.981233,40.577422,4993.692308187485
13:45:30,1,E01,World Trade Center,-74.009781,40.712582,2681.899449920654
12:30:30,0,F01,Jamaica-179 St,-73.783817,40.712646,3112.9446837425235
12:25:30,0,F02,169 St,-73.793604,40.71047,3022.9446837425235
12:00:30,2,F03,Parsons Blvd,-73.803326,40.707564,2902.9446837425235
12:00:30,2,F04,Sutphin Blvd,-73.810708,40.70546,2812.9446837425235
12:00:30,2,F05,Briarwood,-73.820574,40.709179,2692.9446837425235
12:00:30,2,F06,Kew Gardens-Union Tpke,-73.831008,40.714441,2572.9446837425235
12:00:30,2,F07,75 Av,-73.837324,40.718331,2482.9446837425235
12:05:30,2,F09,Court Sq-23 St,-73.946,40.747846,1101.3923081874848
12:05:30,2,F11,Lexington Av/53 St,-73.969055,40.757552,1304.9637367589135
12:05:30,2,F12,5 Av/53 St,-73.975224,40.760167,1404.1474102283012
12:10:30,1,F14,2 Av,-73.989938,40.723402,2345.7923081874847
12:10:30,1,F15,Delancey St-Essex St,-73.988114,40.718611,2465.7923081874847
12:10:30,1,F16,East Broadway,-73.990173,40.713715,2555.7923081874847
12:15:30,1,F18,York St,-73.986751,40.701397,2735.7923081874847
12:05:30,2,F20,Bergen St,-73.990862,40.686145,2839.3923081874846
12:05:30,2,F21,Carroll St,-73.995048,40.680303,2964.392308187485
12:05:30,2,F22,Smith-9 Sts,-73.995959,40.67358,3149.392308187485
12:05:30,2,F23,4 Av-9 St,-73.989779,40.670272,3269.392308187485
12:05:30,2,F24,7 Av,-73.980305,40.666271,3245.7923081874847
12:05:30,2,F25,15 St-Prospect Park,-73.979493,40.660365,3418.9574471473693
12:05:30,2,F26,Fort Hamilton Pkwy,-73.975776,40.650782,3658.9574471473693
12:05:30,2,F27,Church Av,-73.979678,40.644041,3485.7923081874847
12:15:30,1,F29,Ditmas Av,-73.978172,40.636119,3605.7923081874847
12:15:30,1,F30,18 Av,-73.976971,40.629755,3725.7923081874847
12:15:30,1,F31,Avenue I,-73.976127,40.625322,3785.7923081874847
12:15:30,1,F32,Bay Pkwy,-73.975264,40.620769,3845.7923081874847
12:15:30,1,F33,Avenue N,-73.974197,40.61514,3965.7923081874847
12:15:30,1,F34,Avenue P,-73.973022,40.608944,4055.7923081874847
12:15:30,1,F35,Kings Hwy,-73.972361,40.603217,4340.792308187485
12:15:30,1,F36,Avenue U,-73.973357,40.596063,4461.692308187485
12:15:30,0,F38,Avenue X,-73.97425,40.58962,4581.692308187485
12:15:30,0,F39,Neptune Av,-73.974574,40.581011,4734.192308187485
12:00:30,2,G05,Jamaica Center-Parsons/Archer,-73.801109,40.702147,3280.944683742523
12:00:30,2,G06,Sutphin Blvd-Archer Av-JFK Airport,-73.807969,40.700486,3150.9446837425235
12:00:30,2,G07,Jamaica-Van Wyck,-73.816859,40.702566,2974.9446837425235
12:00:30,2,G08,Forest Hills-71 Av,-73.844521,40.721691,2362.9446837425235
12:00:30,2,G09,67 Av,-73.852719,40.726523,2395.1549317936283
12:00:30,2,G10,63 Dr-Rego Park,-73.861604,40.729846,2301.4049317936283
12:00:30,2,G11,Woodhaven Blvd,-73.869229,40.733106,2211.4049317936283
12:00:30,2,G12,Grand Av-Newtown,-73.877223,40.737015,2091.4049317936283
12:00:30,2,G13,Elmhurst Av,-73.882017,40.742454,2001.4049317936283
12:00:30,2,G14,Jackson Hts-Roosevelt Av,-73.891338,40.746644,1881.4049317936283
12:05:30,2,G15,65 St,-73.898453,40.749669,1791.4049317936283
12:05:30,2,G16,Northern Blvd,-73.906006,40.752885,1697.075034886412
12:05:30,2,G18,46 St,-73.913333,40.756312,1607.075034886412
12:05:30,2,G19,Steinway St,-73.92074,40.756879,1490.1678183915665
12:05:30,2,G20,36 St,-73.928781,40.752039,1370.1678183915665
12:10:30,2,G21,Queens Plaza,-73.937243,40.748973,1224.7596551262604
12:25:30,2,G22,Court Sq,-73.943832,40.746554,1041.3923081874848
12:05:30,2,G24,21 St,-73.949724,40.744065,1161.3923081874848
12:05:30,2,G26,Greenpoint Av,-73.954449,40.731352,1336.3923081874848
12:05:30,2,G28,Nassau Av,-73.951277,40.724635,1461.3923081874848
12:05:30,2,G29,Metropolitan Av,-73.951418,40.712792,1646.3923081874848
12:05:30,2,G30,Broadway,-73.950308,40.706092,1764.3923081874846
12:05:30,2,G31,Flushing Av,-73.950234,40.700377,1884.3923081874846
12:05:30,2,G32,Myrtle-Willoughby Avs,-73.949046,40.694568,2001.3923081874846
12:05:30,2,G33,Bedford-Nostrand Avs,-73.953522,40.689627,2121.3923081874846
12:05:30,2,G34,Classon Av,-73.96007,40.688873,2236.3923081874846
12:05:30,2,G35,Clinton-Washington Avs,-73.966839,40.688089,2349.3923081874846
12:05:30,2,G36,Fulton St,-73.975375,40.687119,2469.3923081874846
12:15:30,1,H01,Aqueduct Racetrack,-73.834058,40.668234,4337.783667850495
12:00:30,2,H02,Aqueduct-N Conduit Av,-73.834058,40.668234,4399.604410600663
12:00:30,2,H03,Howard Beach-JFK Airport,-73.830301,40.660476,4575.604410600663
12:00:30,2,H04,Broad Channel,-73.815925,40.608382,5128.683667850495
12:00:30,2,H06,Beach 67 St,-73.796924,40.590927,5570.283667850495
12:00:30,2,H07,Beach 60 St,-73.788522,40.592374,5700.2836678504955
12:00:30,2,H08,Beach 44 St,-73.776013,40.592943,5827.283667850495
12:00:30,2,H09,Beach 36 St,-73.768175,40.595398,5950.283667850495
12:00:30,2,H10,Beach 25 St,-73.761353,40.600066,6070.283667850495
12:00:30,2,H11,Far Rockaway-Mott Av,-73.755405,40.603995,6190.283667850495
12:00:30,2,H12,Beach 90 St,-73.813641,40.588034,5475.483667850495
12:00:30,2,H13,Beach 98 St,-73.820558,40.585307,5598.483667850494
12:00:30,2,H14,Beach 105 St,-73.827559,40.583209,5713.483667850495
12:00:30,2,H15,Rockaway Park-Beach 116 St,-73.835592,40.580903,5836.483667850495
12:05:30,0,J12,121 St,-73.828294,40.700492,3588.744683742523
12:05:30,0,J13,111 St,-73.836345,40.697418,3700.944683742523
12:05:30,0,J14,104 St,-73.84433,40.695178,3815.5446837425234
12:05:30,0,J15,Woodhaven Blvd,-73.851576,40.693879,3867.783667850494
12:05:30,0,J16,85 St-Forest Pkwy,-73.86001,40.692435,4067.7836678504937
12:05:30,0,J17,75 St-Elderts Ln,-73.867139,40.691324,3687.7836678504946
12:05:30,0,J19,Cypress Hills,-73.87255,40.689941,3932.617000389099
12:05:30,0,J20,Crescent St,-73.873785,40.683194,3537.7836678504946
12:05:30,2,J21,Norwood Av,-73.880039,40.68141,3447.7836678504946
12:05:30,2,J22,Cleveland St,-73.884639,40.679947,3515.659455823898
12:45:30,2,J23,Van Siclen Av,-73.891688,40.678024,3297.7836678504946
12:45:30,2,J24,Alabama Av,-73.898654,40.676992,3237.7836678504946
12:00:30,1,J27,Broadway Junction,-73.904512,40.679498,3134.465280580521
12:00:30,1,J28,Chauncey St,-73.910456,40.682893,3207.7836678504946
12:00:30,1,J29,Halsey St,-73.916559,40.68637,3382.783667850494
12:00:30,1,J30,Gates Av,-73.92227,40.68963,3357.7836678504946
12:00:30,1,J31,Kosciuszko St,-73.928814,40.693342,3333.868286418914
12:00:30,1,L01,8 Av,-74.002578,40.739777,2098.80000166893
12:00:30,1,L02,6 Av,-73.996786,40.737335,2149.7610414505007
12:00:30,1,L03,14 St-Union Sq,-73.99073,40.734789,2031.7610414505007
12:05:30,1,L05,3 Av,-73.986122,40.732849,2123.6610414505008
12:05:30,1,L06,1 Av,-73.981628,40.730953,2176.6610414505008
12:05:30,1,L08,Bedford Av,-73.956872,40.717304,2000.3652805805204
12:05:30,3,L10,Lorimer St,-73.950275,40.714063,1914.3652805805207
12:05:30,3,L11,Graham Av,-73.944053,40.714565,1970.1652805805206
12:05:30,3,L12,Grand St,-73.94067,40.711926,2070.1652805805206
12:05:30,3,L13,Montrose Av,-73.93985,40.707739,2118.16528058052
12:05:30,3,L14,Morgan Av,-73.933147,40.706152,2210.16528058052
12:05:30,3,L15,Jefferson St,-73.922913,40.706607,2315.3652805805204
12:05:30,3,L16,DeKalb Av,-73.918425,40.703811,2394.3652805805204
12:05:30,3,L17,Myrtle-Wyckoff Avs,-73.911586,40.699814,2490.365280580521
12:05:30,3,L19,Halsey St,-73.904084,40.695602,2565.365280580521
12:05:30,3,L20,Wilson Av,-73.904046,40.688764,2701.3652805805204
12:05:30,3,L21,Bushwick Av-Aberdeen St,-73.905249,40.682829,2815.3652805805204
12:05:30,3,L22,Broadway Junction,-73.90324,40.678856,2909.465280580521
12:05:30,3,L24,Atlantic Av,-73.903097,40.675345,3087.465280580521
12:05:30,3,L25,Sutter Av,-73.901975,40.669367,3186.465280580521
12:05:30,3,L26,Livonia Av,-73.900571,40.664038,3269.465280580521
12:05:30,3,L27,New Lots Av,-73.899232,40.658733,3346.2652805805205
12:05:30,3,L28,East 105 St,-73.899485,40.650573,3500.265280580521
12:05:30,3,L29,Canarsie-Rockaway Pkwy,-73.90185,40.646654,3759.2652805805205
12:15:30,2,M01,Middle Village-Metropolitan Av,-73.889601,40.711396,3199.765280580521
12:15:30,2,M04,Fresh Pond Rd,-73.895877,40.706186,3067.765280580521
12:15:30,2,M05,Forest Av,-73.903077,40.704423,2956.7652805805205
12:15:30,2,M06,Seneca Av,-73.90774,40.702762,2836.7652805805205
13:35:30,0,M08,Myrtle-Wyckoff Avs,-73.912385,40.69943,2715.365280580521
12:05:30,4,M09,Knickerbocker Av,-73.919711,40.698664,2835.365280580521
12:05:30,4,M10,Central Av,-73.927397,40.697857,2973.3652805805204
12:15:30,1,M11,Myrtle Av,-73.935657,40.697207,3148.9556649208066
12:15:30,1,M12,Flushing Av,-73.941126,40.70026,3280.3652805805204
12:15:30,1,M13,Lorimer St,-73.947408,40.703869,3289.9923081874845
12:15:30,1,M14,Hewes St,-73.953431,40.70687,3131.1923081874847
12:15:30,1,M16,Marcy Av,-73.957757,40.708359,3009.192308187485
12:15:30,1,M18,Delancey St-Essex St,-73.987437,40.718315,2580.692308187485
12:00:30,1,M19,Bowery,-73.993915,40.72028,2516.1000016689304
12:00:30,2,M20,Canal St,-73.999892,40.718092,2395.3000016689302
12:05:30,1,M21,Chambers St,-74.003401,40.713243,2275.3000016689302
12:10:30,2,M22,Fulton St,-74.007582,40.710374,2395.3000016689302
12:10:30,2,M23,Broad St,-74.011056,40.706476,2463.3000016689302
12:05:30,0,N02,8 Av,-74.011719,40.635064,4236.325277662277
12:05:30,0,N03,Fort Hamilton Pkwy,-74.005351,40.631386,4412.725277662277
12:05:30,0,N04,New Utrecht Av,-73.996353,40.624842,4567.225277662277
12:05:30,0,N05,18 Av,-73.990414,40.620671,4674.225277662277
12:05:30,0,N06,20 Av,-73.985026,40.61741,4749.225277662277
12:05:30,0,N07,Bay Pkwy,-73.981848,40.611815,4904.225277662276
12:05:30,0,N08,Kings Hwy,-73.980353,40.603923,5056.325277662278
12:05:30,0,N09,Avenue U,-73.979137,40.597473,5189.325277662278
12:05:30,0,N10,86 St,-73.97823,40.592721,5319.092308187485
12:05:30,0,Q01,Canal St,-74.00046,40.718383,2388.519628572464
12:20:30,1,Q03,72 St,-73.958424,40.768799,1634.3000000000006
12:05:30,0,Q04,86 St,-73.951787,40.777891,1793.3000000000006
12:05:30,0,Q05,96 St,-73.947152,40.784318,1910.3000000000004
13:10:30,0,R01,Astoria-Ditmars Blvd,-73.912034,40.775036,0.0
12:00:30,0,R03,Astoria Blvd,-73.917843,40.770258,81.0
12:00:30,0,R04,30 Av,-73.921479,40.766779,239.0
12:00:30,0,R05,Broadway,-73.925508,40.76182,359.0
12:00:30,0,R06,36 Av,-73.929575,40.756804,489.0
12:00:30,0,R08,39 Av-Dutch Kills,-73.932755,40.752882,633.8
12:00:30,0,R09,Queensboro Plaza,-73.940202,40.750582,828.8
12:00:30,0,R11,Lexington Av/59 St,-73.967258,40.76266,1193.8
12:00:30,0,R13,5 Av/59 St,-73.973347,40.764811,1323.8
12:00:30,0,R14,57 St-7 Av,-73.980658,40.764664,1503.8
12:00:30,0,R15,49 St,-73.984139,40.759901,1673.8
12:00:30,0,R16,Times Sq-42 St,-73.986754,40.754672,1727.80000166893
12:00:30,0,R17,34 St-Herald Sq,-73.98795,40.749567,1847.80000166893
12:00:30,0,R18,28 St,-73.988691,40.745494,1961.80000166893
12:00:30,0,R19,23 St,-73.989344,40.741303,2076.80000166893
12:05:30,0,R20,14 St-Union Sq,-73.990568,40.735736,2042.8000016689302
12:00:30,0,R21,8 St-NYU,-73.992629,40.730328,2173.80000166893
12:00:30,0,R22,Prince St,-73.997702,40.724329,2293.80000166893
12:00:30,0,R23,Canal St,-74.001775,40.719527,2413.80000166893
12:00:30,0,R24,City Hall,-74.006978,40.713282,2588.80000166893
12:00:30,0,R25,Cortlandt St,-74.011029,40.710668,2723.80000166893
12:00:30,0,R26,Rector St,-74.013342,40.70722,2843.80000166893
12:15:30,0,R27,Whitehall St-South Ferry,-74.012994,40.703087,2963.80000166893
12:15:30,0,R28,Court St,-73.991777,40.6941,3032.8000016689302
12:15:30,0,R29,Jay St-MetroTech,-73.985942,40.69218,2960.7923081874847
12:15:30,0,R30,DeKalb Av,-73.981824,40.690635,2863.7645314693455
12:05:30,0,R31,Atlantic Av-Barclays Ctr,-73.97881,40.683666,3058.7645314693455
12:05:30,0,R32,Union St,-73.98311,40.677316,3303.7645314693455
12:05:30,0,R33,4 Av-9 St,-73.988302,40.670847,3478.9645314693453
12:05:30,0,R34,Prospect Av,-73.992872,40.665414,3598.9645314693453
12:05:30,0,R35,25 St,-73.998091,40.660397,3713.392308187485
12:05:30,0,R36,36 St,-74.003549,40.655144,3595.7645314693455
12:05:30,0,R39,45 St,-74.010006,40.648939,3846.3252776622776
12:25:30,0,R40,53 St,-74.014034,40.645069,3966.3252776622776
12:05:30,0,R41,59 St,-74.017881,40.641362,4020.325277662277
12:05:30,0,R42,Bay Ridge Av,-74.023377,40.634967,4200.865817880631
12:05:30,0,R43,77 St,-74.02551,40.629742,4315.865817880631
12:05:30,0,R44,86 St,-74.028398,40.622687,4534.630831098557
12:05:30,0,R45,Bay Ridge-95 St,-74.030876,40.616622,4654.630831098557
12:15:30,0,S01,Franklin Av,-73.955827,40.680596,3286.9880544662474
12:15:30,0,S03,Park Pl,-73.957624,40.674772,3421.3880544662475
12:15:30,0,S04,Botanic Garden,-73.959245,40.670343,3556.3000016689302
