start_time,ntransfers,stop_id,stop_name,stop_lon,stop_lat,duration
12:07:00,0,101,Van Cortlandt Park-242 St,-73.898583,40.889248,3452.3979072570796
12:07:00,0,103,238 St,-73.90087,40.884667,3377.3979072570796
12:07:00,0,104,231 St,-73.904834,40.878856,3304.3979072570796
12:07:00,0,106,Marble Hill-225 St,-73.909831,40.874561,3217.3979072570796
12:07:00,0,107,215 St,-73.915279,40.869444,3125.3979072570796
12:07:00,0,108,207 St,-73.918822,40.864621,3037.3979072570796
12:07:00,0,109,Dyckman St,-73.925536,40.860531,2937.3979072570796
12:07:00,0,110,191 St,-73.929412,40.855225,2852.3979072570796
12:07:00,0,111,181 St,-73.933596,40.849505,2759.39790725708
12:07:00,0,112,168 St-Washington Hts,-73.940133,40.840556,2642.3979072570796
12:07:00,0,113,157 St,-73.94489,40.834041,2543.39790725708
12:07:00,0,114,145 St,-73.95036,40.826551,2429.39790725708
12:07:00,0,115,137 St-City College,-73.953676,40.822008,2335.3979072570796
12:07:00,0,116,125 St,-73.958372,40.815581,2234.39790725708
12:07:00,0,117,116 St-Columbia University,-73.96411,40.807722,2128.39790725708
12:07:00,0,118,Cathedral Pkwy (110 St),-73.966847,40.803967,2051.39790725708
12:07:00,0,119,103 St,-73.968379,40.799446,1972.3979072570799
12:03:00,0,120,96 St,-73.972323,40.793919,1733.0
12:11:00,0,121,86 St,-73.976218,40.788644,1770.89790725708
12:11:00,0,122,79 St,-73.979917,40.783934,1686.89790725708
12:03:00,0,123,72 St,-73.98197,40.778453,1546.0
12:03:00,0,124,66 St-Lincoln Center,-73.982209,40.77344,1675.89790725708
12:03:00,0,125,59 St-Columbus Circle,-73.981929,40.768247,1643.0
12:03:00,0,126,50 St,-73.983849,40.761728,1541.0
12:03:00,0,127,Times Sq-42 St,-73.987495,40.75529,1312.0
12:03:00,0,128,34 St-Penn Station,-73.991057,40.750373,1213.0
12:07:00,0,129,28 St,-73.993365,40.747215,1478.0
12:07:00,0,130,23 St,-73.995657,40.744081,1409.0
12:07:00,0,131,18 St,-73.997871,40.74104,1341.0
12:03:00,0,132,14 St,-74.000201,40.737826,1058.0000000000002
12:11:00,0,133,Christopher St-Sheridan Sq,-74.002906,40.733422,1352.2540986537933
12:11:00,0,134,Houston St,-74.005367,40.728251,1269.2540986537933
12:11:00,0,135,Canal St,-74.006277,40.722854,1186.2540986537936
12:11:00,0,136,Franklin St,-74.006886,40.719318,1120.769229888916
12:03:00,0,137,Chambers St,-74.009266,40.715478,830.0000000000001
12:03:00,0,138,WTC Cortlandt,-74.012188,40.711835,987.135133266449
12:03:00,0,139,Rector St,-74.013783,40.707513,912.135133266449
12:03:00,0,142,South Ferry,-74.013664,40.702068,820.135133266449
13:58:00,0,201,Wakefield-241 St,-73.85062,40.903125,4183.000000000001
13:58:00,0,204,Nereid Av,-73.854376,40.898379,3972.000000000001
13:58:00,0,205,233 St,-73.857473,40.893193,3840.000000000001
13:58:00,0,206,225 St,-73.860341,40.888022,3744.000000000001
13:58:00,0,207,219 St,-73.862633,40.883895,3662.000000000001
13:58:00,0,208,Gun Hill Rd,-73.866256,40.87785,3553.500000000001
13:58:00,0,209,Burke Av,-73.867164,40.871356,3631.000000000001
13:58:00,0,210,Allerton Av,-73.867352,40.865462,3671.9999999999995
13:58:00,0,211,Pelham Pkwy,-73.867615,40.857192,3564.0
13:58:00,0,212,Bronx Park East,-73.868457,40.848828,3443.0
13:58:00,0,213,E 180 St,-73.873488,40.841894,3196.000000000001
12:06:00,0,214,West Farms Sq-E Tremont Av,-73.880049,40.840295,3055.000000000001
12:06:00,0,215,174 St,-73.887734,40.837288,2935.000000000001
12:06:00,0,216,Freeman St,-73.891865,40.829993,2821.000000000001
12:06:00,0,217,Simpson St,-73.893064,40.824073,2711.0000000000005
13:58:00,0,218,Intervale Av,-73.896736,40.822181,2638.0000000000005
13:58:00,0,219,Prospect Av,-73.90177,40.819585,2558.0000000000005
12:06:00,0,220,Jackson Av,-73.907807,40.81649,2464.0
13:58:00,0,221,3 Av-149 St,-73.917757,40.816109,2339.0
12:06:00,0,222,149 St-Grand Concourse,-73.926718,40.81841,2221.0
12:03:00,0,224,135 St,-73.94077,40.814229,2269.0
12:03:00,0,225,125 St,-73.945495,40.807754,2162.0
12:03:00,0,226,116 St,-73.949625,40.802098,2066.0
12:03:00,0,227,Central Park North (110 St),-73.951822,40.799075,1989.0
12:03:00,0,228,Park Place,-74.008811,40.713051,744.0000000000001
12:03:00,0,229,Fulton St,-74.006571,40.709416,635.0000000000001
12:03:00,0,230,Wall St,-74.0091,40.706821,561.0
12:03:00,0,231,Clark St,-73.993086,40.697466,361.0
12:03:00,0,232,Borough Hall,-73.989998,40.693219,262.0
12:03:00,0,233,Hoyt St,-73.985065,40.690545,175.00000000000003
12:02:30,0,234,Nevins St,-73.980492,40.688246,82.0
12:03:30,0,235,Atlantic Av-Barclays Ctr,-73.977666,40.684359,0.0
12:00:30,0,236,Bergen St,-73.975098,40.680829,74.0
12:00:30,0,237,Grand Army Plaza,-73.971046,40.675235,178.49999999999997
12:00:30,0,238,Eastern Pkwy-Brooklyn Museum,-73.964375,40.671987,274.49999999999994
12:03:00,0,239,Franklin Av-Medgar Evers College,-73.958131,40.670682,229.0
12:03:00,0,241,President St-Medgar Evers College,-73.950683,40.667883,412.5
12:03:00,0,242,Sterling St,-73.95085,40.662742,502.5
12:03:00,0,243,Winthrop St,-73.9502,40.656652,593.5
12:03:00,0,244,Church Av,-73.949575,40.650843,667.5
12:03:00,0,245,Beverly Rd,-73.948959,40.645098,762.5
12:03:00,0,246,Newkirk Av-Little Haiti,-73.948411,40.639967,855.5000000000001
12:03:00,0,247,Flatbush Av-Brooklyn College,-73.947642,40.632836,983.0
12:03:00,0,248,Nostrand Av,-73.950466,40.669847,358.0
12:03:00,0,249,Kingston Av,-73.942161,40.669399,450.0
12:07:00,0,250,Crown Hts-Utica Av,-73.932942,40.668897,497.0
12:07:00,0,251,Sutter Av-Rutland Rd,-73.92261,40.664717,634.5
12:07:00,0,252,Saratoga Av,-73.916327,40.661453,737.9999999999999
12:07:00,0,253,Rockaway Av,-73.908946,40.662549,822.9999999999999
12:07:00,0,254,Junius St,-73.902447,40.663515,904.9999999999999
12:07:00,0,255,Pennsylvania Av,-73.894895,40.664635,1003.9999999999999
12:07:00,0,256,Van Siclen Av,-73.889395,40.665449,1082.0
12:07:00,0,257,New Lots Av,-73.884079,40.666235,1154.9999999999998
12:07:00,0,301,Harlem-148 St,-73.93647,40.82388,2501.0
12:07:00,0,302,145 St,-73.936245,40.820421,2388.0
12:02:30,0,401,Woodlawn,-73.878751,40.886037,3384.0000000000005
12:02:30,0,402,Mosholu Pkwy,-73.884655,40.87975,3263.0000000000005
12:02:30,0,405,Bedford Park Blvd-Lehman College,-73.890064,40.873412,3158.0000000000005
12:02:30,0,406,Kingsbridge Rd,-73.897174,40.86776,3045.0000000000005
12:02:30,0,407,Fordham Rd,-73.901034,40.862803,2950.0000000000005
12:02:30,0,408,183 St,-73.903879,40.858407,2867.0000000000005
12:02:30,0,409,Burnside Av,-73.907684,40.853453,2770.0000000000005
12:02:30,0,410,176 St,-73.911794,40.84848,2695.0000000000005
12:02:30,0,411,Mt Eden Av,-73.914685,40.844434,2618.0000000000005
12:02:30,0,412,170 St,-73.917791,40.840075,2538.0000000000005
12:02:30,0,413,167 St,-73.9214,40.835537,2450.0
12:02:30,0,414,161 St-Yankee Stadium,-73.925831,40.827994,2321.0
12:02:30,0,415,149 St-Grand Concourse,-73.927351,40.818375,2179.0
12:02:30,0,416,138 St-Grand Concourse,-73.929849,40.813224,2064.0
12:02:30,0,418,Fulton St,-74.009509,40.710368,631.0
12:02:30,0,419,Wall St,-74.011862,40.707557,554.0
12:02:30,0,420,Bowling Green,-74.014065,40.704817,479.0
12:02:30,0,423,Borough Hall,-73.990151,40.692404,210.0
13:58:00,0,501,Eastchester-Dyre Av,-73.830834,40.8883,3893.0000000000005
13:58:00,0,502,Baychester Av,-73.838591,40.878663,3765.0000000000005
13:58:00,0,503,Gun Hill Rd,-73.846384,40.869526,3650.0000000000005
13:58:00,0,504,Pelham Pkwy,-73.855359,40.858985,3516.0000000000005
13:58:00,0,505,Morris Park,-73.860495,40.854364,3423.000000000001
13:38:30,0,601,Pelham Bay Park,-73.828121,40.852462,3558.642858505249
13:38:30,0,602,Buhre Av,-73.832569,40.84681,3423.142858505249
13:38:30,0,603,Middletown Rd,-73.836322,40.843863,3351.142858505249
13:38:30,0,604,Westchester Sq-E Tremont Av,-73.842952,40.839892,3248.142858505249
13:38:30,0,606,Zerega Av,-73.847036,40.836488,3167.642858505249
13:38:30,0,607,Castle Hill Av,-73.851222,40.834255,3099.642858505249
12:26:30,0,608,Parkchester,-73.860816,40.833226,2942.642858505249
12:26:30,0,609,St Lawrence Av,-73.867618,40.831509,3138.987170696258
12:26:30,0,610,Morrison Av-Soundview,-73.874516,40.829521,3054.987170696258
12:26:30,0,611,Elder Av,-73.879159,40.828584,2986.987170696258
12:26:30,0,612,Whitlock Av,-73.886283,40.826525,2888.9871706962585
12:26:30,0,613,Hunts Point Av,-73.890549,40.820948,2671.142858505249
12:02:30,0,614,Longwood Av,-73.896435,40.816104,2776.4883737564087
12:02:30,0,615,E 149 St,-73.904098,40.812118,2676.488373756409
12:02:30,0,616,E 143 St-St Mary's St,-73.907657,40.808719,2601.488373756409
12:02:30,0,617,Cypress Av,-73.914042,40.805368,2484.4883737564087
12:02:30,0,618,Brook Av,-73.91924,40.807566,2410.4883737564087
12:02:30,0,619,3 Av-138 St,-73.926138,40.810476,2306.4883737564087
12:02:30,0,621,125 St,-73.937594,40.804138,1888.9999999999998
12:06:00,0,622,116 St,-73.941617,40.798629,2182.184972524643
12:02:30,0,623,110 St,-73.94425,40.79502,2104.184972524643
12:02:30,0,624,103 St,-73.947478,40.7906,2026.1849725246432
12:02:30,0,625,96 St,-73.95107,40.785672,1938.184972524643
12:02:30,0,626,86 St,-73.955589,40.779492,1599.0
12:02:30,0,627,77 St,-73.959874,40.77362,1779.0000000000002
12:02:30,0,628,68 St-Hunter College,-73.96387,40.768141,1687.0
12:02:30,0,629,59 St,-73.967967,40.762526,1405.9999999999998
12:02:30,0,630,51 St,-73.97192,40.757107,1488.0
12:02:30,0,631,Grand Central-42 St,-73.976848,40.751776,1244.9999999999998
12:06:00,0,632,33 St,-73.982076,40.746081,1469.380954027176
12:02:30,0,633,28 St,-73.984264,40.74307,1401.380954027176
12:02:30,0,634,23 St,-73.986599,40.739864,1328.380954027176
12:02:30,0,635,14 St-Union Sq,-73.989951,40.734673,1003.0000000000001
12:02:30,0,636,Astor Pl,-73.99107,40.730054,1131.9999999999998
12:02:30,0,637,Bleecker St,-73.994659,40.725915,1037.9999999999998
12:02:30,0,638,Spring St,-73.997141,40.722301,970.9999999999998
12:02:30,0,639,Canal St,-74.000193,40.718803,890.9999999999999
12:02:30,0,640,Brooklyn Bridge-City Hall,-74.004131,40.713065,743.0000000000001
12:06:00,2,701,Flushing-Main St,-73.83003,40.7596,2937.50000166893
12:06:00,2,702,Mets-Willets Point,-73.845625,40.754622,2793.50000166893
12:06:00,2,705,111 St,-73.855334,40.75173,2781.4999999999995
12:06:00,2,706,103 St-Corona Plaza,-73.8627,40.749865,2711.5
12:06:00,2,707,Junction Blvd,-73.869527,40.749145,2583.50000166893
12:06:00,2,708,90 St-Elmhurst Av,-73.876613,40.748408,2583.5
12:06:00,2,709,82 St-Jackson Hts,-73.883697,40.747659,2510.4999999999995
12:38:00,1,710,74 St-Broadway,-73.891394,40.746848,2351.0
12:38:00,1,711,69 St,-73.896403,40.746325,2311.0000000000005
12:38:00,1,712,61 St-Woodside,-73.902984,40.74563,2239.0
12:38:00,1,713,52 St,-73.912549,40.744149,2113.4999999999995
12:38:00,1,714,46 St-Bliss St,-73.918435,40.743132,2057.5
12:38:00,1,715,40 St-Lowery St,-73.924016,40.743781,2003.5
12:38:00,1,716,33 St-Rawson St,-73.930997,40.744587,1934.5
12:38:00,1,718,Queensboro Plaza,-73.940202,40.750582,1800.5
12:38:00,1,719,Court Sq,-73.945264,40.747023,1703.5
12:38:00,1,720,Hunters Point Av,-73.948916,40.742216,1613.5
12:38:00,1,721,Vernon Blvd-Jackson Av,-73.953581,40.742626,1575.0
12:14:00,1,723,Grand Central-42 St,-73.976041,40.751431,1365.0
12:14:00,1,724,5 Av,-73.981963,40.753821,1419.0
12:14:00,1,725,Times Sq-42 St,-73.987691,40.755477,1432.0
12:15:00,1,726,34 St-Hudson Yards,-74.00191,40.755882,1562.0
12:15:00,1,901,Grand Central-42 St,-73.979189,40.752769,1305.0
12:18:30,1,902,Times Sq-42 St,-73.986229,40.755983,1372.0
13:54:30,1,A02,Inwood-207 St,-73.919899,40.868072,3058.0000000000005
13:39:00,1,A03,Dyckman St,-73.927271,40.865491,2963.0000000000005
13:39:00,1,A05,190 St,-73.93418,40.859022,2843.0000000000005
13:39:00,1,A06,181 St,-73.937969,40.851695,2726.0
13:39:00,1,A07,175 St,-73.939704,40.847391,2629.0
12:27:00,1,A09,168 St,-73.939561,40.840719,2509.0
13:54:30,1,A10,163 St-Amsterdam Av,-73.939892,40.836013,2530.5000000000005
13:54:30,1,A11,155 St,-73.941514,40.830518,2427.0
12:27:00,1,A12,145 St,-73.944216,40.824783,2271.0
12:27:00,1,A14,135 St,-73.947649,40.817894,2191.0
12:27:00,1,A15,125 St,-73.952343,40.811109,2071.0
12:51:00,1,A16,116 St,-73.954882,40.805085,2216.1578962802887
12:03:00,1,A17,Cathedral Pkwy (110 St),-73.958161,40.800603,2218.0
12:03:00,1,A18,103 St,-73.961454,40.796092,2149.0
12:03:00,1,A19,96 St,-73.964696,40.791642,2069.0
12:03:00,1,A20,86 St,-73.968916,40.785868,1959.0
12:03:00,1,A21,81 St-Museum of Natural History,-73.972143,40.781433,1870.0
12:03:00,1,A22,72 St,-73.97641,40.775594,1775.0000000000002
12:26:30,1,A24,59 St-Columbus Circle,-73.981736,40.768296,1599.0
12:19:00,1,A25,50 St,-73.985984,40.762456,1540.0
12:26:30,1,A27,42 St-Port Authority Bus Terminal,-73.989735,40.757308,1432.0
12:26:30,1,A28,34 St-Penn Station,-73.993391,40.752287,1436.1071417331696
12:46:00,1,A30,23 St,-73.998041,40.745906,1353.1071417331696
12:26:30,1,A31,14 St,-74.00169,40.740893,1253.1071417331696
12:26:30,1,A32,W 4 St-Wash Sq,-74.000495,40.732338,1133.1071417331696
13:54:30,1,A33,Spring St,-74.003739,40.726227,1070.0000000000002
12:26:30,1,A34,Canal St,-74.005229,40.720824,953.0000000000001
12:26:30,1,A36,Chambers St,-74.008585,40.714111,958.2540986537934
13:07:00,1,A38,Fulton St,-74.007691,40.710197,852.2540986537934
12:38:00,2,A40,High St,-73.990531,40.699337,762.6562488079071
12:46:00,2,A41,Jay St-MetroTech,-73.987342,40.692338,640.0
12:38:00,2,A42,Hoyt-Schermerhorn Sts,-73.985001,40.688484,757.656248807907
13:27:00,1,A43,Lafayette Av,-73.973946,40.686113,891.2142841815947
13:07:00,2,A44,Clinton-Washington Avs,-73.965838,40.683263,878.0000000000001
12:07:00,2,A45,Franklin Av,-73.956848,40.68138,770.0
12:07:00,2,A46,Nostrand Av,-73.950426,40.680438,844.0
12:07:00,2,A47,Kingston-Throop Avs,-73.940858,40.679921,949.9999999999999
12:07:00,2,A48,Utica Av,-73.930729,40.679364,1058.0
12:07:00,2,A49,Ralph Av,-73.920786,40.678822,1173.0
12:07:00,2,A50,Rockaway Av,-73.911946,40.67834,1278.0
12:07:00,2,A51,Broadway Junction,-73.905316,40.678334,1341.8421058654785
12:07:00,2,A52,Liberty Av,-73.896548,40.674542,1480.5179839134216
12:07:00,2,A53,Van Siclen Av,-73.890358,40.67271,1557.5179839134216
12:07:00,2,A54,Shepherd Av,-73.88075,40.67413,1667.5179839134216
12:07:00,2,A55,Euclid Av,-73.872106,40.675377,1640.8421058654785
12:07:00,2,A57,Grant Av,-73.86505,40.677044,1760.8421058654785
12:07:00,2,A59,80 St,-73.858992,40.679371,1860.8421058654785
12:07:00,2,A60,88 St,-73.85147,40.679843,1965.8421058654785
12:07:00,2,A61,Rockaway Blvd,-73.843853,40.680429,2050.8421058654785
12:47:00,1,A63,104 St,-73.837683,40.681711,2130.8421058654785
12:47:00,1,A64,111 St,-73.832163,40.684331,2205.8421058654785
12:47:00,1,A65,Ozone Park-Lefferts Blvd,-73.825798,40.685951,2310.8421058654785
12:06:00,1,B04,21 St-Queensbridge,-73.942836,40.754203,1970.608697891235
12:06:00,1,B06,Roosevelt Island,-73.95326,40.759145,1858.092589855194
12:30:00,1,B08,Lexington Av/63 St,-73.966113,40.764629,1729.5
12:02:30,1,B10,57 St,-73.97745,40.763972,1750.6840490797545
12:11:30,1,B12,9 Av,-73.994324,40.646292,882.9999999999999
12:11:30,1,B13,Fort Hamilton Pkwy,-73.994304,40.640914,992.9999999999998
12:11:30,1,B14,50 St,-73.994791,40.63626,1063.0
12:11:30,1,B15,55 St,-73.995476,40.631435,1172.9999999999998
12:11:30,1,B16,62 St,-73.996895,40.626472,1232.9999999999998
12:11:30,1,B17,71 St,-73.998864,40.619589,1342.9999999999998
12:11:30,1,B18,79 St,-74.00061,40.613501,1452.9999999999998
12:11:30,1,B19,18 Av,-74.001736,40.607954,1527.9999999999998
12:11:30,1,B20,20 Av,-73.998168,40.604556,1602.9999999999998
12:11:30,1,B21,Bay Pkwy,-73.993728,40.601875,1667.9999999999995
12:11:30,1,B22,25 Av,-73.986829,40.597704,1787.9999999999995
12:11:30,1,B23,Bay 50 St,-73.983765,40.588841,1962.9999999999998
12:34:30,1,D01,Norwood-205 St,-73.878855,40.874811,3531.807947635651
12:34:30,1,D03,Bedford Park Blvd,-73.887138,40.873244,3395.807947635651
12:34:30,1,D04,Kingsbridge Rd,-73.893509,40.866978,3278.807947635651
12:34:30,1,D05,Fordham Rd,-73.897749,40.861296,3173.807947635651
12:34:30,1,D06,182-183 Sts,-73.900741,40.856093,3083.807947635651
12:34:30,1,D07,Tremont Av,-73.905227,40.85041,3008.8079476356506
12:34:30,1,D08,174-175 Sts,-73.910136,40.8459,2908.8079476356506
12:34:30,1,D09,170 St,-73.9134,40.839306,2808.8079476356506
12:34:30,1,D10,167 St,-73.91844,40.833771,2693.807947635651
13:51:00,1,D11,161 St-Yankee Stadium,-73.925651,40.827905,2574.8079476356506
13:51:00,1,D12,155 St,-73.938209,40.830135,2461.163266181946
12:27:00,1,D13,145 St,-73.944216,40.824783,2341.163266181946
12:11:30,1,D14,7 Av,-73.981637,40.762862,1565.9999999999998
12:11:30,1,D15,47-50 Sts-Rockefeller Ctr,-73.981329,40.758663,1456.0
12:11:30,1,D16,42 St-Bryant Pk,-73.984569,40.754222,1355.9999999999998
12:11:30,1,D17,34 St-Herald Sq,-73.987823,40.749719,1280.0
12:19:00,1,D18,23 St,-73.992821,40.742878,1472.1818187236788
12:11:30,1,D19,14 St,-73.996209,40.738228,1406.1818187236788
12:11:30,1,D20,W 4 St-Wash Sq,-74.000495,40.732338,1083.5
12:11:30,1,D21,Broadway-Lafayette St,-73.996204,40.725297,950.0
12:11:30,1,D22,Grand St,-73.993753,40.718267,825.0
12:03:30,1,D24,Atlantic Av-Barclays Ctr,-73.97689,40.68446,225.0
12:27:30,1,D25,7 Av,-73.972367,40.67705,350.00000000000006
12:07:00,1,D26,Prospect Park,-73.962246,40.661614,524.0
12:07:00,1,D27,Parkside Av,-73.961495,40.655292,634.7619032859802
12:07:00,1,D28,Church Av,-73.962982,40.650527,671.0
12:07:00,1,D29,Beverley Rd,-73.964492,40.644031,774.6904776096344
12:07:00,1,D30,Cortelyou Rd,-73.963891,40.640927,844.6904776096344
12:27:30,1,D31,Newkirk Plaza,-73.962793,40.635082,844.0
12:07:00,1,D32,Avenue H,-73.961639,40.62927,950.3200008869171
12:07:00,1,D33,Avenue J,-73.960803,40.625039,1055.3200008869171
12:07:00,1,D34,Avenue M,-73.959399,40.617618,1170.3200008869171
12:27:30,1,D35,Kings Hwy,-73.957734,40.60867,1084.0
12:27:30,1,D37,Avenue U,-73.955929,40.5993,1311.0103120803833
12:27:30,1,D38,Neck Rd,-73.955161,40.595246,1423.0103120803833
12:27:30,1,D39,Sheepshead Bay,-73.954155,40.586896,1319.0
12:27:30,1,D40,Brighton Beach,-73.961376,40.577621,1451.0
12:27:30,1,D41,Ocean Pkwy,-73.968501,40.576312,1632.0
12:27:30,1,D42,W 8 St-NY Aquarium,-73.975939,40.576127,1747.0
12:27:30,1,D43,Coney Island-Stillwell Av,-73.981233,40.577422,1819.0
13:35:00,1,E01,World Trade Center,-74.009781,40.712582,828.0
12:06:00,1,F01,Jamaica-179 St,-73.783817,40.712646,3405.4999999999995
12:42:30,1,F02,169 St,-73.793604,40.71047,3340.4999999999995
12:50:30,1,F03,Parsons Blvd,-73.803326,40.707564,3212.4999999999995
12:50:30,1,F04,Sutphin Blvd,-73.810708,40.70546,3142.4999999999995
12:50:30,1,F05,Briarwood,-73.820574,40.709179,2978.4999999999995
13:10:00,1,F06,Kew Gardens-Union Tpke,-73.831008,40.714441,2855.4999999999995
12:50:30,1,F07,75 Av,-73.837324,40.718331,2782.5
12:34:30,1,F09,Court Sq-23 St,-73.946,40.747846,1823.5
13:30:30,1,F11,Lexington Av/53 St,-73.969055,40.757552,1717.9473676681519
12:02:30,1,F12,5 Av/53 St,-73.975224,40.760167,1729.0
12:15:00,2,F14,2 Av,-73.989938,40.723402,1096.5000000000002
13:58:00,2,F15,Delancey St-Essex St,-73.988114,40.718611,986.5000000000002
13:58:00,2,F16,East Broadway,-73.990173,40.713715,901.5000000000001
13:58:00,2,F18,York St,-73.986751,40.701397,730.0
12:06:00,2,F20,Bergen St,-73.990862,40.686145,764.5
12:06:00,2,F21,Carroll St,-73.995048,40.680303,880.0
12:23:00,2,F22,Smith-9 Sts,-73.995959,40.67358,745.0
12:03:30,2,F23,4 Av-9 St,-73.989779,40.670272,672.0
12:03:30,2,F24,7 Av,-73.980305,40.666271,786.9999999999999
12:03:30,2,F25,15 St-Prospect Park,-73.979493,40.660365,901.9999999999999
12:03:30,2,F26,Fort Hamilton Pkwy,-73.975776,40.650782,1042.0
12:03:30,2,F27,Church Av,-73.979678,40.644041,1075.1651389598846
12:03:30,2,F29,Ditmas Av,-73.978172,40.636119,1195.1651389598846
12:03:30,2,F30,18 Av,-73.976971,40.629755,1315.1651389598846
12:03:30,2,F31,Avenue I,-73.976127,40.625322,1375.1651389598846
12:03:30,2,F32,Bay Pkwy,-73.975264,40.620769,1435.1651389598846
12:03:30,2,F33,Avenue N,-73.974197,40.61514,1555.1651389598846
12:03:30,2,F34,Avenue P,-73.973022,40.608944,1645.1651389598846
12:03:30,2,F35,Kings Hwy,-73.972361,40.603217,1793.6651389598846
12:27:30,1,F36,Avenue U,-73.973357,40.596063,1908.6651389598849
12:27:30,1,F38,Avenue X,-73.97425,40.58962,2019.1651389598846
12:27:30,1,F39,Neptune Av,-73.974574,40.581011,2059.0
13:30:30,1,G05,Jamaica Center-Parsons/Archer,-73.801109,40.702147,2868.0
13:10:00,1,G06,Sutphin Blvd-Archer Av-JFK Airport,-73.807969,40.700486,2808.0
13:10:00,1,G07,Jamaica-Van Wyck,-73.816859,40.702566,3085.5
13:10:00,1,G08,Forest Hills-71 Av,-73.844521,40.721691,2665.5
13:10:00,1,G09,67 Av,-73.852719,40.726523,2804.939304828644
13:10:00,1,G10,63 Dr-Rego Park,-73.861604,40.729846,2764.499999999999
13:10:00,1,G11,Woodhaven Blvd,-73.869229,40.733106,2656.4999999999995
13:10:00,1,G12,Grand Av-Newtown,-73.877223,40.737015,2541.4999999999995
13:10:00,1,G13,Elmhurst Av,-73.882017,40.742454,2436.4999999999995
13:10:00,1,G14,Jackson Hts-Roosevelt Av,-73.891338,40.746644,2303.5
12:06:00,1,G15,65 St,-73.898453,40.749669,2431.5
12:06:00,1,G16,Northern Blvd,-73.906006,40.752885,2419.182726698927
12:06:00,1,G18,46 St,-73.913333,40.756312,2329.182726698927
12:06:00,1,G19,Steinway St,-73.92074,40.756879,2212.275510204082
12:06:00,1,G20,36 St,-73.928781,40.752039,2092.275510204082
12:34:30,1,G21,Queens Plaza,-73.937243,40.748973,1943.5
12:34:30,2,G22,Court Sq,-73.943832,40.746554,1763.5
12:34:30,2,G24,21 St,-73.949724,40.744065,1858.9999999999998
12:10:30,2,G26,Greenpoint Av,-73.954449,40.731352,1962.3913037776945
12:10:30,2,G28,Nassau Av,-73.951277,40.724635,1847.3913037776945
13:59:00,1,G29,Metropolitan Av,-73.951418,40.712792,1712.3913037776945
13:59:00,1,G30,Broadway,-73.950308,40.706092,1622.7544610500338
13:59:00,1,G31,Flushing Av,-73.950234,40.700377,1532.8913037776945
13:59:00,1,G32,Myrtle-Willoughby Avs,-73.949046,40.694568,1457.8913037776945
13:59:00,1,G33,Bedford-Nostrand Avs,-73.953522,40.689627,1344.8913037776945
13:59:00,1,G34,Classon Av,-73.96007,40.688873,1269.8913037776945
13:59:00,1,G35,Clinton-Washington Avs,-73.966839,40.688089,1196.8913037776947
13:59:00,1,G36,Fulton St,-73.975375,40.687119,1101.8913037776947
12:07:00,2,H01,Aqueduct Racetrack,-73.834058,40.668234,2235.8421058654785
12:07:00,2,H02,Aqueduct-N Conduit Av,-73.834058,40.668234,2271.517983913421
12:07:00,2,H03,Howard Beach-JFK Airport,-73.830301,40.660476,2401.517983913421
12:07:00,2,H04,Broad Channel,-73.815925,40.608382,2823.5179839134207
12:07:00,2,H06,Beach 67 St,-73.796924,40.590927,3113.517983913421
12:07:00,2,H07,Beach 60 St,-73.788522,40.592374,3226.517983913421
12:07:00,2,H08,Beach 44 St,-73.776013,40.592943,3341.5179839134207
12:07:00,2,H09,Beach 36 St,-73.768175,40.595398,3442.5179839134207
12:07:00,2,H10,Beach 25 St,-73.761353,40.600066,3532.5179839134207
12:07:00,2,H11,Far Rockaway-Mott Av,-73.755405,40.603995,3597.5179839134207
12:07:00,2,H12,Beach 90 St,-73.813641,40.588034,3092.8421058654785
12:07:00,2,H13,Beach 98 St,-73.820558,40.585307,3184.3421058654785
12:07:00,2,H14,Beach 105 St,-73.827559,40.583209,3258.3421058654785
12:07:00,2,H15,Rockaway Park-Beach 116 St,-73.835592,40.580903,3369.3421058654785
12:07:00,2,J12,121 St,-73.828294,40.700492,2568.0
13:47:00,2,J13,111 St,-73.836345,40.697418,2733.0
13:47:00,2,J14,104 St,-73.84433,40.695178,2388.0
13:47:00,2,J15,Woodhaven Blvd,-73.851576,40.693879,2298.0
13:47:00,2,J16,85 St-Forest Pkwy,-73.86001,40.692435,2319.742106437683
13:47:00,2,J17,75 St-Elderts Ln,-73.867139,40.691324,2118.0
13:47:00,2,J19,Cypress Hills,-73.87255,40.689941,2139.742106437683
13:47:00,2,J20,Crescent St,-73.873785,40.683194,1967.9999999999998
13:47:00,2,J21,Norwood Av,-73.880039,40.68141,1878.0
13:47:00,2,J22,Cleveland St,-73.884639,40.679947,1864.0362811088562
13:47:00,2,J23,Van Siclen Av,-73.891688,40.678024,1728.0
13:47:00,2,J24,Alabama Av,-73.898654,40.676992,1668.0
12:58:30,1,J27,Broadway Junction,-73.904512,40.679498,1566.8421058654785
12:07:00,2,J28,Chauncey St,-73.910456,40.682893,1638.0
12:07:00,2,J29,Halsey St,-73.916559,40.68637,1783.742106437683
12:58:30,1,J30,Gates Av,-73.92227,40.68963,1788.0
12:58:30,1,J31,Kosciuszko St,-73.928814,40.693342,1954.9999999999998
12:22:00,1,L01,8 Av,-74.002578,40.739777,1313.1071417331696
12:22:00,1,L02,6 Av,-73.996786,40.737335,1283.0000000000002
12:07:00,1,L03,14 St-Union Sq,-73.99073,40.734789,1216.9610397815704
12:10:30,1,L05,3 Av,-73.986122,40.732849,1281.9610397815704
12:10:30,1,L06,1 Av,-73.981628,40.730953,1311.9610397815704
12:10:30,1,L08,Bedford Av,-73.956872,40.717304,1507.9610397815704
12:10:30,1,L10,Lorimer St,-73.950275,40.714063,1597.9610397815704
12:10:30,1,L11,Graham Av,-73.944053,40.714565,1633.9610397815704
12:10:30,1,L12,Grand St,-73.94067,40.711926,1718.9610397815707
12:10:30,1,L13,Montrose Av,-73.93985,40.707739,1766.9610397815707
12:10:30,1,L14,Morgan Av,-73.933147,40.706152,1824.9610397815704
12:10:30,1,L15,Jefferson St,-73.922913,40.706607,1910.9610397815704
12:07:00,1,L16,DeKalb Av,-73.918425,40.703811,1849.249998807907
12:07:00,1,L17,Myrtle-Wyckoff Avs,-73.911586,40.699814,1781.9999999999998
12:07:00,1,L19,Halsey St,-73.904084,40.695602,1729.249998807907
12:07:00,1,L20,Wilson Av,-73.904046,40.688764,1595.249998807907
12:07:00,1,L21,Bushwick Av-Aberdeen St,-73.905249,40.682829,1526.249998807907
12:07:00,1,L22,Broadway Junction,-73.90324,40.678856,1460.249998807907
12:07:00,1,L24,Atlantic Av,-73.903097,40.675345,1385.9999999999998
12:07:00,1,L25,Sutter Av,-73.901975,40.669367,1309.749998807907
12:07:00,1,L26,Livonia Av,-73.900571,40.664038,1243.749998807907
12:07:00,1,L27,New Lots Av,-73.899232,40.658733,1298.0
12:07:00,1,L28,East 105 St,-73.899485,40.650573,1403.0
12:07:00,1,L29,Canarsie-Rockaway Pkwy,-73.90185,40.646654,1478.0
12:07:00,2,M01,Middle Village-Metropolitan Av,-73.889601,40.711396,2371.9903843402863
12:07:00,2,M04,Fresh Pond Rd,-73.895877,40.706186,2295.9999999999995
12:07:00,2,M05,Forest Av,-73.903077,40.704423,2192.9903843402863
12:07:00,2,M06,Seneca Av,-73.90774,40.702762,2090.990384340286
12:51:30,1,M08,Myrtle-Wyckoff Avs,-73.912385,40.69943,2006.9999999999998
12:07:00,2,M09,Knickerbocker Av,-73.919711,40.698664,2084.9126214981075
12:51:30,1,M10,Central Av,-73.927397,40.697857,2004.9126214981075
12:58:30,1,M11,Myrtle Av,-73.935657,40.697207,1836.9999999999998
12:18:30,1,M12,Flushing Av,-73.941126,40.70026,1814.9999999999998
12:18:30,1,M13,Lorimer St,-73.947408,40.703869,1727.9999999999998
12:18:30,1,M14,Hewes St,-73.953431,40.70687,1627.9999999999998
12:18:30,1,M16,Marcy Av,-73.957757,40.708359,1522.9999999999998
12:18:30,1,M18,Delancey St-Essex St,-73.987437,40.718315,1162.9999999999998
12:18:30,1,M19,Bowery,-73.993915,40.72028,1088.0
12:18:30,1,M20,Canal St,-73.999892,40.718092,968.0
12:38:00,1,M21,Chambers St,-74.003401,40.713243,867.9999999999999
12:58:30,1,M22,Fulton St,-74.007582,40.710374,942.9999999999999
12:10:30,1,M23,Broad St,-74.011056,40.706476,1007.9999999999998
12:11:30,1,N02,8 Av,-74.011719,40.635064,1061.0
12:11:30,1,N03,Fort Hamilton Pkwy,-74.005351,40.631386,1141.0
12:11:30,1,N04,New Utrecht Av,-73.996353,40.624842,1261.0
12:11:30,1,N05,18 Av,-73.990414,40.620671,1363.0
12:11:30,1,N06,20 Av,-73.985026,40.61741,1442.9999999999998
12:11:30,1,N07,Bay Pkwy,-73.981848,40.611815,1543.0
12:11:30,1,N08,Kings Hwy,-73.980353,40.603923,1658.0
12:11:30,1,N09,Avenue U,-73.979137,40.597473,1763.0
12:11:30,1,N10,86 St,-73.97823,40.592721,1878.0
12:11:30,1,Q01,Canal St,-74.00046,40.718383,825.0
12:02:30,1,Q03,72 St,-73.958424,40.768799,1849.5
12:02:30,1,Q04,86 St,-73.951787,40.777891,1974.5
12:18:30,1,Q05,96 St,-73.947152,40.784318,2040.5
12:10:30,1,R01,Astoria-Ditmars Blvd,-73.912034,40.775036,2475.5000016689305
12:10:30,1,R03,Astoria Blvd,-73.917843,40.770258,2387.50000166893
12:10:30,1,R04,30 Av,-73.921479,40.766779,2282.50000166893
12:10:30,1,R05,Broadway,-73.925508,40.76182,2202.50000166893
12:10:30,1,R06,36 Av,-73.929575,40.756804,2097.50000166893
12:10:30,1,R08,39 Av-Dutch Kills,-73.932755,40.752882,1982.50000166893
12:10:30,1,R09,Queensboro Plaza,-73.940202,40.750582,1847.50000166893
12:34:30,1,R11,Lexington Av/59 St,-73.967258,40.76266,1635.5145618915556
12:34:30,1,R13,5 Av/59 St,-73.973347,40.764811,1726.0561785697935
12:30:00,1,R14,57 St-7 Av,-73.980658,40.764664,1549.5
12:03:00,1,R15,49 St,-73.984139,40.759901,1522.0
12:02:30,1,R16,Times Sq-42 St,-73.986754,40.754672,1369.5
12:02:30,1,R17,34 St-Herald Sq,-73.98795,40.749567,1261.5
12:30:00,1,R18,28 St,-73.988691,40.745494,1397.680849313736
12:30:00,1,R19,23 St,-73.989344,40.741303,1322.680849313736
12:11:30,1,R20,14 St-Union Sq,-73.990568,40.735736,1072.0
12:18:30,1,R21,8 St-NYU,-73.992629,40.730328,1318.9999999999998
12:26:30,1,R22,Prince St,-73.997702,40.724329,1239.0
12:26:30,1,R23,Canal St,-74.001775,40.719527,1128.0
12:26:30,1,R24,City Hall,-74.006978,40.713282,958.0
12:26:30,1,R25,Cortlandt St,-74.011029,40.710668,838.0
12:26:30,1,R26,Rector St,-74.013342,40.70722,720.0
12:26:30,1,R27,Whitehall St-South Ferry,-74.012994,40.703087,640.0
12:19:30,1,R28,Court St,-73.991777,40.6941,450.0
12:38:00,1,R29,Jay St-MetroTech,-73.985942,40.69218,504.99999999999994
12:19:30,1,R30,DeKalb Av,-73.981824,40.690635,396.0
12:43:30,1,R31,Atlantic Av-Barclays Ctr,-73.97881,40.683666,225.0
12:03:30,1,R32,Union St,-73.98311,40.677316,330.0
12:03:30,1,R33,4 Av-9 St,-73.988302,40.670847,441.0
12:03:30,1,R34,Prospect Av,-73.992872,40.665414,556.0
12:03:30,1,R35,25 St,-73.998091,40.660397,617.0
12:11:30,1,R36,36 St,-74.003549,40.655144,640.0000000000001
12:11:30,1,R39,45 St,-74.010006,40.648939,759.0000000000001
12:11:30,1,R40,53 St,-74.014034,40.645069,859.0000000000001
12:11:30,1,R41,59 St,-74.017881,40.641362,881.0
12:11:30,1,R42,Bay Ridge Av,-74.023377,40.634967,1043.5405402183533
12:11:30,1,R43,77 St,-74.02551,40.629742,1115.5405402183533
12:11:30,1,R44,86 St,-74.028398,40.622687,1280.5405402183533
12:11:30,1,R45,Bay Ridge-95 St,-74.030876,40.616622,1346.5405402183533
12:07:00,1,S01,Franklin Av,-73.955827,40.680596,710.0
12:07:00,1,S03,Park Pl,-73.957624,40.674772,590.0
12:27:30,1,S04,Botanic Garden,-73.959245,40.670343,457.0
