start_time,ntransfers,stop_id,stop_name,stop_lon,stop_lat,duration
12:02:30,2,101,Van Cortlandt Park-242 St,-73.898583,40.889248,2723.6470274925227
12:02:30,2,103,238 St,-73.90087,40.884667,2648.6470274925227
12:02:30,2,104,231 St,-73.904834,40.878856,2575.6470274925227
12:02:30,2,106,Marble Hill-225 St,-73.909831,40.874561,2488.6470274925223
12:02:30,2,107,215 St,-73.915279,40.869444,2396.6470274925227
12:02:30,2,108,207 St,-73.918822,40.864621,2308.6470274925223
12:02:30,2,109,Dyckman St,-73.925536,40.860531,2208.6470274925227
12:02:30,2,110,191 St,-73.929412,40.855225,2123.6470274925227
12:02:30,2,111,181 St,-73.933596,40.849505,2030.647027492523
12:02:30,2,112,168 St-Washington Hts,-73.940133,40.840556,1913.647027492523
12:02:30,2,113,157 St,-73.94489,40.834041,1911.9809193611145
12:02:30,2,114,145 St,-73.95036,40.826551,1797.9809193611145
12:02:30,2,115,137 St-City College,-73.953676,40.822008,1703.9809193611145
12:02:30,2,116,125 St,-73.958372,40.815581,1602.9809193611145
12:02:30,2,117,116 St-Columbia University,-73.96411,40.807722,1496.9809193611145
12:02:30,2,118,Cathedral Pkwy (110 St),-73.966847,40.803967,1419.9809193611145
12:02:30,2,119,103 St,-73.968379,40.799446,1340.9809193611145
12:02:30,2,120,96 St,-73.972323,40.793919,1047.0
12:06:30,2,121,86 St,-73.976218,40.788644,1139.4809193611145
12:06:30,2,122,79 St,-73.979917,40.783934,1055.4809193611145
12:02:30,2,123,72 St,-73.98197,40.778453,865.0
12:22:30,2,124,66 St-Lincoln Center,-73.982209,40.77344,923.9999999999999
12:22:30,2,125,59 St-Columbus Circle,-73.981929,40.768247,841.9999999999999
12:22:30,2,126,50 St,-73.983849,40.761728,739.9999999999999
12:02:30,2,127,Times Sq-42 St,-73.987495,40.75529,631.0
12:22:30,2,128,34 St-Penn Station,-73.991057,40.750373,730.0
12:22:30,2,129,28 St,-73.993365,40.747215,807.0
12:22:30,2,130,23 St,-73.995657,40.744081,876.0
12:22:30,2,131,18 St,-73.997871,40.74104,944.0
12:22:30,2,132,14 St,-74.000201,40.737826,885.0
12:22:30,2,133,Christopher St-Sheridan Sq,-74.002906,40.733422,1104.0
12:02:30,2,134,Houston St,-74.005367,40.728251,1185.0
12:02:30,2,135,Canal St,-74.006277,40.722854,1270.0
12:02:30,2,136,Franklin St,-74.006886,40.719318,1336.0000000000002
12:22:30,2,137,Chambers St,-74.009266,40.715478,1113.0
12:02:30,1,138,WTC Cortlandt,-74.012188,40.711835,1402.2540986537933
12:02:30,1,139,Rector St,-74.013783,40.707513,1477.2540986537933
12:02:30,1,142,South Ferry,-74.013664,40.702068,1569.2540986537933
12:24:30,0,201,Wakefield-241 St,-73.85062,40.903125,2584.0
12:24:30,0,204,Nereid Av,-73.854376,40.898379,2373.0
12:24:30,0,205,233 St,-73.857473,40.893193,2240.9999999999995
12:24:30,0,206,225 St,-73.860341,40.888022,2144.9999999999995
12:24:30,0,207,219 St,-73.862633,40.883895,2062.9999999999995
12:24:30,0,208,Gun Hill Rd,-73.866256,40.87785,1954.4999999999998
12:24:30,0,209,Burke Av,-73.867164,40.871356,2031.9999999999995
12:24:30,0,210,Allerton Av,-73.867352,40.865462,1963.9999999999995
12:24:30,0,211,Pelham Pkwy,-73.867615,40.857192,1855.9999999999998
12:24:30,0,212,Bronx Park East,-73.868457,40.848828,1734.9999999999998
12:24:30,0,213,E 180 St,-73.873488,40.841894,1547.0
12:24:30,0,214,West Farms Sq-E Tremont Av,-73.880049,40.840295,1444.0
12:24:30,0,215,174 St,-73.887734,40.837288,1330.0
12:24:30,0,216,Freeman St,-73.891865,40.829993,1221.9999999999998
12:24:30,0,217,Simpson St,-73.893064,40.824073,1100.0000000000002
12:00:30,0,218,Intervale Av,-73.896736,40.822181,1022.0000000000001
12:00:30,0,219,Prospect Av,-73.90177,40.819585,942.0000000000001
12:24:30,0,220,Jackson Av,-73.907807,40.81649,845.0
12:00:30,0,221,3 Av-149 St,-73.917757,40.816109,710.0
12:00:30,0,222,149 St-Grand Concourse,-73.926718,40.81841,586.0
12:00:30,0,224,135 St,-73.94077,40.814229,1016.2727274894714
12:00:30,0,225,125 St,-73.945495,40.807754,1121.2727274894714
12:00:30,0,226,116 St,-73.949625,40.802098,1221.2727274894714
12:00:30,0,227,Central Park North (110 St),-73.951822,40.799075,1294.0
12:02:30,2,228,Park Place,-74.008811,40.713051,1199.0
12:06:30,1,229,Fulton St,-74.006571,40.709416,1308.0
12:02:30,1,230,Wall St,-74.0091,40.706821,1382.0
12:02:30,1,231,Clark St,-73.993086,40.697466,1565.0000000000002
12:02:30,1,232,Borough Hall,-73.989998,40.693219,1674.931033372879
12:02:30,1,233,Hoyt St,-73.985065,40.690545,1638.487804412842
12:02:30,0,234,Nevins St,-73.980492,40.688246,1505.0000000000002
12:02:30,0,235,Atlantic Av-Barclays Ctr,-73.977666,40.684359,1599.0000000000002
12:06:30,0,236,Bergen St,-73.975098,40.680829,1706.1219511032107
12:06:30,0,237,Grand Army Plaza,-73.971046,40.675235,1806.9878044128418
12:06:30,0,238,Eastern Pkwy-Brooklyn Museum,-73.964375,40.671987,1902.987804412842
12:02:30,0,239,Franklin Av-Medgar Evers College,-73.958131,40.670682,1880.0000000000002
12:06:30,0,241,President St-Medgar Evers College,-73.950683,40.667883,2035.0000000000002
12:06:30,0,242,Sterling St,-73.95085,40.662742,2123.0000000000005
12:06:30,0,243,Winthrop St,-73.9502,40.656652,2210.0000000000005
12:06:30,0,244,Church Av,-73.949575,40.650843,2292.0000000000005
12:06:30,0,245,Beverly Rd,-73.948959,40.645098,2376.0000000000005
12:06:30,0,246,Newkirk Av-Little Haiti,-73.948411,40.639967,2462.0000000000005
12:06:30,0,247,Flatbush Av-Brooklyn College,-73.947642,40.632836,2582.0000000000005
12:06:30,0,248,Nostrand Av,-73.950466,40.669847,1988.0
12:06:30,0,249,Kingston Av,-73.942161,40.669399,2082.0
12:02:30,0,250,Crown Hts-Utica Av,-73.932942,40.668897,2103.0000000000005
12:06:30,0,251,Sutter Av-Rutland Rd,-73.92261,40.664717,2233.5
12:06:30,0,252,Saratoga Av,-73.916327,40.661453,2344.0
12:06:30,0,253,Rockaway Av,-73.908946,40.662549,2429.0
12:06:30,0,254,Junius St,-73.902447,40.663515,2509.961039781571
12:06:30,0,255,Pennsylvania Av,-73.894895,40.664635,2607.961039781571
12:06:30,0,256,Van Siclen Av,-73.889395,40.665449,2683.961039781571
12:06:30,0,257,New Lots Av,-73.884079,40.666235,2751.961039781571
12:00:30,0,301,Harlem-148 St,-73.93647,40.82388,1435.2421875
12:00:30,0,302,145 St,-73.936245,40.820421,1334.2421875
12:05:00,0,401,Woodlawn,-73.878751,40.886037,1776.9999999999998
12:05:00,0,402,Mosholu Pkwy,-73.884655,40.87975,1657.0
12:05:00,0,405,Bedford Park Blvd-Lehman College,-73.890064,40.873412,1551.9999999999998
12:05:00,0,406,Kingsbridge Rd,-73.897174,40.86776,1439.0
12:05:00,0,407,Fordham Rd,-73.901034,40.862803,1344.0000000000002
12:05:00,0,408,183 St,-73.903879,40.858407,1261.0000000000002
12:05:00,0,409,Burnside Av,-73.907684,40.853453,1164.0000000000002
12:05:00,0,410,176 St,-73.911794,40.84848,1089.0000000000002
12:05:00,0,411,Mt Eden Av,-73.914685,40.844434,1011.0000000000001
12:05:00,0,412,170 St,-73.917791,40.840075,929.0
12:05:00,0,413,167 St,-73.9214,40.835537,840.0
12:05:00,0,414,161 St-Yankee Stadium,-73.925831,40.827994,715.0000000000001
12:05:00,0,415,149 St-Grand Concourse,-73.927351,40.818375,531.0
12:00:30,0,416,138 St-Grand Concourse,-73.929849,40.813224,407.0
12:02:30,0,418,Fulton St,-74.009509,40.710368,966.0000000000001
12:02:30,0,419,Wall St,-74.011862,40.707557,1043.0000000000002
12:02:30,0,420,Bowling Green,-74.014065,40.704817,1117.0000000000002
12:02:30,0,423,Borough Hall,-73.990151,40.692404,1369.0000000000002
13:28:30,0,501,Eastchester-Dyre Av,-73.830834,40.8883,2230.0
12:24:30,0,502,Baychester Av,-73.838591,40.878663,2109.0
12:24:30,0,503,Gun Hill Rd,-73.846384,40.869526,1983.9999999999998
12:24:30,0,504,Pelham Pkwy,-73.855359,40.858985,1850.0
12:24:30,0,505,Morris Park,-73.860495,40.854364,1764.0
13:57:00,0,601,Pelham Bay Park,-73.828121,40.852462,1879.5
13:57:00,0,602,Buhre Av,-73.832569,40.84681,1744.0
13:57:00,0,603,Middletown Rd,-73.836322,40.843863,1672.0
13:57:00,0,604,Westchester Sq-E Tremont Av,-73.842952,40.839892,1569.0000000000002
13:57:00,0,606,Zerega Av,-73.847036,40.836488,1488.5000000000002
13:57:00,0,607,Castle Hill Av,-73.851222,40.834255,1420.5000000000002
12:53:00,0,608,Parkchester,-73.860816,40.833226,1263.5000000000002
12:53:00,0,609,St Lawrence Av,-73.867618,40.831509,1459.8443121910095
12:53:00,0,610,Morrison Av-Soundview,-73.874516,40.829521,1375.8443121910095
12:53:00,0,611,Elder Av,-73.879159,40.828584,1307.8443121910097
12:53:00,0,612,Whitlock Av,-73.886283,40.826525,1209.8443121910097
12:53:00,0,613,Hunts Point Av,-73.890549,40.820948,992.0000000000001
12:05:00,0,614,Longwood Av,-73.896435,40.816104,1096.0000000000002
12:05:00,0,615,E 149 St,-73.904098,40.812118,996.0000000000001
12:05:00,0,616,E 143 St-St Mary's St,-73.907657,40.808719,921.0000000000001
12:05:00,0,617,Cypress Av,-73.914042,40.805368,804.0000000000001
12:05:00,0,618,Brook Av,-73.91924,40.807566,730.0000000000001
12:05:00,0,619,3 Av-138 St,-73.926138,40.810476,626.0
12:00:30,0,621,125 St,-73.937594,40.804138,276.0
12:03:30,0,622,116 St,-73.941617,40.798629,339.99999999999994
12:03:30,0,623,110 St,-73.94425,40.79502,262.0
12:03:30,0,624,103 St,-73.947478,40.7906,184.0
12:03:30,0,625,96 St,-73.95107,40.785672,96.0
12:03:30,0,626,86 St,-73.955589,40.779492,0.0
12:01:00,0,627,77 St,-73.959874,40.77362,99.0
12:01:00,0,628,68 St-Hunter College,-73.96387,40.768141,195.0
12:02:30,0,629,59 St,-73.967967,40.762526,193.0
12:02:30,0,630,51 St,-73.97192,40.757107,391.0
12:02:30,0,631,Grand Central-42 St,-73.976848,40.751776,354.0
12:02:30,0,632,33 St,-73.982076,40.746081,595.0
12:02:30,0,633,28 St,-73.984264,40.74307,662.9999999999999
12:02:30,0,634,23 St,-73.986599,40.739864,732.9999999999999
12:02:30,0,635,14 St-Union Sq,-73.989951,40.734673,595.0000000000001
12:02:30,0,636,Astor Pl,-73.99107,40.730054,898.4571433067323
12:02:30,0,637,Bleecker St,-73.994659,40.725915,992.4571433067324
12:02:30,0,638,Spring St,-73.997141,40.722301,1059.4571433067324
12:02:30,0,639,Canal St,-74.000193,40.718803,994.0
12:02:30,0,640,Brooklyn Bridge-City Hall,-74.004131,40.713065,851.0
13:18:30,2,701,Flushing-Main St,-73.83003,40.7596,1833.1970517635343
13:18:30,2,702,Mets-Willets Point,-73.845625,40.754622,1689.1970517635343
13:18:30,2,705,111 St,-73.855334,40.75173,1685.514563560486
13:18:30,2,706,103 St-Corona Plaza,-73.8627,40.749865,1615.514563560486
13:18:30,2,707,Junction Blvd,-73.869527,40.749145,1479.1970517635343
13:18:30,2,708,90 St-Elmhurst Av,-73.876613,40.748408,1479.8991782665253
13:18:30,2,709,82 St-Jackson Hts,-73.883697,40.747659,1409.8991782665253
12:06:30,2,710,74 St-Broadway,-73.891394,40.746848,1245.8991782665253
12:06:30,2,711,69 St,-73.896403,40.746325,1205.899178266525
12:10:30,2,712,61 St-Woodside,-73.902984,40.74563,1133.899178266525
12:10:30,2,713,52 St,-73.912549,40.744149,1017.514563560486
12:10:30,2,714,46 St-Bliss St,-73.918435,40.743132,961.514563560486
12:10:30,2,715,40 St-Lowery St,-73.924016,40.743781,907.5145635604858
12:10:30,2,716,33 St-Rawson St,-73.930997,40.744587,838.5145635604858
12:06:30,1,718,Queensboro Plaza,-73.940202,40.750582,704.5145635604858
12:18:30,2,719,Court Sq,-73.945264,40.747023,801.5145635604858
12:06:30,1,720,Hunters Point Av,-73.948916,40.742216,729.4999999999999
12:06:30,1,721,Vernon Blvd-Jackson Av,-73.953581,40.742626,691.0
12:02:30,1,723,Grand Central-42 St,-73.976041,40.751431,480.99999999999994
12:02:30,1,724,5 Av,-73.981963,40.753821,535.0
12:02:30,1,725,Times Sq-42 St,-73.987691,40.755477,608.9999999999999
12:02:30,1,726,34 St-Hudson Yards,-74.00191,40.755882,749.9999999999999
12:02:30,1,901,Grand Central-42 St,-73.979189,40.752769,421.0
12:02:30,1,902,Times Sq-42 St,-73.986229,40.755983,515.0
12:53:00,1,A02,Inwood-207 St,-73.919899,40.868072,2257.0
12:53:00,1,A03,Dyckman St,-73.927271,40.865491,2162.0
12:53:00,1,A05,190 St,-73.93418,40.859022,2042.0
12:53:00,1,A06,181 St,-73.937969,40.851695,1924.9999999999998
12:53:00,1,A07,175 St,-73.939704,40.847391,1827.9999999999998
12:13:00,1,A09,168 St,-73.939561,40.840719,1688.1578962802885
13:46:30,1,A10,163 St-Amsterdam Av,-73.939892,40.836013,1613.1578962802885
13:46:30,1,A11,155 St,-73.941514,40.830518,1538.1578962802885
12:13:00,1,A12,145 St,-73.944216,40.824783,1352.9166662693024
12:13:00,1,A14,135 St,-73.947649,40.817894,1282.9166662693024
12:13:00,1,A15,125 St,-73.952343,40.811109,1269.9999999999998
12:54:30,1,A16,116 St,-73.954882,40.805085,1415.1578962802887
12:02:30,1,A17,Cathedral Pkwy (110 St),-73.958161,40.800603,1416.9999999999998
12:02:30,1,A18,103 St,-73.961454,40.796092,1347.9999999999998
12:02:30,1,A19,96 St,-73.964696,40.791642,1267.9999999999998
12:02:30,1,A20,86 St,-73.968916,40.785868,1157.9999999999998
12:02:30,1,A21,81 St-Museum of Natural History,-73.972143,40.781433,1069.0
12:02:30,1,A22,72 St,-73.97641,40.775594,974.0
12:02:30,1,A24,59 St-Columbus Circle,-73.981736,40.768296,797.9999999999999
12:02:30,1,A25,50 St,-73.985984,40.762456,739.0
13:38:30,1,A27,42 St-Port Authority Bus Terminal,-73.989735,40.757308,631.0
12:22:30,2,A28,34 St-Penn Station,-73.993391,40.752287,736.0
12:54:30,1,A30,23 St,-73.998041,40.745906,830.9999999999999
12:54:30,1,A31,14 St,-74.00169,40.740893,869.0
12:02:30,2,A32,W 4 St-Wash Sq,-74.000495,40.732338,989.0
12:02:30,2,A33,Spring St,-74.003739,40.726227,1156.0
13:26:30,1,A34,Canal St,-74.005229,40.720824,1164.0000000000002
13:26:30,1,A36,Chambers St,-74.008585,40.714111,1284.0000000000002
12:10:30,1,A38,Fulton St,-74.007691,40.710197,1188.931033372879
13:14:30,1,A40,High St,-73.990531,40.699337,1368.931033372879
13:14:30,1,A41,Jay St-MetroTech,-73.987342,40.692338,1488.931033372879
13:14:30,1,A42,Hoyt-Schermerhorn Sts,-73.985001,40.688484,1603.9310333728793
13:54:30,1,A43,Lafayette Av,-73.973946,40.686113,1738.931033372879
13:54:30,1,A44,Clinton-Washington Avs,-73.965838,40.683263,1808.931033372879
13:54:30,1,A45,Franklin Av,-73.956848,40.68138,1948.0
13:14:30,1,A46,Nostrand Av,-73.950426,40.680438,1853.931033372879
13:54:30,1,A47,Kingston-Throop Avs,-73.940858,40.679921,1963.931033372879
13:14:30,1,A48,Utica Av,-73.930729,40.679364,2030.931033372879
13:54:30,1,A49,Ralph Av,-73.920786,40.678822,2145.931033372879
12:34:30,1,A50,Rockaway Av,-73.911946,40.67834,2250.931033372879
13:14:30,1,A51,Broadway Junction,-73.905316,40.678334,2195.2794270515446
13:26:30,1,A52,Liberty Av,-73.896548,40.674542,2322.2794270515446
13:26:30,1,A53,Van Siclen Av,-73.890358,40.67271,2427.2794270515446
13:26:30,1,A54,Shepherd Av,-73.88075,40.67413,2537.2794270515446
13:14:30,1,A55,Euclid Av,-73.872106,40.675377,2494.2794270515446
13:14:30,1,A57,Grant Av,-73.86505,40.677044,2614.2794270515446
13:14:30,1,A59,80 St,-73.858992,40.679371,2714.279427051544
13:14:30,1,A60,88 St,-73.85147,40.679843,2819.279427051544
13:14:30,1,A61,Rockaway Blvd,-73.843853,40.680429,2904.279427051544
13:50:30,1,A63,104 St,-73.837683,40.681711,2984.279427051544
13:50:30,1,A64,111 St,-73.832163,40.684331,3059.279427051544
13:50:30,1,A65,Ozone Park-Lefferts Blvd,-73.825798,40.685951,3164.279427051544
12:02:30,1,B04,21 St-Queensbridge,-73.942836,40.754203,757.6086978912355
12:02:30,1,B06,Roosevelt Island,-73.95326,40.759145,645.0925898551941
12:26:30,1,B08,Lexington Av/63 St,-73.966113,40.764629,553.0
12:06:30,1,B10,57 St,-73.97745,40.763972,718.0
12:18:30,1,B12,9 Av,-73.994324,40.646292,2510.592053413391
12:18:30,1,B13,Fort Hamilton Pkwy,-73.994304,40.640914,2620.5920534133916
12:18:30,1,B14,50 St,-73.994791,40.63626,2690.592053413391
12:18:30,1,B15,55 St,-73.995476,40.631435,2800.5920534133916
12:18:30,1,B16,62 St,-73.996895,40.626472,2860.5920534133916
12:18:30,1,B17,71 St,-73.998864,40.619589,2970.5920534133916
12:18:30,1,B18,79 St,-74.00061,40.613501,3080.5920534133916
12:18:30,1,B19,18 Av,-74.001736,40.607954,3155.5920534133916
12:18:30,1,B20,20 Av,-73.998168,40.604556,3230.5920534133916
12:18:30,1,B21,Bay Pkwy,-73.993728,40.601875,3295.592053413392
13:38:30,1,B22,25 Av,-73.986829,40.597704,3415.592053413392
13:38:30,1,B23,Bay 50 St,-73.983765,40.588841,3590.5920534133916
12:21:00,1,D01,Norwood-205 St,-73.878855,40.874811,1925.8079476356506
12:21:00,1,D03,Bedford Park Blvd,-73.887138,40.873244,1786.916666269302
12:21:00,1,D04,Kingsbridge Rd,-73.893509,40.866978,1672.8079476356509
12:21:00,1,D05,Fordham Rd,-73.897749,40.861296,1567.0
12:21:00,1,D06,182-183 Sts,-73.900741,40.856093,1477.8079476356509
12:21:00,1,D07,Tremont Av,-73.905227,40.85041,1387.0
12:21:00,1,D08,174-175 Sts,-73.910136,40.8459,1287.0
12:21:00,1,D09,170 St,-73.9134,40.839306,1202.8079476356509
12:21:00,1,D10,167 St,-73.91844,40.833771,1087.8079476356509
13:49:00,1,D11,161 St-Yankee Stadium,-73.925651,40.827905,953.0
12:13:00,1,D12,155 St,-73.938209,40.830135,1074.9999999999998
12:13:00,1,D13,145 St,-73.944216,40.824783,1194.9999999999998
12:02:30,1,D14,7 Av,-73.981637,40.762862,807.9473676681519
12:06:30,1,D15,47-50 Sts-Rockefeller Ctr,-73.981329,40.758663,808.0
12:06:30,1,D16,42 St-Bryant Pk,-73.984569,40.754222,760.0
12:06:30,1,D17,34 St-Herald Sq,-73.987823,40.749719,829.9999999999999
12:06:30,1,D18,23 St,-73.992821,40.742878,948.9999999999999
12:06:30,1,D19,14 St,-73.996209,40.738228,1015.0000000000001
13:50:30,1,D20,W 4 St-Wash Sq,-74.000495,40.732338,1014.9999999999999
13:50:30,1,D21,Broadway-Lafayette St,-73.996204,40.725297,1154.9999999999998
13:46:30,1,D22,Grand St,-73.993753,40.718267,1284.9999999999998
12:18:30,1,D24,Atlantic Av-Barclays Ctr,-73.97689,40.68446,1825.843132019043
12:18:30,1,D25,7 Av,-73.972367,40.67705,1950.8431320190432
12:18:30,1,D26,Prospect Park,-73.962246,40.661614,2133.7619032859807
12:18:30,1,D27,Parkside Av,-73.961495,40.655292,2233.76190328598
12:18:30,1,D28,Church Av,-73.962982,40.650527,2299.487804412842
12:18:30,1,D29,Beverley Rd,-73.964492,40.644031,2403.178282022476
12:18:30,1,D30,Cortelyou Rd,-73.963891,40.640927,2473.178282022476
12:18:30,1,D31,Newkirk Plaza,-73.962793,40.635082,2472.487804412842
12:18:30,1,D32,Avenue H,-73.961639,40.62927,2578.807805299759
12:18:30,1,D33,Avenue J,-73.960803,40.625039,2683.807805299759
12:18:30,1,D34,Avenue M,-73.959399,40.617618,2798.807805299759
12:18:30,1,D35,Kings Hwy,-73.957734,40.60867,2712.487804412842
12:18:30,1,D37,Avenue U,-73.955929,40.5993,2939.498116493225
12:18:30,1,D38,Neck Rd,-73.955161,40.595246,3051.498116493225
12:18:30,1,D39,Sheepshead Bay,-73.954155,40.586896,2947.487804412842
12:18:30,1,D40,Brighton Beach,-73.961376,40.577621,3079.487804412842
12:18:30,1,D41,Ocean Pkwy,-73.968501,40.576312,3260.487804412842
12:18:30,1,D42,W 8 St-NY Aquarium,-73.975939,40.576127,3375.487804412842
12:18:30,1,D43,Coney Island-Stillwell Av,-73.981233,40.577422,3447.487804412842
12:58:30,1,E01,World Trade Center,-74.009781,40.712582,1303.0
12:06:30,1,F01,Jamaica-179 St,-73.783817,40.712646,2392.976189851761
12:06:30,1,F02,169 St,-73.793604,40.71047,2308.0
12:06:30,1,F03,Parsons Blvd,-73.803326,40.707564,2188.0
12:06:30,1,F04,Sutphin Blvd,-73.810708,40.70546,2098.0
12:06:30,1,F05,Briarwood,-73.820574,40.709179,1965.9761898517609
12:06:30,1,F06,Kew Gardens-Union Tpke,-73.831008,40.714441,1842.9761898517609
12:02:30,1,F07,75 Av,-73.837324,40.718331,1768.0
12:34:30,1,F09,Court Sq-23 St,-73.946,40.747846,805.9473676681519
13:02:30,1,F11,Lexington Av/53 St,-73.969055,40.757552,620.9473676681519
12:02:30,1,F12,5 Av/53 St,-73.975224,40.760167,691.4761898517609
12:54:30,1,F14,2 Av,-73.989938,40.723402,1305.6904776096344
12:54:30,1,F15,Delancey St-Essex St,-73.988114,40.718611,1410.6904776096344
12:54:30,1,F16,East Broadway,-73.990173,40.713715,1484.6904776096344
13:34:30,1,F18,York St,-73.986751,40.701397,1649.6904776096344
13:14:30,1,F20,Bergen St,-73.990862,40.686145,1746.5872821807861
13:14:30,1,F21,Carroll St,-73.995048,40.680303,1878.1162178516388
13:14:30,1,F22,Smith-9 Sts,-73.995959,40.67358,2013.116217851639
13:14:30,1,F23,4 Av-9 St,-73.989779,40.670272,2086.1162178516392
13:14:30,1,F24,7 Av,-73.980305,40.666271,2043.931033372879
13:14:30,1,F25,15 St-Prospect Park,-73.979493,40.660365,2207.0961723327637
13:14:30,1,F26,Fort Hamilton Pkwy,-73.975776,40.650782,2372.0961723327637
13:14:30,1,F27,Church Av,-73.979678,40.644041,2283.931033372879
13:50:30,1,F29,Ditmas Av,-73.978172,40.636119,2403.931033372879
13:50:30,1,F30,18 Av,-73.976971,40.629755,2523.931033372879
13:50:30,1,F31,Avenue I,-73.976127,40.625322,2583.931033372879
13:50:30,1,F32,Bay Pkwy,-73.975264,40.620769,2643.931033372879
13:50:30,1,F33,Avenue N,-73.974197,40.61514,2763.931033372879
13:50:30,1,F34,Avenue P,-73.973022,40.608944,2853.931033372879
13:50:30,1,F35,Kings Hwy,-73.972361,40.603217,3016.587282180786
13:14:30,1,F36,Avenue U,-73.973357,40.596063,3131.587282180786
13:14:30,1,F38,Avenue X,-73.97425,40.58962,3238.0253756046295
12:18:30,1,F39,Neptune Av,-73.974574,40.581011,3358.0253756046295
12:06:30,1,G05,Jamaica Center-Parsons/Archer,-73.801109,40.702147,2301.976189851761
12:06:30,1,G06,Sutphin Blvd-Archer Av-JFK Airport,-73.807969,40.700486,2192.976189851761
12:06:30,1,G07,Jamaica-Van Wyck,-73.816859,40.702566,2072.976189851761
12:06:30,1,G08,Forest Hills-71 Av,-73.844521,40.721691,1648.0
12:34:30,1,G09,67 Av,-73.852719,40.726523,1774.0000000000002
12:10:30,1,G10,63 Dr-Rego Park,-73.861604,40.729846,1746.947367668152
12:10:30,1,G11,Woodhaven Blvd,-73.869229,40.733106,1638.947367668152
12:10:30,1,G12,Grand Av-Newtown,-73.877223,40.737015,1523.947367668152
12:10:30,1,G13,Elmhurst Av,-73.882017,40.742454,1418.947367668152
12:06:30,1,G14,Jackson Hts-Roosevelt Av,-73.891338,40.746644,1228.0
12:06:30,1,G15,65 St,-73.898453,40.749669,1385.9090898036957
12:06:30,1,G16,Northern Blvd,-73.906006,40.752885,1288.9090898036957
12:06:30,1,G18,46 St,-73.913333,40.756312,1187.9090898036957
12:06:30,1,G19,Steinway St,-73.92074,40.756879,1077.9090898036957
12:06:30,1,G20,36 St,-73.928781,40.752039,957.9090898036957
12:06:30,1,G21,Queens Plaza,-73.937243,40.748973,837.9090898036957
12:10:30,2,G22,Court Sq,-73.943832,40.746554,861.5145635604858
12:10:30,2,G24,21 St,-73.949724,40.744065,957.0145635604858
12:10:30,2,G26,Greenpoint Av,-73.954449,40.731352,1087.0145635604858
12:10:30,2,G28,Nassau Av,-73.951277,40.724635,1202.0145635604858
12:10:30,2,G29,Metropolitan Av,-73.951418,40.712792,1337.0145635604858
12:10:30,2,G30,Broadway,-73.950308,40.706092,1419.0145635604858
12:10:30,2,G31,Flushing Av,-73.950234,40.700377,1516.5145635604858
12:10:30,2,G32,Myrtle-Willoughby Avs,-73.949046,40.694568,1591.5145635604858
12:10:30,2,G33,Bedford-Nostrand Avs,-73.953522,40.689627,1704.5145635604858
12:10:30,2,G34,Classon Av,-73.96007,40.688873,1779.5145635604858
13:54:30,1,G35,Clinton-Washington Avs,-73.966839,40.688089,1852.5145635604858
13:54:30,1,G36,Fulton St,-73.975375,40.687119,1947.5145635604858
12:34:30,1,H01,Aqueduct Racetrack,-73.834058,40.668234,3089.279427051544
13:14:30,1,H02,Aqueduct-N Conduit Av,-73.834058,40.668234,3154.7001698017125
13:14:30,1,H03,Howard Beach-JFK Airport,-73.830301,40.660476,3264.279427051544
13:14:30,1,H04,Broad Channel,-73.815925,40.608382,3694.279427051544
13:14:30,1,H06,Beach 67 St,-73.796924,40.590927,3994.279427051544
13:14:30,1,H07,Beach 60 St,-73.788522,40.592374,4104.279427051544
13:14:30,1,H08,Beach 44 St,-73.776013,40.592943,4219.279427051544
13:14:30,1,H09,Beach 36 St,-73.768175,40.595398,4325.700169801713
13:14:30,1,H10,Beach 25 St,-73.761353,40.600066,4415.700169801713
13:14:30,1,H11,Far Rockaway-Mott Av,-73.755405,40.603995,4480.700169801713
12:34:30,1,H12,Beach 90 St,-73.813641,40.588034,3946.279427051544
12:34:30,1,H13,Beach 98 St,-73.820558,40.585307,4037.7794270515446
12:34:30,1,H14,Beach 105 St,-73.827559,40.583209,4111.779427051544
12:34:30,1,H15,Rockaway Park-Beach 116 St,-73.835592,40.580903,4222.779427051544
13:18:30,1,J12,121 St,-73.828294,40.700492,2537.4761898517613
13:18:30,1,J13,111 St,-73.836345,40.697418,2538.9761898517613
13:18:30,1,J14,104 St,-73.84433,40.695178,2658.9761898517613
13:18:30,1,J15,Woodhaven Blvd,-73.851576,40.693879,2748.9761898517613
13:18:30,1,J16,85 St-Forest Pkwy,-73.86001,40.692435,2911.279427051544
13:18:30,1,J17,75 St-Elderts Ln,-73.867139,40.691324,2735.2794270515446
13:18:30,1,J19,Cypress Hills,-73.87255,40.689941,2731.279427051544
13:10:30,2,J20,Crescent St,-73.873785,40.683194,2585.2794270515446
13:10:30,2,J21,Norwood Av,-73.880039,40.68141,2495.2794270515446
13:10:30,2,J22,Cleveland St,-73.884639,40.679947,2479.155215024948
13:10:30,2,J23,Van Siclen Av,-73.891688,40.678024,2345.2794270515446
13:10:30,2,J24,Alabama Av,-73.898654,40.676992,2285.2794270515446
13:06:30,1,J27,Broadway Junction,-73.904512,40.679498,2181.961039781571
13:50:30,2,J28,Chauncey St,-73.910456,40.682893,2255.2794270515446
13:06:30,1,J29,Halsey St,-73.916559,40.68637,2238.0
13:06:30,1,J30,Gates Av,-73.92227,40.68963,2155.5
13:06:30,1,J31,Kosciuszko St,-73.928814,40.693342,2058.0
12:18:30,1,L01,8 Av,-74.002578,40.739777,929.0
12:18:30,1,L02,6 Av,-73.996786,40.737335,893.9610397815704
12:18:30,1,L03,14 St-Union Sq,-73.99073,40.734789,808.9610397815705
12:06:30,1,L05,3 Av,-73.986122,40.732849,873.9610397815705
12:06:30,1,L06,1 Av,-73.981628,40.730953,903.9610397815705
12:06:30,1,L08,Bedford Av,-73.956872,40.717304,1099.9610397815707
12:06:30,1,L10,Lorimer St,-73.950275,40.714063,1189.9610397815707
12:06:30,1,L11,Graham Av,-73.944053,40.714565,1225.9610397815707
12:06:30,1,L12,Grand St,-73.94067,40.711926,1310.9610397815707
12:06:30,1,L13,Montrose Av,-73.93985,40.707739,1358.961039781571
12:06:30,1,L14,Morgan Av,-73.933147,40.706152,1416.9610397815707
12:06:30,1,L15,Jefferson St,-73.922913,40.706607,1502.9610397815707
12:06:30,1,L16,DeKalb Av,-73.918425,40.703811,1572.961039781571
12:06:30,1,L17,Myrtle-Wyckoff Avs,-73.911586,40.699814,1648.9610397815707
12:06:30,1,L19,Halsey St,-73.904084,40.695602,1685.9610397815707
12:06:30,1,L20,Wilson Av,-73.904046,40.688764,1810.9610397815707
12:06:30,1,L21,Bushwick Av-Aberdeen St,-73.905249,40.682829,1903.9610397815707
12:06:30,1,L22,Broadway Junction,-73.90324,40.678856,1956.9610397815707
12:06:30,1,L24,Atlantic Av,-73.903097,40.675345,2044.961039781571
12:06:30,1,L25,Sutter Av,-73.901975,40.669367,2116.961039781571
12:06:30,1,L26,Livonia Av,-73.900571,40.664038,2179.961039781571
12:06:30,1,L27,New Lots Av,-73.899232,40.658733,2226.961039781571
12:06:30,1,L28,East 105 St,-73.899485,40.650573,2331.961039781571
12:06:30,1,L29,Canarsie-Rockaway Pkwy,-73.90185,40.646654,2406.961039781571
12:30:30,2,M01,Middle Village-Metropolitan Av,-73.889601,40.711396,2238.951424121857
12:30:30,2,M04,Fresh Pond Rd,-73.895877,40.706186,2162.9610397815704
12:30:30,2,M05,Forest Av,-73.903077,40.704423,2059.951424121857
12:30:30,2,M06,Seneca Av,-73.90774,40.702762,1957.951424121857
13:10:30,1,M08,Myrtle-Wyckoff Avs,-73.912385,40.69943,1873.9610397815707
12:46:30,2,M09,Knickerbocker Av,-73.919711,40.698664,1983.961039781571
13:10:30,1,M10,Central Av,-73.927397,40.697857,2088.951424121857
12:30:30,1,M11,Myrtle Av,-73.935657,40.697207,1939.9999999999998
12:30:30,1,M12,Flushing Av,-73.941126,40.70026,1918.0
12:30:30,1,M13,Lorimer St,-73.947408,40.703869,1831.0
12:30:30,1,M14,Hewes St,-73.953431,40.70687,1730.9999999999998
12:30:30,1,M16,Marcy Av,-73.957757,40.708359,1625.9999999999998
12:30:30,1,M18,Delancey St-Essex St,-73.987437,40.718315,1265.9999999999998
12:06:30,1,M19,Bowery,-73.993915,40.72028,1191.0
12:06:30,1,M20,Canal St,-73.999892,40.718092,1071.0
12:02:30,1,M21,Chambers St,-74.003401,40.713243,971.0
12:06:30,1,M22,Fulton St,-74.007582,40.710374,1046.0
12:06:30,1,M23,Broad St,-74.011056,40.706476,1111.0
12:18:30,1,N02,8 Av,-74.011719,40.635064,2573.2524299621587
12:18:30,1,N03,Fort Hamilton Pkwy,-74.005351,40.631386,2685.719626903534
12:18:30,1,N04,New Utrecht Av,-73.996353,40.624842,2805.719626903534
12:18:30,1,N05,18 Av,-73.990414,40.620671,2907.719626903534
12:18:30,1,N06,20 Av,-73.985026,40.61741,2987.7196269035344
12:18:30,1,N07,Bay Pkwy,-73.981848,40.611815,3087.719626903534
12:18:30,1,N08,Kings Hwy,-73.980353,40.603923,3202.719626903534
12:18:30,1,N09,Avenue U,-73.979137,40.597473,3307.719626903534
12:18:30,1,N10,86 St,-73.97823,40.592721,3408.2524299621577
12:10:30,1,Q01,Canal St,-74.00046,40.718383,1109.719626903534
12:18:30,1,Q03,72 St,-73.958424,40.768799,673.0
12:18:30,1,Q04,86 St,-73.951787,40.777891,793.0
12:18:30,1,Q05,96 St,-73.947152,40.784318,873.0
12:18:30,1,R01,Astoria-Ditmars Blvd,-73.912034,40.775036,1285.5145618915556
12:18:30,1,R03,Astoria Blvd,-73.917843,40.770258,1220.5145618915558
12:18:30,1,R04,30 Av,-73.921479,40.766779,1100.5145618915558
12:18:30,1,R05,Broadway,-73.925508,40.76182,1020.5145618915558
12:18:30,1,R06,36 Av,-73.929575,40.756804,910.5145618915558
12:18:30,1,R08,39 Av-Dutch Kills,-73.932755,40.752882,834.5065808296205
12:18:30,1,R09,Queensboro Plaza,-73.940202,40.750582,657.5145618915558
12:06:30,1,R11,Lexington Av/59 St,-73.967258,40.76266,422.5145618915558
12:06:30,1,R13,5 Av/59 St,-73.973347,40.764811,513.0561785697937
12:06:30,1,R14,57 St-7 Av,-73.980658,40.764664,636.0561785697937
12:06:30,1,R15,49 St,-73.984139,40.759901,721.0
12:06:30,1,R16,Times Sq-42 St,-73.986754,40.754672,631.0
12:06:30,1,R17,34 St-Herald Sq,-73.98795,40.749567,739.0
12:26:30,1,R18,28 St,-73.988691,40.745494,815.9999999999999
12:26:30,1,R19,23 St,-73.989344,40.741303,888.9999999999999
12:22:30,1,R20,14 St-Union Sq,-73.990568,40.735736,820.0000000000001
12:02:30,1,R21,8 St-NYU,-73.992629,40.730328,935.0
12:02:30,1,R22,Prince St,-73.997702,40.724329,1009.9999999999999
12:02:30,1,R23,Canal St,-74.001775,40.719527,1125.0
12:02:30,1,R24,City Hall,-74.006978,40.713282,1268.0000000000002
12:02:30,1,R25,Cortlandt St,-74.011029,40.710668,1363.0
12:02:30,1,R26,Rector St,-74.013342,40.70722,1481.0
12:02:30,1,R27,Whitehall St-South Ferry,-74.012994,40.703087,1561.0
12:18:30,1,R28,Court St,-73.991777,40.6941,1608.264706373215
12:18:30,1,R29,Jay St-MetroTech,-73.985942,40.69218,1623.931033372879
12:18:30,1,R30,DeKalb Av,-73.981824,40.690635,1650.843132019043
12:18:30,1,R31,Atlantic Av-Barclays Ctr,-73.97881,40.683666,1758.2524299621584
12:10:30,1,R32,Union St,-73.98311,40.677316,1881.719626903534
12:10:30,1,R33,4 Av-9 St,-73.988302,40.670847,1991.7196269035342
12:10:30,1,R34,Prospect Av,-73.992872,40.665414,2104.719626903534
12:10:30,1,R35,25 St,-73.998091,40.660397,2188.2524299621587
12:18:30,1,R36,36 St,-74.003549,40.655144,2118.252429962158
12:10:30,1,R39,45 St,-74.010006,40.648939,2298.252429962158
12:38:30,1,R40,53 St,-74.014034,40.645069,2401.752429962158
12:18:30,1,R41,59 St,-74.017881,40.641362,2403.252429962158
12:10:30,1,R42,Bay Ridge Av,-74.023377,40.634967,2565.792970180512
12:10:30,1,R43,77 St,-74.02551,40.629742,2637.792970180512
12:10:30,1,R44,86 St,-74.028398,40.622687,2802.792970180512
12:50:30,1,R45,Bay Ridge-95 St,-74.030876,40.616622,2868.792970180512
12:18:30,1,S01,Franklin Av,-73.955827,40.680596,2008.0
12:18:30,1,S03,Park Pl,-73.957624,40.674772,2128.0
12:18:30,1,S04,Botanic Garden,-73.959245,40.670343,2105.0
