start_time,ntransfers,stop_id,stop_name,stop_lon,stop_lat,duration
12:26:00,1,101,Van Cortlandt Park-242 St,-73.898583,40.889248,3516.989131212235
12:26:00,1,103,238 St,-73.90087,40.884667,3441.989131212235
12:26:00,1,104,231 St,-73.904834,40.878856,3368.989131212235
12:26:00,1,106,Marble Hill-225 St,-73.909831,40.874561,3281.9891312122345
12:26:00,1,107,215 St,-73.915279,40.869444,3189.989131212235
12:26:00,1,108,207 St,-73.918822,40.864621,3101.9891312122345
12:26:00,1,109,Dyckman St,-73.925536,40.860531,3001.989131212235
12:26:00,1,110,191 St,-73.929412,40.855225,2916.989131212235
12:26:00,2,111,181 St,-73.933596,40.849505,2823.989131212235
12:26:00,1,112,168 St-Washington Hts,-73.940133,40.840556,2706.989131212235
12:26:00,1,113,157 St,-73.94489,40.834041,2685.4809193611145
12:26:00,1,114,145 St,-73.95036,40.826551,2571.4809193611145
12:26:00,1,115,137 St-City College,-73.953676,40.822008,2477.480919361114
12:26:00,1,116,125 St,-73.958372,40.815581,2376.4809193611145
12:26:00,1,117,116 St-Columbia University,-73.96411,40.807722,2270.4809193611145
12:26:00,1,118,Cathedral Pkwy (110 St),-73.966847,40.803967,2193.4809193611145
12:26:00,1,119,103 St,-73.968379,40.799446,2114.4809193611145
12:06:00,1,120,96 St,-73.972323,40.793919,1820.5
12:06:00,1,121,86 St,-73.976218,40.788644,1912.9809193611145
12:06:00,1,122,79 St,-73.979917,40.783934,1828.9809193611147
12:06:00,1,123,72 St,-73.98197,40.778453,1638.5
12:06:00,2,124,66 St-Lincoln Center,-73.982209,40.77344,1697.5
12:16:00,1,125,59 St-Columbus Circle,-73.981929,40.768247,1615.5
12:16:00,1,126,50 St,-73.983849,40.761728,1513.5
13:26:00,1,127,Times Sq-42 St,-73.987495,40.75529,1404.5
12:01:00,1,128,34 St-Penn Station,-73.991057,40.750373,1503.5
13:21:00,1,129,28 St,-73.993365,40.747215,1580.5
13:21:00,1,130,23 St,-73.995657,40.744081,1649.4999999999998
13:21:00,1,131,18 St,-73.997871,40.74104,1717.4999999999998
12:01:00,1,132,14 St,-74.000201,40.737826,1658.5
12:46:00,1,133,Christopher St-Sheridan Sq,-74.002906,40.733422,1877.4999999999995
12:46:00,1,134,Houston St,-74.005367,40.728251,1958.4999999999995
12:46:00,1,135,Canal St,-74.006277,40.722854,2043.4999999999993
12:01:00,1,136,Franklin St,-74.006886,40.719318,2109.4999999999995
12:01:00,1,137,Chambers St,-74.009266,40.715478,1886.5
12:01:00,1,138,WTC Cortlandt,-74.012188,40.711835,2175.7540986537933
12:01:00,1,139,Rector St,-74.013783,40.707513,2250.7540986537933
12:01:00,1,142,South Ferry,-74.013664,40.702068,2342.7540986537933
12:06:00,2,201,Wakefield-241 St,-73.85062,40.903125,3993.899178266527
12:06:00,2,204,Nereid Av,-73.854376,40.898379,3782.8991782665266
12:06:00,2,205,233 St,-73.857473,40.893193,3650.899178266526
12:06:00,2,206,225 St,-73.860341,40.888022,3554.899178266526
12:06:00,2,207,219 St,-73.862633,40.883895,3472.899178266526
12:06:00,2,208,Gun Hill Rd,-73.866256,40.87785,3364.3991782665266
12:06:00,2,209,Burke Av,-73.867164,40.871356,3441.899178266526
12:06:00,2,210,Allerton Av,-73.867352,40.865462,3448.4117593765254
12:06:00,2,211,Pelham Pkwy,-73.867615,40.857192,3340.411759376526
12:06:00,2,212,Bronx Park East,-73.868457,40.848828,3219.411759376526
12:06:00,2,213,E 180 St,-73.873488,40.841894,3006.899178266526
12:06:00,2,214,West Farms Sq-E Tremont Av,-73.880049,40.840295,2865.899178266526
12:06:00,2,215,174 St,-73.887734,40.837288,2745.899178266526
12:06:00,2,216,Freeman St,-73.891865,40.829993,2631.899178266526
12:06:00,2,217,Simpson St,-73.893064,40.824073,2521.899178266526
12:06:00,2,218,Intervale Av,-73.896736,40.822181,2448.899178266526
12:06:00,2,219,Prospect Av,-73.90177,40.819585,2368.8991782665257
12:06:00,2,220,Jackson Av,-73.907807,40.81649,2274.8991782665257
12:06:00,2,221,3 Av-149 St,-73.917757,40.816109,2149.8991782665257
12:06:00,2,222,149 St-Grand Concourse,-73.926718,40.81841,2031.8991782665255
12:06:00,1,224,135 St,-73.94077,40.814229,2346.0
12:06:00,1,225,125 St,-73.945495,40.807754,2241.0
12:06:00,1,226,116 St,-73.949625,40.802098,2141.0
12:06:00,1,227,Central Park North (110 St),-73.951822,40.799075,2067.5
12:01:00,1,228,Park Place,-74.008811,40.713051,1972.5
12:01:00,1,229,Fulton St,-74.006571,40.709416,2081.5
12:01:00,1,230,Wall St,-74.0091,40.706821,2155.5000000000005
12:01:00,1,231,Clark St,-73.993086,40.697466,2338.5
12:01:00,1,232,Borough Hall,-73.989998,40.693219,2452.5
12:01:00,1,233,Hoyt St,-73.985065,40.690545,2539.5
12:16:00,1,234,Nevins St,-73.980492,40.688246,2416.5
12:16:00,1,235,Atlantic Av-Barclays Ctr,-73.977666,40.684359,2510.5
12:26:00,2,236,Bergen St,-73.975098,40.680829,2612.487804412842
12:36:00,1,237,Grand Army Plaza,-73.971046,40.675235,2711.487804412842
12:36:00,1,238,Eastern Pkwy-Brooklyn Museum,-73.964375,40.671987,2807.487804412842
12:16:00,1,239,Franklin Av-Medgar Evers College,-73.958131,40.670682,2811.3770475387573
12:36:00,1,241,President St-Medgar Evers College,-73.950683,40.667883,2992.088237047196
12:36:00,1,242,Sterling St,-73.95085,40.662742,3080.088237047196
12:36:00,1,243,Winthrop St,-73.9502,40.656652,3167.0882370471963
12:36:00,1,244,Church Av,-73.949575,40.650843,3249.0882370471963
12:36:00,1,245,Beverly Rd,-73.948959,40.645098,3333.0882370471963
12:36:00,1,246,Newkirk Av-Little Haiti,-73.948411,40.639967,3419.088237047196
12:36:00,1,247,Flatbush Av-Brooklyn College,-73.947642,40.632836,3539.088237047196
12:36:00,1,248,Nostrand Av,-73.950466,40.669847,2919.5
12:36:00,1,249,Kingston Av,-73.942161,40.669399,3009.5
12:16:00,1,250,Crown Hts-Utica Av,-73.932942,40.668897,3007.5
12:06:00,1,251,Sutter Av-Rutland Rd,-73.92261,40.664717,3133.4729723930363
12:06:00,1,252,Saratoga Av,-73.916327,40.661453,3027.4729723930363
12:26:00,3,253,Rockaway Av,-73.908946,40.662549,2940.4729723930363
12:06:00,3,254,Junius St,-73.902447,40.663515,2857.4729723930363
12:06:00,3,255,Pennsylvania Av,-73.894895,40.664635,2955.4729723930363
12:06:00,3,256,Van Siclen Av,-73.889395,40.665449,3031.472972393036
12:06:00,3,257,New Lots Av,-73.884079,40.666235,3099.472972393036
12:26:00,1,301,Harlem-148 St,-73.93647,40.82388,2587.5
12:26:00,1,302,145 St,-73.936245,40.820421,2480.5
12:11:00,2,401,Woodlawn,-73.878751,40.886037,3193.056180238724
12:11:00,2,402,Mosholu Pkwy,-73.884655,40.87975,3075.056180238724
12:11:00,2,405,Bedford Park Blvd-Lehman College,-73.890064,40.873412,2968.056180238724
12:11:00,2,406,Kingsbridge Rd,-73.897174,40.86776,2857.056180238724
12:11:00,2,407,Fordham Rd,-73.901034,40.862803,2762.056180238724
12:11:00,2,408,183 St,-73.903879,40.858407,2679.056180238724
12:11:00,2,409,Burnside Av,-73.907684,40.853453,2582.056180238724
12:11:00,2,410,176 St,-73.911794,40.84848,2506.056180238724
12:11:00,2,411,Mt Eden Av,-73.914685,40.844434,2427.0561802387238
12:11:00,2,412,170 St,-73.917791,40.840075,2345.0561802387238
12:11:00,2,413,167 St,-73.9214,40.835537,2256.0561802387238
12:11:00,2,414,161 St-Yankee Stadium,-73.925831,40.827994,2133.0561802387238
12:11:00,2,415,149 St-Grand Concourse,-73.927351,40.818375,1947.056180238724
12:11:00,2,416,138 St-Grand Concourse,-73.929849,40.813224,1823.0561802387238
12:16:00,1,418,Fulton St,-74.009509,40.710368,1879.5
12:16:00,1,419,Wall St,-74.011862,40.707557,1956.5
12:16:00,1,420,Bowling Green,-74.014065,40.704817,2031.5
12:16:00,1,423,Borough Hall,-73.990151,40.692404,2281.5
12:06:00,2,501,Eastchester-Dyre Av,-73.830834,40.8883,3703.8991782665257
12:06:00,2,502,Baychester Av,-73.838591,40.878663,3575.899178266526
12:06:00,2,503,Gun Hill Rd,-73.846384,40.869526,3460.899178266526
12:06:00,2,504,Pelham Pkwy,-73.855359,40.858985,3326.899178266526
12:06:00,2,505,Morris Park,-73.860495,40.854364,3233.899178266526
12:11:00,2,601,Pelham Bay Park,-73.828121,40.852462,3363.699038743973
12:11:00,2,602,Buhre Av,-73.832569,40.84681,3228.199038743973
12:11:00,2,603,Middletown Rd,-73.836322,40.843863,3156.199038743973
12:26:00,2,604,Westchester Sq-E Tremont Av,-73.842952,40.839892,3053.199038743973
12:11:00,2,606,Zerega Av,-73.847036,40.836488,2972.699038743973
12:26:00,2,607,Castle Hill Av,-73.851222,40.834255,2904.699038743973
12:26:00,2,608,Parkchester,-73.860816,40.833226,2747.699038743973
12:26:00,2,609,St Lawrence Av,-73.867618,40.831509,2944.043350934982
12:26:00,2,610,Morrison Av-Soundview,-73.874516,40.829521,2860.043350934982
12:26:00,2,611,Elder Av,-73.879159,40.828584,2792.043350934982
12:26:00,2,612,Whitlock Av,-73.886283,40.826525,2694.043350934982
12:26:00,2,613,Hunts Point Av,-73.890549,40.820948,2476.199038743973
12:11:00,2,614,Longwood Av,-73.896435,40.816104,2581.5445539951324
12:11:00,2,615,E 149 St,-73.904098,40.812118,2481.5445539951324
12:11:00,2,616,E 143 St-St Mary's St,-73.907657,40.808719,2406.5445539951324
12:11:00,2,617,Cypress Av,-73.914042,40.805368,2289.5445539951324
12:11:00,2,618,Brook Av,-73.91924,40.807566,2215.5445539951324
12:11:00,2,619,3 Av-138 St,-73.926138,40.810476,2111.5445539951324
12:11:00,2,621,125 St,-73.937594,40.804138,1694.0561802387238
12:26:00,2,622,116 St,-73.941617,40.798629,1839.9411745071413
12:26:00,2,623,110 St,-73.94425,40.79502,1762.9411745071413
12:26:00,2,624,103 St,-73.947478,40.7906,1682.9411745071413
12:26:00,2,625,96 St,-73.95107,40.785672,1593.9411745071413
12:56:00,2,626,86 St,-73.955589,40.779492,1409.8991782665255
12:26:00,2,627,77 St,-73.959874,40.77362,1392.941174507141
12:26:00,2,628,68 St-Hunter College,-73.96387,40.768141,1298.353874206543
12:26:00,2,629,59 St,-73.967967,40.762526,1201.941174507141
12:26:00,2,630,51 St,-73.97192,40.757107,1204.7487034797668
12:26:00,2,631,Grand Central-42 St,-73.976848,40.751776,1265.5
12:06:00,1,632,33 St,-73.982076,40.746081,1379.5
12:06:00,1,633,28 St,-73.984264,40.74307,1447.5
12:06:00,1,634,23 St,-73.986599,40.739864,1517.5
12:16:00,1,635,14 St-Union Sq,-73.989951,40.734673,1507.5
12:06:00,1,636,Astor Pl,-73.99107,40.730054,1727.5
12:06:00,1,637,Bleecker St,-73.994659,40.725915,1821.5
12:06:00,1,638,Spring St,-73.997141,40.722301,1888.5
12:16:00,1,639,Canal St,-74.000193,40.718803,1951.5000000000005
12:16:00,1,640,Brooklyn Bridge-City Hall,-74.004131,40.713065,1767.5
12:02:30,0,701,Flushing-Main St,-73.83003,40.7596,524.0
12:02:30,0,702,Mets-Willets Point,-73.845625,40.754622,368.0
12:02:30,0,705,111 St,-73.855334,40.75173,271.0
12:02:30,0,706,103 St-Corona Plaza,-73.8627,40.749865,200.99999999999997
12:02:30,0,707,Junction Blvd,-73.869527,40.749145,136.0
12:02:30,0,708,90 St-Elmhurst Av,-73.876613,40.748408,70.0
12:02:30,0,709,82 St-Jackson Hts,-73.883697,40.747659,0.0
12:01:00,0,710,74 St-Broadway,-73.891394,40.746848,77.0
12:01:00,0,711,69 St,-73.896403,40.746325,160.00000000000003
12:01:00,0,712,61 St-Woodside,-73.902984,40.74563,226.00000000000003
12:01:00,0,713,52 St,-73.912549,40.744149,364.0
12:01:00,0,714,46 St-Bliss St,-73.918435,40.743132,419.0
12:01:00,0,715,40 St-Lowery St,-73.924016,40.743781,477.0
12:01:00,0,716,33 St-Rawson St,-73.930997,40.744587,543.0
12:01:00,0,718,Queensboro Plaza,-73.940202,40.750582,649.0
12:01:00,0,719,Court Sq,-73.945264,40.747023,734.0
12:01:00,0,720,Hunters Point Av,-73.948916,40.742216,850.9999999999999
12:01:00,0,721,Vernon Blvd-Jackson Av,-73.953581,40.742626,901.1923081874846
12:01:00,0,723,Grand Central-42 St,-73.976041,40.751431,1104.6923081874845
12:01:00,0,724,5 Av,-73.981963,40.753821,1181.6923081874847
12:01:00,0,725,Times Sq-42 St,-73.987691,40.755477,1235.6923081874845
12:01:00,0,726,34 St-Hudson Yards,-74.00191,40.755882,1365.6923081874847
12:01:00,1,901,Grand Central-42 St,-73.979189,40.752769,1205.5
12:01:00,1,902,Times Sq-42 St,-73.986229,40.755983,1299.5
13:41:00,1,A02,Inwood-207 St,-73.919899,40.868072,3030.500000000001
13:41:00,1,A03,Dyckman St,-73.927271,40.865491,2935.500000000001
13:41:00,1,A05,190 St,-73.93418,40.859022,2815.500000000001
13:41:00,1,A06,181 St,-73.937969,40.851695,2698.5000000000005
13:41:00,1,A07,175 St,-73.939704,40.847391,2601.5000000000005
12:26:00,1,A09,168 St,-73.939561,40.840719,2481.5000000000005
13:41:00,1,A10,163 St-Amsterdam Av,-73.939892,40.836013,2460.095148324967
13:41:00,1,A11,155 St,-73.941514,40.830518,2385.095148324967
12:26:00,1,A12,145 St,-73.944216,40.824783,2243.1005182266235
12:11:00,1,A14,135 St,-73.947649,40.817894,2150.0951483249664
12:26:00,1,A15,125 St,-73.952343,40.811109,1984.9372520446777
12:11:00,1,A16,116 St,-73.954882,40.805085,2130.0951483249664
12:11:00,1,A17,Cathedral Pkwy (110 St),-73.958161,40.800603,2076.937252044678
12:11:00,1,A18,103 St,-73.961454,40.796092,2011.9372520446775
12:11:00,1,A19,96 St,-73.964696,40.791642,1924.9372520446777
12:11:00,1,A20,86 St,-73.968916,40.785868,1816.9372520446777
12:11:00,1,A21,81 St-Museum of Natural History,-73.972143,40.781433,1711.9372520446777
12:11:00,1,A22,72 St,-73.97641,40.775594,1623.9372520446777
12:11:00,1,A24,59 St-Columbus Circle,-73.981736,40.768296,1500.9372520446777
12:11:00,1,A25,50 St,-73.985984,40.762456,1274.272513628006
13:26:00,1,A27,42 St-Port Authority Bus Terminal,-73.989735,40.757308,1389.272513628006
13:26:00,1,A28,34 St-Penn Station,-73.993391,40.752287,1504.2725136280062
13:26:00,1,A30,23 St,-73.998041,40.745906,1604.5000000000002
13:26:00,1,A31,14 St,-74.00169,40.740893,1642.5
13:26:00,1,A32,W 4 St-Wash Sq,-74.000495,40.732338,1762.5
13:26:00,1,A33,Spring St,-74.003739,40.726227,1929.5
13:26:00,1,A34,Canal St,-74.005229,40.720824,1937.4999999999998
13:26:00,1,A36,Chambers St,-74.008585,40.714111,2057.5
13:26:00,1,A38,Fulton St,-74.007691,40.710197,2102.427632331848
13:26:00,1,A40,High St,-73.990531,40.699337,2282.427632331848
12:06:00,1,A41,Jay St-MetroTech,-73.987342,40.692338,2337.3913037776947
12:06:00,1,A42,Hoyt-Schermerhorn Sts,-73.985001,40.688484,1995.0
12:06:00,1,A43,Lafayette Av,-73.973946,40.686113,2351.595746278763
12:06:00,1,A44,Clinton-Washington Avs,-73.965838,40.683263,2426.595746278763
12:06:00,1,A45,Franklin Av,-73.956848,40.68138,2541.5957462787624
13:06:00,1,A46,Nostrand Av,-73.950426,40.680438,2467.3913037776947
12:06:00,1,A47,Kingston-Throop Avs,-73.940858,40.679921,2577.391303777695
13:06:00,1,A48,Utica Av,-73.930729,40.679364,2644.391303777695
12:06:00,1,A49,Ralph Av,-73.920786,40.678822,2730.7913596630096
12:06:00,1,A50,Rockaway Av,-73.911946,40.67834,2625.7913596630096
13:06:00,1,A51,Broadway Junction,-73.905316,40.678334,2542.7913596630096
13:11:00,1,A52,Liberty Av,-73.896548,40.674542,2669.7913596630096
13:11:00,1,A53,Van Siclen Av,-73.890358,40.67271,2774.7913596630096
13:06:00,1,A54,Shepherd Av,-73.88075,40.67413,2884.79135966301
13:06:00,1,A55,Euclid Av,-73.872106,40.675377,2841.79135966301
13:06:00,1,A57,Grant Av,-73.86505,40.677044,2961.79135966301
13:06:00,1,A59,80 St,-73.858992,40.679371,3061.7913596630096
13:06:00,1,A60,88 St,-73.85147,40.679843,3166.7913596630096
13:06:00,1,A61,Rockaway Blvd,-73.843853,40.680429,3251.7913596630096
13:06:00,1,A63,104 St,-73.837683,40.681711,3331.7913596630096
13:06:00,1,A64,111 St,-73.832163,40.684331,3406.7913596630096
13:06:00,1,A65,Ozone Park-Lefferts Blvd,-73.825798,40.685951,3511.7913596630096
12:06:00,1,B04,21 St-Queensbridge,-73.942836,40.754203,664.772513628006
12:06:00,1,B06,Roosevelt Island,-73.95326,40.759145,814.772513628006
12:06:00,1,B08,Lexington Av/63 St,-73.966113,40.764629,964.7725136280059
12:06:00,1,B10,57 St,-73.97745,40.763972,1114.772513628006
12:06:00,1,B12,9 Av,-73.994324,40.646292,3165.1645314693446
12:06:00,1,B13,Fort Hamilton Pkwy,-73.994304,40.640914,3305.6923081874847
12:06:00,1,B14,50 St,-73.994791,40.63626,3375.6923081874847
12:06:00,1,B15,55 St,-73.995476,40.631435,3482.1645314693446
12:06:00,1,B16,62 St,-73.996895,40.626472,3545.6923081874847
12:06:00,1,B17,71 St,-73.998864,40.619589,3655.6923081874847
12:06:00,1,B18,79 St,-74.00061,40.613501,3765.692308187485
12:06:00,1,B19,18 Av,-74.001736,40.607954,3840.692308187485
12:06:00,1,B20,20 Av,-73.998168,40.604556,3915.692308187485
12:06:00,1,B21,Bay Pkwy,-73.993728,40.601875,3980.6923081874847
13:26:00,1,B22,25 Av,-73.986829,40.597704,4100.692308187485
13:26:00,1,B23,Bay 50 St,-73.983765,40.588841,4275.692308187485
12:06:00,1,D01,Norwood-205 St,-73.878855,40.874811,3343.864127874375
12:06:00,1,D03,Bedford Park Blvd,-73.887138,40.873244,3202.972846508026
12:06:00,1,D04,Kingsbridge Rd,-73.893509,40.866978,3090.864127874375
12:06:00,1,D05,Fordham Rd,-73.897749,40.861296,2983.0561802387233
12:06:00,1,D06,182-183 Sts,-73.900741,40.856093,2895.864127874375
13:16:00,1,D07,Tremont Av,-73.905227,40.85041,2803.0561802387233
13:16:00,1,D08,174-175 Sts,-73.910136,40.8459,2703.0561802387238
13:16:00,1,D09,170 St,-73.9134,40.839306,2620.8641278743744
13:16:00,1,D10,167 St,-73.91844,40.833771,2505.0561802387238
13:16:00,1,D11,161 St-Yankee Stadium,-73.925651,40.827905,2369.0561802387238
13:16:00,1,D12,155 St,-73.938209,40.830135,2350.4372520446777
13:16:00,1,D13,145 St,-73.944216,40.824783,2204.9372520446777
12:11:00,1,D14,7 Av,-73.981637,40.762862,1154.272513628006
12:06:00,1,D15,47-50 Sts-Rockefeller Ctr,-73.981329,40.758663,1204.772513628006
12:06:00,1,D16,42 St-Bryant Pk,-73.984569,40.754222,1294.772513628006
12:06:00,1,D17,34 St-Herald Sq,-73.987823,40.749719,1384.772513628006
12:06:00,1,D18,23 St,-73.992821,40.742878,1504.772513628006
12:06:00,1,D19,14 St,-73.996209,40.738228,1609.772513628006
12:06:00,1,D20,W 4 St-Wash Sq,-74.000495,40.732338,1661.6923081874847
12:06:00,1,D21,Broadway-Lafayette St,-73.996204,40.725297,1801.6923081874845
12:06:00,1,D22,Grand St,-73.993753,40.718267,1931.6923081874845
13:21:00,1,D24,Atlantic Av-Barclays Ctr,-73.97689,40.68446,2564.6923081874847
13:21:00,1,D25,7 Av,-73.972367,40.67705,2694.6923081874847
13:21:00,1,D26,Prospect Park,-73.962246,40.661614,2897.6923081874843
13:21:00,1,D27,Parkside Av,-73.961495,40.655292,3039.0
12:11:00,1,D28,Church Av,-73.962982,40.650527,3032.6923081874843
13:21:00,1,D29,Beverley Rd,-73.964492,40.644031,3136.3827857971187
13:21:00,1,D30,Cortelyou Rd,-73.963891,40.640927,3206.3827857971182
12:11:00,1,D31,Newkirk Plaza,-73.962793,40.635082,3205.6923081874843
12:11:00,1,D32,Avenue H,-73.961639,40.62927,3312.0123090744014
12:11:00,1,D33,Avenue J,-73.960803,40.625039,3417.0123090744014
12:11:00,1,D34,Avenue M,-73.959399,40.617618,3532.012309074401
12:11:00,1,D35,Kings Hwy,-73.957734,40.60867,3445.6923081874843
13:41:00,1,D37,Avenue U,-73.955929,40.5993,3672.7026202678676
13:41:00,1,D38,Neck Rd,-73.955161,40.595246,3784.7026202678676
12:11:00,1,D39,Sheepshead Bay,-73.954155,40.586896,3680.692308187484
13:41:00,1,D40,Brighton Beach,-73.961376,40.577621,3812.6923081874843
13:41:00,1,D41,Ocean Pkwy,-73.968501,40.576312,3971.692308187484
13:41:00,1,D42,W 8 St-NY Aquarium,-73.975939,40.576127,4010.1651389598837
13:41:00,1,D43,Coney Island-Stillwell Av,-73.981233,40.577422,4130.165138959884
12:11:00,1,E01,World Trade Center,-74.009781,40.712582,2076.5
12:56:00,1,F01,Jamaica-179 St,-73.783817,40.712646,1406.772513628006
13:16:00,1,F02,169 St,-73.793604,40.71047,1341.772513628006
12:51:00,1,F03,Parsons Blvd,-73.803326,40.707564,1213.772513628006
12:51:00,1,F04,Sutphin Blvd,-73.810708,40.70546,1143.772513628006
12:51:00,1,F05,Briarwood,-73.820574,40.709179,979.7725136280059
12:26:00,1,F06,Kew Gardens-Union Tpke,-73.831008,40.714441,856.772513628006
12:51:00,1,F07,75 Av,-73.837324,40.718331,774.772513628006
12:11:00,1,F09,Court Sq-23 St,-73.946,40.747846,784.772513628006
12:11:00,1,F11,Lexington Av/53 St,-73.969055,40.757552,969.272513628006
12:11:00,1,F12,5 Av/53 St,-73.975224,40.760167,1034.272513628006
12:06:00,1,F14,2 Av,-73.989938,40.723402,1984.772513628006
12:06:00,1,F15,Delancey St-Essex St,-73.988114,40.718611,2104.772513628006
12:06:00,1,F16,East Broadway,-73.990173,40.713715,2186.6923081874847
12:06:00,1,F18,York St,-73.986751,40.701397,2351.6923081874847
12:06:00,1,F20,Bergen St,-73.990862,40.686145,2115.0
12:06:00,1,F21,Carroll St,-73.995048,40.680303,2220.0
12:06:00,1,F22,Smith-9 Sts,-73.995959,40.67358,2356.0
12:06:00,1,F23,4 Av-9 St,-73.989779,40.670272,2431.0
12:06:00,1,F24,7 Av,-73.980305,40.666271,2546.0
12:06:00,1,F25,15 St-Prospect Park,-73.979493,40.660365,2660.9999999999995
12:06:00,1,F26,Fort Hamilton Pkwy,-73.975776,40.650782,2825.9999999999995
12:06:00,1,F27,Church Av,-73.979678,40.644041,2834.1651389598846
13:36:00,1,F29,Ditmas Av,-73.978172,40.636119,2954.1651389598846
13:36:00,1,F30,18 Av,-73.976971,40.629755,3074.1651389598846
13:36:00,1,F31,Avenue I,-73.976127,40.625322,3134.1651389598846
13:36:00,1,F32,Bay Pkwy,-73.975264,40.620769,3194.1651389598846
13:36:00,1,F33,Avenue N,-73.974197,40.61514,3314.1651389598846
13:36:00,1,F34,Avenue P,-73.973022,40.608944,3404.1651389598846
13:36:00,1,F35,Kings Hwy,-73.972361,40.603217,3552.665138959884
13:56:00,1,F36,Avenue U,-73.973357,40.596063,3667.6651389598837
13:56:00,1,F38,Avenue X,-73.97425,40.58962,3778.165138959884
12:21:00,1,F39,Neptune Av,-73.974574,40.581011,3898.165138959884
12:26:00,1,G05,Jamaica Center-Parsons/Archer,-73.801109,40.702147,1315.772513628006
12:26:00,1,G06,Sutphin Blvd-Archer Av-JFK Airport,-73.807969,40.700486,1206.772513628006
12:26:00,1,G07,Jamaica-Van Wyck,-73.816859,40.702566,1086.772513628006
12:26:00,1,G08,Forest Hills-71 Av,-73.844521,40.721691,664.772513628006
12:16:00,1,G09,67 Av,-73.852719,40.726523,790.772513628006
12:16:00,1,G10,63 Dr-Rego Park,-73.861604,40.729846,724.772513628006
12:16:00,1,G11,Woodhaven Blvd,-73.869229,40.733106,634.772513628006
12:16:00,1,G12,Grand Av-Newtown,-73.877223,40.737015,514.772513628006
12:16:00,1,G13,Elmhurst Av,-73.882017,40.742454,424.772513628006
12:11:00,1,G14,Jackson Hts-Roosevelt Av,-73.891338,40.746644,304.772513628006
12:06:00,1,G15,65 St,-73.898453,40.749669,382.772513628006
12:06:00,1,G16,Northern Blvd,-73.906006,40.752885,487.7725136280059
12:06:00,1,G18,46 St,-73.913333,40.756312,579.1024105352225
12:06:00,1,G19,Steinway St,-73.92074,40.756879,696.0096270300678
12:41:00,1,G20,36 St,-73.928781,40.752039,816.0096270300678
12:11:00,1,G21,Queens Plaza,-73.937243,40.748973,664.772513628006
12:26:00,1,G22,Court Sq,-73.943832,40.746554,794.0
12:06:00,1,G24,21 St,-73.949724,40.744065,889.5
12:06:00,1,G26,Greenpoint Av,-73.954449,40.731352,1019.5
12:06:00,1,G28,Nassau Av,-73.951277,40.724635,1134.5
12:06:00,1,G29,Metropolitan Av,-73.951418,40.712792,1269.5
12:06:00,1,G30,Broadway,-73.950308,40.706092,1351.5000000000002
12:06:00,1,G31,Flushing Av,-73.950234,40.700377,1449.0000000000002
12:06:00,1,G32,Myrtle-Willoughby Avs,-73.949046,40.694568,1524.0000000000002
12:06:00,1,G33,Bedford-Nostrand Avs,-73.953522,40.689627,1637.0
12:06:00,1,G34,Classon Av,-73.96007,40.688873,1712.0
12:06:00,1,G35,Clinton-Washington Avs,-73.966839,40.688089,1785.0
12:06:00,1,G36,Fulton St,-73.975375,40.687119,1880.0
12:16:00,1,H01,Aqueduct Racetrack,-73.834058,40.668234,3436.7913596630096
13:11:00,1,H02,Aqueduct-N Conduit Av,-73.834058,40.668234,3502.212102413178
13:11:00,1,H03,Howard Beach-JFK Airport,-73.830301,40.660476,3611.7913596630096
13:11:00,1,H04,Broad Channel,-73.815925,40.608382,4041.7913596630096
13:11:00,1,H06,Beach 67 St,-73.796924,40.590927,4341.79135966301
13:11:00,1,H07,Beach 60 St,-73.788522,40.592374,4451.79135966301
13:11:00,1,H08,Beach 44 St,-73.776013,40.592943,4566.79135966301
13:11:00,1,H09,Beach 36 St,-73.768175,40.595398,4673.212102413178
13:11:00,1,H10,Beach 25 St,-73.761353,40.600066,4763.212102413178
13:11:00,1,H11,Far Rockaway-Mott Av,-73.755405,40.603995,4828.212102413178
13:41:00,1,H12,Beach 90 St,-73.813641,40.588034,4293.79135966301
13:41:00,1,H13,Beach 98 St,-73.820558,40.585307,4385.29135966301
13:41:00,1,H14,Beach 105 St,-73.827559,40.583209,4459.29135966301
13:41:00,1,H15,Rockaway Park-Beach 116 St,-73.835592,40.580903,4570.29135966301
12:11:00,1,J12,121 St,-73.828294,40.700492,1551.272513628006
12:11:00,1,J13,111 St,-73.836345,40.697418,1552.7725136280062
12:11:00,1,J14,104 St,-73.84433,40.695178,1672.7725136280062
12:11:00,1,J15,Woodhaven Blvd,-73.851576,40.693879,1762.7725136280062
12:11:00,1,J16,85 St-Forest Pkwy,-73.86001,40.692435,2050.9543323516846
12:11:00,1,J17,75 St-Elderts Ln,-73.867139,40.691324,2125.772513628006
12:11:00,1,J19,Cypress Hills,-73.87255,40.689941,2230.9543323516846
12:11:00,1,J20,Crescent St,-73.873785,40.683194,2275.772513628006
12:11:00,1,J21,Norwood Av,-73.880039,40.68141,2355.9543323516846
12:11:00,1,J22,Cleveland St,-73.884639,40.679947,2406.9543323516846
12:11:00,1,J23,Van Siclen Av,-73.891688,40.678024,2484.9543323516846
12:11:00,1,J24,Alabama Av,-73.898654,40.676992,2575.772513628006
12:11:00,1,J27,Broadway Junction,-73.904512,40.679498,2529.472972393036
12:11:00,1,J28,Chauncey St,-73.910456,40.682893,2602.7913596630096
12:11:00,1,J29,Halsey St,-73.916559,40.68637,2722.7913596630096
12:11:00,1,J30,Gates Av,-73.92227,40.68963,2752.7913596630096
12:41:00,1,J31,Kosciuszko St,-73.928814,40.693342,2722.3759782314305
12:06:00,2,L01,8 Av,-74.002578,40.739777,1702.5
12:11:00,2,L02,6 Av,-73.996786,40.737335,1777.5
12:06:00,2,L03,14 St-Union Sq,-73.99073,40.734789,1721.4610397815704
12:01:00,2,L05,3 Av,-73.986122,40.732849,1786.1304347515106
12:01:00,2,L06,1 Av,-73.981628,40.730953,1811.472972393036
12:06:00,2,L08,Bedford Av,-73.956872,40.717304,1609.472972393036
12:06:00,2,L10,Lorimer St,-73.950275,40.714063,1537.472972393036
12:06:00,2,L11,Graham Av,-73.944053,40.714565,1573.4729723930361
12:06:00,2,L12,Grand St,-73.94067,40.711926,1658.4729723930361
12:06:00,2,L13,Montrose Av,-73.93985,40.707739,1702.472972393036
12:06:00,2,L14,Morgan Av,-73.933147,40.706152,1764.4729723930361
12:06:00,2,L15,Jefferson St,-73.922913,40.706607,1850.4729723930361
12:06:00,2,L16,DeKalb Av,-73.918425,40.703811,1920.4729723930361
12:06:00,2,L17,Myrtle-Wyckoff Avs,-73.911586,40.699814,1996.4729723930361
12:06:00,2,L19,Halsey St,-73.904084,40.695602,2033.4729723930361
12:06:00,2,L20,Wilson Av,-73.904046,40.688764,2158.4729723930363
12:06:00,2,L21,Bushwick Av-Aberdeen St,-73.905249,40.682829,2251.472972393036
12:06:00,2,L22,Broadway Junction,-73.90324,40.678856,2304.472972393036
12:06:00,2,L24,Atlantic Av,-73.903097,40.675345,2392.4729723930363
12:06:00,2,L25,Sutter Av,-73.901975,40.669367,2464.4729723930363
12:06:00,2,L26,Livonia Av,-73.900571,40.664038,2527.4729723930363
12:06:00,2,L27,New Lots Av,-73.899232,40.658733,2574.472972393036
12:06:00,2,L28,East 105 St,-73.899485,40.650573,2679.472972393036
13:56:00,2,L29,Canarsie-Rockaway Pkwy,-73.90185,40.646654,2754.472972393036
13:16:00,3,M01,Middle Village-Metropolitan Av,-73.889601,40.711396,2586.4633567333226
12:56:00,3,M04,Fresh Pond Rd,-73.895877,40.706186,2510.472972393036
13:16:00,3,M05,Forest Av,-73.903077,40.704423,2407.4633567333226
12:56:00,3,M06,Seneca Av,-73.90774,40.702762,2305.463356733322
13:01:00,1,M08,Myrtle-Wyckoff Avs,-73.912385,40.69943,2221.472972393036
12:36:00,3,M09,Knickerbocker Av,-73.919711,40.698664,2331.4729723930363
13:01:00,1,M10,Central Av,-73.927397,40.697857,2436.4633567333226
12:31:00,1,M11,Myrtle Av,-73.935657,40.697207,2556.4633567333226
12:31:00,1,M12,Flushing Av,-73.941126,40.70026,2681.4633567333226
12:31:00,1,M13,Lorimer St,-73.947408,40.703869,2654.692308187485
12:31:00,1,M14,Hewes St,-73.953431,40.70687,2559.692308187485
12:31:00,1,M16,Marcy Av,-73.957757,40.708359,2491.692308187485
12:31:00,1,M18,Delancey St-Essex St,-73.987437,40.718315,2131.692308187485
13:21:00,2,M19,Bowery,-73.993915,40.72028,2148.5
12:06:00,2,M20,Canal St,-73.999892,40.718092,2028.4999999999998
12:56:00,2,M21,Chambers St,-74.003401,40.713243,1928.5
12:06:00,2,M22,Fulton St,-74.007582,40.710374,2003.5
12:06:00,2,M23,Broad St,-74.011056,40.706476,2068.5
12:01:00,1,N02,8 Av,-74.011719,40.635064,3361.0000000000005
12:01:00,1,N03,Fort Hamilton Pkwy,-74.005351,40.631386,3491.725277662277
12:01:00,1,N04,New Utrecht Av,-73.996353,40.624842,3611.725277662277
12:01:00,1,N05,18 Av,-73.990414,40.620671,3713.725277662277
12:01:00,1,N06,20 Av,-73.985026,40.61741,3793.7252776622777
12:01:00,1,N07,Bay Pkwy,-73.981848,40.611815,3893.725277662277
12:01:00,1,N08,Kings Hwy,-73.980353,40.603923,4008.7252776622777
12:01:00,1,N09,Avenue U,-73.979137,40.597473,4113.725277662277
12:01:00,1,N10,86 St,-73.97823,40.592721,4196.000000000001
13:21:00,1,Q01,Canal St,-74.00046,40.718383,1927.5
12:36:00,1,Q03,72 St,-73.958424,40.768799,1279.941174507141
12:36:00,1,Q04,86 St,-73.951787,40.777891,1402.9411745071413
12:36:00,1,Q05,96 St,-73.947152,40.784318,1503.4411745071413
12:01:00,1,R01,Astoria-Ditmars Blvd,-73.912034,40.775036,1374.941174507141
12:01:00,1,R03,Astoria Blvd,-73.917843,40.770258,1266.941174507141
12:01:00,1,R04,30 Av,-73.921479,40.766779,1161.941174507141
12:01:00,1,R05,Broadway,-73.925508,40.76182,1081.941174507141
12:01:00,1,R06,36 Av,-73.929575,40.756804,976.9411745071411
12:01:00,1,R08,39 Av-Dutch Kills,-73.932755,40.752882,861.9411745071411
12:01:00,1,R09,Queensboro Plaza,-73.940202,40.750582,726.9411745071411
12:26:00,1,R11,Lexington Av/59 St,-73.967258,40.76266,976.9411745071411
12:26:00,1,R13,5 Av/59 St,-73.973347,40.764811,1083.0000016689303
13:06:00,1,R14,57 St-7 Av,-73.980658,40.764664,1206.0000016689303
12:26:00,1,R15,49 St,-73.984139,40.759901,1326.0000016689303
13:21:00,1,R16,Times Sq-42 St,-73.986754,40.754672,1404.5
13:21:00,1,R17,34 St-Herald Sq,-73.98795,40.749567,1512.5000000000002
12:26:00,1,R18,28 St,-73.988691,40.745494,1589.5000000000002
12:26:00,1,R19,23 St,-73.989344,40.741303,1662.5000000000002
13:21:00,1,R20,14 St-Union Sq,-73.990568,40.735736,1682.5
12:26:00,1,R21,8 St-NYU,-73.992629,40.730328,1847.5
12:26:00,1,R22,Prince St,-73.997702,40.724329,1922.4999999999998
12:26:00,1,R23,Canal St,-74.001775,40.719527,2037.4999999999998
12:26:00,1,R24,City Hall,-74.006978,40.713282,2180.4999999999995
12:26:00,1,R25,Cortlandt St,-74.011029,40.710668,2136.5
12:26:00,1,R26,Rector St,-74.013342,40.70722,2254.5
12:26:00,1,R27,Whitehall St-South Ferry,-74.012994,40.703087,2334.5000000000005
12:56:00,1,R28,Court St,-73.991777,40.6941,2521.003312110901
12:56:00,1,R29,Jay St-MetroTech,-73.985942,40.69218,2472.3913037776947
13:21:00,1,R30,DeKalb Av,-73.981824,40.690635,2375.164531469345
12:06:00,1,R31,Atlantic Av-Barclays Ctr,-73.97881,40.683666,2510.164531469345
12:06:00,1,R32,Union St,-73.98311,40.677316,2645.164531469345
12:06:00,1,R33,4 Av-9 St,-73.988302,40.670847,2656.0
12:06:00,1,R34,Prospect Av,-73.992872,40.665414,2748.1785719394684
12:06:00,1,R35,25 St,-73.998091,40.660397,2818.1785719394684
12:06:00,1,R36,36 St,-74.003549,40.655144,2870.164531469345
12:06:00,1,R39,45 St,-74.010006,40.648939,3086.0
12:06:00,1,R40,53 St,-74.014034,40.645069,3189.5000000000005
12:01:00,1,R41,59 St,-74.017881,40.641362,3191.0
12:06:00,1,R42,Bay Ridge Av,-74.023377,40.634967,3353.5405402183537
12:06:00,1,R43,77 St,-74.02551,40.629742,3425.5405402183537
12:06:00,1,R44,86 St,-74.028398,40.622687,3590.5405402183537
12:06:00,1,R45,Bay Ridge-95 St,-74.030876,40.616622,3656.5405402183537
12:11:00,1,S01,Franklin Av,-73.955827,40.680596,2601.5957462787624
12:11:00,1,S03,Park Pl,-73.957624,40.674772,2721.5957462787624
12:11:00,1,S04,Botanic Garden,-73.959245,40.670343,2851.5957462787624
