start_time,ntransfers,stop_id,stop_name,stop_lon,stop_lat,duration
12:05:30,2,101,Van Cortlandt Park-242 St,-73.898583,40.889248,2017.5135211944582
12:05:30,2,103,238 St,-73.90087,40.884667,1942.5135211944582
12:05:30,2,104,231 St,-73.904834,40.878856,1869.5135211944582
12:05:30,2,106,Marble Hill-225 St,-73.909831,40.874561,1782.5135211944582
12:05:30,2,107,215 St,-73.915279,40.869444,1690.513521194458
12:05:30,2,108,207 St,-73.918822,40.864621,1602.5135211944582
12:05:30,2,109,Dyckman St,-73.925536,40.860531,1502.513521194458
12:05:30,2,110,191 St,-73.929412,40.855225,1417.513521194458
12:05:30,2,111,181 St,-73.933596,40.849505,1324.513521194458
12:05:30,2,112,168 St-Washington Hts,-73.940133,40.840556,1207.513521194458
12:25:30,1,113,157 St,-73.94489,40.834041,1306.513521194458
12:25:30,1,114,145 St,-73.95036,40.826551,1420.5135211944578
12:25:30,1,115,137 St-City College,-73.953676,40.822008,1514.5135211944578
12:25:30,1,116,125 St,-73.958372,40.815581,1615.5135211944578
12:25:30,1,117,116 St-Columbia University,-73.96411,40.807722,1721.5135211944578
12:25:30,1,118,Cathedral Pkwy (110 St),-73.966847,40.803967,1798.513521194458
12:25:30,1,119,103 St,-73.968379,40.799446,1877.513521194458
12:55:30,1,120,96 St,-73.972323,40.793919,1616.6303153038027
12:25:30,1,121,86 St,-73.976218,40.788644,1739.1303153038025
12:25:30,1,122,79 St,-73.979917,40.783934,1684.5
12:25:30,1,123,72 St,-73.98197,40.778453,1590.5
12:25:30,1,124,66 St-Lincoln Center,-73.982209,40.77344,1502.5
12:25:30,1,125,59 St-Columbus Circle,-73.981929,40.768247,1420.5
12:15:30,1,126,50 St,-73.983849,40.761728,1522.5
12:15:30,1,127,Times Sq-42 St,-73.987495,40.75529,1531.1632661819456
12:15:30,1,128,34 St-Penn Station,-73.991057,40.750373,1630.1632661819456
12:15:30,1,129,28 St,-73.993365,40.747215,1707.1632661819453
12:15:30,1,130,23 St,-73.995657,40.744081,1776.1632661819453
12:15:30,1,131,18 St,-73.997871,40.74104,1844.1632661819453
13:45:30,1,132,14 St,-74.000201,40.737826,1785.1632661819456
12:15:30,1,133,Christopher St-Sheridan Sq,-74.002906,40.733422,2004.1632661819451
12:15:30,1,134,Houston St,-74.005367,40.728251,2085.1632661819453
12:15:30,1,135,Canal St,-74.006277,40.722854,2170.163266181945
12:15:30,1,136,Franklin St,-74.006886,40.719318,2236.1632661819453
13:45:30,1,137,Chambers St,-74.009266,40.715478,2013.1632661819456
12:05:30,1,138,WTC Cortlandt,-74.012188,40.711835,2302.417364835739
12:05:30,1,139,Rector St,-74.013783,40.707513,2377.417364835739
12:05:30,1,142,South Ferry,-74.013664,40.702068,2469.417364835739
12:05:30,2,201,Wakefield-241 St,-73.85062,40.903125,2860.130315303802
12:05:30,2,204,Nereid Av,-73.854376,40.898379,2649.130315303802
12:05:30,2,205,233 St,-73.857473,40.893193,2517.130315303802
12:05:30,2,206,225 St,-73.860341,40.888022,2421.130315303802
12:05:30,2,207,219 St,-73.862633,40.883895,2339.130315303802
12:05:30,2,208,Gun Hill Rd,-73.866256,40.87785,2230.630315303802
12:05:30,2,209,Burke Av,-73.867164,40.871356,2308.130315303802
12:05:30,2,210,Allerton Av,-73.867352,40.865462,2223.130315303803
12:05:30,2,211,Pelham Pkwy,-73.867615,40.857192,2111.130315303803
12:05:30,2,212,Bronx Park East,-73.868457,40.848828,2006.130315303803
12:05:30,2,213,E 180 St,-73.873488,40.841894,1758.5579462051392
12:05:30,2,214,West Farms Sq-E Tremont Av,-73.880049,40.840295,1712.130315303803
12:05:30,2,215,174 St,-73.887734,40.837288,1595.130315303803
12:05:30,2,216,Freeman St,-73.891865,40.829993,1483.130315303803
12:05:30,2,217,Simpson St,-73.893064,40.824073,1375.1303153038027
12:05:30,2,218,Intervale Av,-73.896736,40.822181,1304.1303153038027
12:05:30,2,219,Prospect Av,-73.90177,40.819585,1225.1303153038027
12:05:30,2,220,Jackson Av,-73.907807,40.81649,1133.1303153038027
12:05:30,2,221,3 Av-149 St,-73.917757,40.816109,1011.1303153038026
12:05:30,2,222,149 St-Grand Concourse,-73.926718,40.81841,898.1303153038025
12:05:30,2,224,135 St,-73.94077,40.814229,1091.1303153038025
12:05:30,2,225,125 St,-73.945495,40.807754,1196.1303153038025
12:05:30,2,226,116 St,-73.949625,40.802098,1296.1303153038027
12:05:30,2,227,Central Park North (110 St),-73.951822,40.799075,1369.6303153038027
13:45:30,1,228,Park Place,-74.008811,40.713051,2099.1632661819453
13:45:30,1,229,Fulton St,-74.006571,40.709416,2208.1632661819453
13:45:30,1,230,Wall St,-74.0091,40.706821,2282.163266181946
13:45:30,1,231,Clark St,-73.993086,40.697466,2465.1632661819453
13:45:30,1,232,Borough Hall,-73.989998,40.693219,2579.1632661819453
13:45:30,1,233,Hoyt St,-73.985065,40.690545,2666.1632661819453
12:05:30,1,234,Nevins St,-73.980492,40.688246,2714.8079476356506
12:05:30,1,235,Atlantic Av-Barclays Ctr,-73.977666,40.684359,2808.8079476356506
12:25:30,1,236,Bergen St,-73.975098,40.680829,2910.7957520484924
12:25:30,1,237,Grand Army Plaza,-73.971046,40.675235,3009.7957520484924
12:25:30,1,238,Eastern Pkwy-Brooklyn Museum,-73.964375,40.671987,3105.7957520484924
12:15:30,1,239,Franklin Av-Medgar Evers College,-73.958131,40.670682,3109.684995174408
12:35:30,1,241,President St-Medgar Evers College,-73.950683,40.667883,3290.396184682846
12:35:30,1,242,Sterling St,-73.95085,40.662742,3378.396184682846
12:35:30,1,243,Winthrop St,-73.9502,40.656652,3465.3961846828465
12:35:30,1,244,Church Av,-73.949575,40.650843,3547.3961846828465
12:35:30,1,245,Beverly Rd,-73.948959,40.645098,3631.3961846828465
12:35:30,1,246,Newkirk Av-Little Haiti,-73.948411,40.639967,3717.396184682846
12:35:30,1,247,Flatbush Av-Brooklyn College,-73.947642,40.632836,3837.396184682846
12:35:30,1,248,Nostrand Av,-73.950466,40.669847,3217.8079476356506
12:35:30,1,249,Kingston Av,-73.942161,40.669399,3307.8079476356506
12:15:30,1,250,Crown Hts-Utica Av,-73.932942,40.668897,3305.8079476356506
12:35:30,1,251,Sutter Av-Rutland Rd,-73.92261,40.664717,3443.8079476356506
12:35:30,1,252,Saratoga Av,-73.916327,40.661453,3546.8079476356506
12:35:30,1,253,Rockaway Av,-73.908946,40.662549,3631.8079476356506
12:35:30,1,254,Junius St,-73.902447,40.663515,3579.126679420472
12:35:30,1,255,Pennsylvania Av,-73.894895,40.664635,3677.126679420472
12:35:30,1,256,Van Siclen Av,-73.889395,40.665449,3753.1266794204716
12:35:30,1,257,New Lots Av,-73.884079,40.666235,3828.4132649898534
12:05:30,2,301,Harlem-148 St,-73.93647,40.82388,1504.1303153038025
12:05:30,2,302,145 St,-73.936245,40.820421,1403.1303153038025
12:25:30,1,401,Woodlawn,-73.878751,40.886037,1527.5394706726074
12:25:30,1,402,Mosholu Pkwy,-73.884655,40.87975,1414.5394706726074
12:25:30,1,405,Bedford Park Blvd-Lehman College,-73.890064,40.873412,1302.5394706726074
12:25:30,1,406,Kingsbridge Rd,-73.897174,40.86776,1196.5394706726074
12:25:30,1,407,Fordham Rd,-73.901034,40.862803,1108.5394706726076
12:25:30,1,408,183 St,-73.903879,40.858407,1027.5394706726074
12:25:30,1,409,Burnside Av,-73.907684,40.853453,928.5394706726074
12:25:30,1,410,176 St,-73.911794,40.84848,840.5394706726074
12:25:30,1,411,Mt Eden Av,-73.914685,40.844434,761.5394706726074
12:25:30,1,412,170 St,-73.917791,40.840075,679.5394706726074
12:25:30,1,413,167 St,-73.9214,40.835537,590.5394706726074
12:25:30,1,414,161 St-Yankee Stadium,-73.925831,40.827994,478.5394706726074
12:05:30,1,415,149 St-Grand Concourse,-73.927351,40.818375,629.8079476356506
12:05:30,1,416,138 St-Grand Concourse,-73.929849,40.813224,731.8079476356506
12:05:30,1,418,Fulton St,-74.009509,40.710368,2177.8079476356506
12:05:30,1,419,Wall St,-74.011862,40.707557,2254.8079476356506
12:05:30,1,420,Bowling Green,-74.014065,40.704817,2329.8079476356506
12:05:30,1,423,Borough Hall,-73.990151,40.692404,2579.8079476356506
12:45:30,1,501,Eastchester-Dyre Av,-73.830834,40.8883,2508.557946205139
12:45:30,1,502,Baychester Av,-73.838591,40.878663,2358.557946205139
12:45:30,1,503,Gun Hill Rd,-73.846384,40.869526,2208.557946205139
12:45:30,1,504,Pelham Pkwy,-73.855359,40.858985,2058.557946205139
12:45:30,1,505,Morris Park,-73.860495,40.854364,1968.5579462051392
13:55:30,1,601,Pelham Bay Park,-73.828121,40.852462,2578.4508061409
13:55:30,1,602,Buhre Av,-73.832569,40.84681,2442.9508061409
13:55:30,1,603,Middletown Rd,-73.836322,40.843863,2370.9508061409
13:55:30,1,604,Westchester Sq-E Tremont Av,-73.842952,40.839892,2267.9508061408997
13:55:30,1,606,Zerega Av,-73.847036,40.836488,2187.4508061408997
13:55:30,1,607,Castle Hill Av,-73.851222,40.834255,2119.4508061408997
12:45:30,1,608,Parkchester,-73.860816,40.833226,1962.4508061408997
12:45:30,1,609,St Lawrence Av,-73.867618,40.831509,2158.7951183319096
12:45:30,1,610,Morrison Av-Soundview,-73.874516,40.829521,2074.7951183319096
12:45:30,1,611,Elder Av,-73.879159,40.828584,2006.7951183319096
12:45:30,1,612,Whitlock Av,-73.886283,40.826525,1908.7951183319094
12:05:30,1,613,Hunts Point Av,-73.890549,40.820948,1690.9508061408999
12:05:30,1,614,Longwood Av,-73.896435,40.816104,1796.2963213920596
12:05:30,1,615,E 149 St,-73.904098,40.812118,1696.2963213920593
12:05:30,1,616,E 143 St-St Mary's St,-73.907657,40.808719,1621.2963213920593
12:05:30,1,617,Cypress Av,-73.914042,40.805368,1504.2963213920593
12:05:30,1,618,Brook Av,-73.91924,40.807566,1430.2963213920593
12:05:30,1,619,3 Av-138 St,-73.926138,40.810476,1326.2963213920593
12:05:30,1,621,125 St,-73.937594,40.804138,908.8079476356507
12:05:30,1,622,116 St,-73.941617,40.798629,1234.2963213920593
12:05:30,1,623,110 St,-73.94425,40.79502,1312.2963213920596
12:05:30,1,624,103 St,-73.947478,40.7906,1390.2963213920596
12:05:30,1,625,96 St,-73.95107,40.785672,1478.2963213920593
12:05:30,1,626,86 St,-73.955589,40.779492,1202.8079476356509
12:05:30,1,627,77 St,-73.959874,40.77362,1542.9929201602938
12:05:30,1,628,68 St-Hunter College,-73.96387,40.768141,1634.992920160294
12:05:30,1,629,59 St,-73.967967,40.762526,1397.8079476356509
12:05:30,1,630,51 St,-73.97192,40.757107,1719.8079476356509
12:05:30,1,631,Grand Central-42 St,-73.976848,40.751776,1563.8079476356509
12:05:30,1,632,33 St,-73.982076,40.746081,1795.1632661819456
12:05:30,1,633,28 St,-73.984264,40.74307,1863.1632661819456
12:05:30,1,634,23 St,-73.986599,40.739864,1933.1632661819453
12:05:30,1,635,14 St-Union Sq,-73.989951,40.734673,1805.8079476356506
12:05:30,1,636,Astor Pl,-73.99107,40.730054,2109.265090942383
12:05:30,1,637,Bleecker St,-73.994659,40.725915,2147.228572368622
12:05:30,1,638,Spring St,-73.997141,40.722301,2214.228572368622
12:05:30,1,639,Canal St,-74.000193,40.718803,2294.163266181946
12:05:30,1,640,Brooklyn Bridge-City Hall,-74.004131,40.713065,2065.8079476356506
12:05:30,1,701,Flushing-Main St,-73.83003,40.7596,3047.8641295433044
12:05:30,1,702,Mets-Willets Point,-73.845625,40.754622,2903.8641295433044
12:05:30,1,705,111 St,-73.855334,40.75173,2891.864127874374
12:05:30,1,706,103 St-Corona Plaza,-73.8627,40.749865,2821.8641278743744
12:05:30,1,707,Junction Blvd,-73.869527,40.749145,2693.8641295433044
12:05:30,1,708,90 St-Elmhurst Av,-73.876613,40.748408,2693.8641278743744
12:05:30,1,709,82 St-Jackson Hts,-73.883697,40.747659,2620.864127874374
12:05:30,1,710,74 St-Broadway,-73.891394,40.746848,2465.255702972412
12:05:30,1,711,69 St,-73.896403,40.746325,2425.2557029724126
12:25:30,1,712,61 St-Woodside,-73.902984,40.74563,2353.255702972412
12:25:30,1,713,52 St,-73.912549,40.744149,2223.864127874374
12:25:30,1,714,46 St-Bliss St,-73.918435,40.743132,2167.8641278743744
12:25:30,1,715,40 St-Lowery St,-73.924016,40.743781,2113.8641278743744
12:25:30,1,716,33 St-Rawson St,-73.930997,40.744587,2044.8641278743744
12:25:30,1,718,Queensboro Plaza,-73.940202,40.750582,1910.8641278743746
12:05:30,1,719,Court Sq,-73.945264,40.747023,2007.8641278743744
12:25:30,1,720,Hunters Point Av,-73.948916,40.742216,1918.6632661819458
12:05:30,1,721,Vernon Blvd-Jackson Av,-73.953581,40.742626,1871.1632661819458
12:05:30,1,723,Grand Central-42 St,-73.976041,40.751431,1660.1632661819458
12:05:30,1,724,5 Av,-73.981963,40.753821,1594.1632661819456
12:05:30,1,725,Times Sq-42 St,-73.987691,40.755477,1531.1632661819456
12:05:30,1,726,34 St-Hudson Yards,-74.00191,40.755882,1661.1632661819458
12:05:30,1,901,Grand Central-42 St,-73.979189,40.752769,1561.1632661819456
12:05:30,1,902,Times Sq-42 St,-73.986229,40.755983,1471.1632661819456
13:05:30,0,A02,Inwood-207 St,-73.919899,40.868072,1531.0243899822235
13:05:30,0,A03,Dyckman St,-73.927271,40.865491,1436.0243899822235
13:05:30,0,A05,190 St,-73.93418,40.859022,1316.0243899822235
13:05:30,0,A06,181 St,-73.937969,40.851695,1199.0243899822235
13:05:30,0,A07,175 St,-73.939704,40.847391,1102.0243899822235
12:05:30,1,A09,168 St,-73.939561,40.840719,982.0243899822235
12:05:30,1,A10,163 St-Amsterdam Av,-73.939892,40.836013,916.1578962802887
12:05:30,1,A11,155 St,-73.941514,40.830518,841.1578962802887
12:05:30,1,A12,145 St,-73.944216,40.824783,654.0
12:05:30,0,A14,135 St,-73.947649,40.817894,584.0
12:05:30,0,A15,125 St,-73.952343,40.811109,714.0
12:05:30,0,A16,116 St,-73.954882,40.805085,832.0
12:05:30,0,A17,Cathedral Pkwy (110 St),-73.958161,40.800603,912.0000000000001
12:05:30,0,A18,103 St,-73.961454,40.796092,977.0000000000001
12:05:30,0,A19,96 St,-73.964696,40.791642,1064.0
12:05:30,0,A20,86 St,-73.968916,40.785868,1164.0000000000002
12:05:30,0,A21,81 St-Museum of Natural History,-73.972143,40.781433,1239.0000000000002
12:05:30,0,A22,72 St,-73.97641,40.775594,1344.0000000000002
12:05:30,0,A24,59 St-Columbus Circle,-73.981736,40.768296,1195.5
12:05:30,0,A25,50 St,-73.985984,40.762456,1521.5
12:05:30,0,A27,42 St-Port Authority Bus Terminal,-73.989735,40.757308,1411.1632661819456
12:05:30,0,A28,34 St-Penn Station,-73.993391,40.752287,1516.1632661819456
12:05:30,0,A30,23 St,-73.998041,40.745906,1731.1632661819458
12:05:30,0,A31,14 St,-74.00169,40.740893,1649.1632661819458
12:05:30,0,A32,W 4 St-Wash Sq,-74.000495,40.732338,1769.1632661819458
12:05:30,0,A33,Spring St,-74.003739,40.726227,1999.1632661819458
12:05:30,0,A34,Canal St,-74.005229,40.720824,1944.1632661819456
12:05:30,0,A36,Chambers St,-74.008585,40.714111,2064.163266181946
12:05:30,0,A38,Fulton St,-74.007691,40.710197,2170.1632661819453
12:05:30,0,A40,High St,-73.990531,40.699337,2350.1632661819453
13:55:30,0,A41,Jay St-MetroTech,-73.987342,40.692338,2475.163266181946
12:05:30,0,A42,Hoyt-Schermerhorn Sts,-73.985001,40.688484,2590.1632661819453
12:05:30,0,A43,Lafayette Av,-73.973946,40.686113,2769.952741146087
12:05:30,0,A44,Clinton-Washington Avs,-73.965838,40.683263,2844.952741146087
12:05:30,0,A45,Franklin Av,-73.956848,40.68138,2959.952741146087
12:05:30,0,A46,Nostrand Av,-73.950426,40.680438,2835.163266181946
12:05:30,0,A47,Kingston-Throop Avs,-73.940858,40.679921,2945.163266181946
12:05:30,0,A48,Utica Av,-73.930729,40.679364,3012.163266181946
12:05:30,0,A49,Ralph Av,-73.920786,40.678822,3127.163266181946
12:05:30,0,A50,Rockaway Av,-73.911946,40.67834,3232.163266181946
12:55:30,0,A51,Broadway Junction,-73.905316,40.678334,3242.163266181946
12:05:30,0,A52,Liberty Av,-73.896548,40.674542,3362.163266181946
12:05:30,0,A53,Van Siclen Av,-73.890358,40.67271,3439.163266181946
12:05:30,0,A54,Shepherd Av,-73.88075,40.67413,3549.163266181946
12:55:30,0,A55,Euclid Av,-73.872106,40.675377,3547.8021545410165
12:55:30,0,A57,Grant Av,-73.86505,40.677044,3664.1632661819463
12:55:30,0,A59,80 St,-73.858992,40.679371,3767.802154541016
12:55:30,0,A60,88 St,-73.85147,40.679843,3858.1632661819463
12:55:30,0,A61,Rockaway Blvd,-73.843853,40.680429,3957.802154541017
12:05:30,0,A63,104 St,-73.837683,40.681711,4037.8021545410165
12:25:30,0,A64,111 St,-73.832163,40.684331,4112.8021545410165
12:25:30,0,A65,Ozone Park-Lefferts Blvd,-73.825798,40.685951,4217.8021545410165
12:25:30,0,B04,21 St-Queensbridge,-73.942836,40.754203,1962.314528465271
12:25:30,0,B06,Roosevelt Island,-73.95326,40.759145,1849.900537490845
12:25:30,0,B08,Lexington Av/63 St,-73.966113,40.764629,1757.8079476356509
12:25:30,0,B10,57 St,-73.97745,40.763972,1874.0
12:05:30,0,B12,9 Av,-73.994324,40.646292,3313.4999999999995
12:05:30,0,B13,Fort Hamilton Pkwy,-73.994304,40.640914,3438.0000000000005
12:05:30,0,B14,50 St,-73.994791,40.63626,3508.0
12:05:30,0,B15,55 St,-73.995476,40.631435,3618.0000000000005
12:05:30,0,B16,62 St,-73.996895,40.626472,3678.0000000000005
12:05:30,0,B17,71 St,-73.998864,40.619589,3788.0000000000005
12:05:30,0,B18,79 St,-74.00061,40.613501,3898.0
12:05:30,0,B19,18 Av,-74.001736,40.607954,3973.0
12:05:30,0,B20,20 Av,-73.998168,40.604556,4048.0
12:05:30,0,B21,Bay Pkwy,-73.993728,40.601875,4113.0
13:25:30,0,B22,25 Av,-73.986829,40.597704,4233.0
13:25:30,0,B23,Bay 50 St,-73.983765,40.588841,4408.0
12:10:30,0,D01,Norwood-205 St,-73.878855,40.874811,716.9719605445862
12:10:30,0,D03,Bedford Park Blvd,-73.887138,40.873244,574.0000000000001
12:10:30,0,D04,Kingsbridge Rd,-73.893509,40.866978,470.0
12:10:30,0,D05,Fordham Rd,-73.897749,40.861296,358.0
12:10:30,0,D06,182-183 Sts,-73.900741,40.856093,275.0
12:10:30,0,D07,Tremont Av,-73.905227,40.85041,178.0
12:10:30,0,D08,174-175 Sts,-73.910136,40.8459,78.0
13:55:30,0,D09,170 St,-73.9134,40.839306,0.0
12:05:30,0,D10,167 St,-73.91844,40.833771,115.0
12:05:30,0,D11,161 St-Yankee Stadium,-73.925651,40.827905,234.00000000000003
12:05:30,0,D12,155 St,-73.938209,40.830135,354.0
12:05:30,0,D13,145 St,-73.944216,40.824783,498.00000000000006
12:05:30,0,D14,7 Av,-73.981637,40.762862,1329.0000000000002
12:05:30,0,D15,47-50 Sts-Rockefeller Ctr,-73.981329,40.758663,1439.0
12:05:30,0,D16,42 St-Bryant Pk,-73.984569,40.754222,1539.0000000000002
12:05:30,0,D17,34 St-Herald Sq,-73.987823,40.749719,1615.0
13:45:30,0,D18,23 St,-73.992821,40.742878,1953.0000000000002
13:45:30,0,D19,14 St,-73.996209,40.738228,2009.1632661819458
12:05:30,0,D20,W 4 St-Wash Sq,-74.000495,40.732338,1795.0
12:05:30,0,D21,Broadway-Lafayette St,-73.996204,40.725297,1935.0
12:05:30,0,D22,Grand St,-73.993753,40.718267,2065.0
12:05:30,1,D24,Atlantic Av-Barclays Ctr,-73.97689,40.68446,2758.163266181946
12:05:30,1,D25,7 Av,-73.972367,40.67705,2885.663266181946
12:05:30,1,D26,Prospect Park,-73.962246,40.661614,3065.663266181946
12:05:30,1,D27,Parkside Av,-73.961495,40.655292,3165.663266181946
12:05:30,1,D28,Church Av,-73.962982,40.650527,3282.663266181946
12:05:30,1,D29,Beverley Rd,-73.964492,40.644031,3342.663266181946
12:05:30,1,D30,Cortelyou Rd,-73.963891,40.640927,3412.663266181946
12:05:30,0,D31,Newkirk Plaza,-73.962793,40.635082,3499.35374379158
12:05:30,0,D32,Avenue H,-73.961639,40.62927,3592.663266181946
12:05:30,0,D33,Avenue J,-73.960803,40.625039,3697.663266181946
12:05:30,0,D34,Avenue M,-73.959399,40.617618,3812.6632661819453
12:05:30,0,D35,Kings Hwy,-73.957734,40.60867,3739.35374379158
13:35:30,0,D37,Avenue U,-73.955929,40.5993,3966.3640558719635
13:35:30,0,D38,Neck Rd,-73.955161,40.595246,4078.364055871963
12:05:30,0,D39,Sheepshead Bay,-73.954155,40.586896,3974.3537437915807
13:35:30,0,D40,Brighton Beach,-73.961376,40.577621,4106.35374379158
13:35:30,0,D41,Ocean Pkwy,-73.968501,40.576312,4249.353743791579
13:35:30,0,D42,W 8 St-NY Aquarium,-73.975939,40.576127,4364.353743791579
13:35:30,0,D43,Coney Island-Stillwell Av,-73.981233,40.577422,4436.35374379158
13:55:30,0,E01,World Trade Center,-74.009781,40.712582,2121.955172538757
12:25:30,0,F01,Jamaica-179 St,-73.783817,40.712646,3516.1647384166718
12:25:30,0,F02,169 St,-73.793604,40.71047,3451.1647384166713
12:25:30,0,F03,Parsons Blvd,-73.803326,40.707564,3323.1647384166713
12:25:30,0,F04,Sutphin Blvd,-73.810708,40.70546,3253.1647384166718
12:25:30,0,F05,Briarwood,-73.820574,40.709179,3089.1647384166718
12:25:30,0,F06,Kew Gardens-Union Tpke,-73.831008,40.714441,2966.1647384166718
12:25:30,0,F07,75 Av,-73.837324,40.718331,2893.164738416672
12:25:30,0,F09,Court Sq-23 St,-73.946,40.747846,1934.164738416672
12:25:30,0,F11,Lexington Av/53 St,-73.969055,40.757552,1749.6647384166718
12:25:30,0,F12,5 Av/53 St,-73.975224,40.760167,1675.439253807068
13:55:30,0,F14,2 Av,-73.989938,40.723402,2229.163266181946
13:55:30,0,F15,Delancey St-Essex St,-73.988114,40.718611,2334.163266181946
13:55:30,0,F16,East Broadway,-73.990173,40.713715,2408.1632661819463
13:55:30,0,F18,York St,-73.986751,40.701397,2573.1632661819463
13:55:30,0,F20,Bergen St,-73.990862,40.686145,2745.9241337776184
13:55:30,0,F21,Carroll St,-73.995048,40.680303,2869.9241337776184
13:55:30,0,F22,Smith-9 Sts,-73.995959,40.67358,3004.9241337776184
13:55:30,0,F23,4 Av-9 St,-73.989779,40.670272,3077.9241337776184
13:55:30,0,F24,7 Av,-73.980305,40.666271,3030.163266181946
13:55:30,0,F25,15 St-Prospect Park,-73.979493,40.660365,3193.32840514183
13:55:30,0,F26,Fort Hamilton Pkwy,-73.975776,40.650782,3358.32840514183
13:55:30,0,F27,Church Av,-73.979678,40.644041,3270.163266181946
13:55:30,0,F29,Ditmas Av,-73.978172,40.636119,3390.163266181946
13:55:30,0,F30,18 Av,-73.976971,40.629755,3510.163266181946
13:55:30,0,F31,Avenue I,-73.976127,40.625322,3570.163266181946
13:55:30,0,F32,Bay Pkwy,-73.975264,40.620769,3630.163266181946
13:55:30,0,F33,Avenue N,-73.974197,40.61514,3750.163266181946
13:55:30,0,F34,Avenue P,-73.973022,40.608944,3840.163266181946
13:55:30,0,F35,Kings Hwy,-73.972361,40.603217,4005.523515939713
13:55:30,0,F36,Avenue U,-73.973357,40.596063,4122.257608413696
13:55:30,0,F38,Avenue X,-73.97425,40.58962,4224.257608413696
12:15:30,0,F39,Neptune Av,-73.974574,40.581011,4344.257608413696
12:25:30,0,G05,Jamaica Center-Parsons/Archer,-73.801109,40.702147,3425.164738416672
12:25:30,0,G06,Sutphin Blvd-Archer Av-JFK Airport,-73.807969,40.700486,3316.1647384166718
12:25:30,0,G07,Jamaica-Van Wyck,-73.816859,40.702566,3196.1647384166718
12:25:30,0,G08,Forest Hills-71 Av,-73.844521,40.721691,2776.1647384166718
12:25:30,0,G09,67 Av,-73.852719,40.726523,2915.6040432453156
12:25:30,0,G10,63 Dr-Rego Park,-73.861604,40.729846,2881.4392538070674
12:25:30,0,G11,Woodhaven Blvd,-73.869229,40.733106,2773.4392538070674
12:25:30,0,G12,Grand Av-Newtown,-73.877223,40.737015,2658.439253807068
12:25:30,0,G13,Elmhurst Av,-73.882017,40.742454,2553.439253807068
12:25:30,0,G14,Jackson Hts-Roosevelt Av,-73.891338,40.746644,2414.1647384166718
12:25:30,0,G15,65 St,-73.898453,40.749669,2548.439253807068
12:25:30,0,G16,Northern Blvd,-73.906006,40.752885,2493.7170374393463
13:55:30,0,G18,46 St,-73.913333,40.756312,2392.7170374393463
13:55:30,0,G19,Steinway St,-73.92074,40.756879,2282.7170374393463
13:55:30,0,G20,36 St,-73.928781,40.752039,2162.7170374393463
12:25:30,0,G21,Queens Plaza,-73.937243,40.748973,2042.7170374393463
12:05:30,1,G22,Court Sq,-73.943832,40.746554,1994.164738416672
13:45:30,1,G24,21 St,-73.949724,40.744065,2089.664738416672
13:45:30,1,G26,Greenpoint Av,-73.954449,40.731352,2219.6647384166718
13:45:30,1,G28,Nassau Av,-73.951277,40.724635,2334.6647384166718
13:45:30,1,G29,Metropolitan Av,-73.951418,40.712792,2435.3775503635406
12:05:30,1,G30,Broadway,-73.950308,40.706092,2550.3775503635406
12:05:30,1,G31,Flushing Av,-73.950234,40.700377,2635.3775503635406
12:15:30,0,G32,Myrtle-Willoughby Avs,-73.949046,40.694568,2705.3775503635406
12:15:30,0,G33,Bedford-Nostrand Avs,-73.953522,40.689627,2820.37755036354
12:15:30,0,G34,Classon Av,-73.96007,40.688873,2887.37755036354
12:15:30,0,G35,Clinton-Washington Avs,-73.966839,40.688089,2957.37755036354
12:15:30,0,G36,Fulton St,-73.975375,40.687119,2932.55456995964
12:15:30,0,H01,Aqueduct Racetrack,-73.834058,40.668234,4142.8021545410165
12:55:30,0,H02,Aqueduct-N Conduit Av,-73.834058,40.668234,4153.163266181947
12:55:30,0,H03,Howard Beach-JFK Airport,-73.830301,40.660476,4283.163266181947
12:55:30,0,H04,Broad Channel,-73.815925,40.608382,4705.163266181947
12:55:30,0,H06,Beach 67 St,-73.796924,40.590927,4995.163266181947
12:55:30,0,H07,Beach 60 St,-73.788522,40.592374,5108.163266181947
12:55:30,0,H08,Beach 44 St,-73.776013,40.592943,5223.163266181948
12:55:30,0,H09,Beach 36 St,-73.768175,40.595398,5324.163266181948
12:55:30,0,H10,Beach 25 St,-73.761353,40.600066,5414.163266181948
12:55:30,0,H11,Far Rockaway-Mott Av,-73.755405,40.603995,5479.163266181948
12:15:30,0,H12,Beach 90 St,-73.813641,40.588034,4999.802154541017
12:15:30,0,H13,Beach 98 St,-73.820558,40.585307,5091.302154541017
12:15:30,0,H14,Beach 105 St,-73.827559,40.583209,5165.302154541017
12:15:30,0,H15,Rockaway Park-Beach 116 St,-73.835592,40.580903,5276.302154541017
12:05:30,0,J12,121 St,-73.828294,40.700492,3660.664738416672
12:05:30,0,J13,111 St,-73.836345,40.697418,3662.164738416672
12:05:30,0,J14,104 St,-73.84433,40.695178,3782.164738416672
12:05:30,0,J15,Woodhaven Blvd,-73.851576,40.693879,3872.1647384166727
12:05:30,0,J16,85 St-Forest Pkwy,-73.86001,40.692435,3964.8021545410165
12:05:30,0,J17,75 St-Elderts Ln,-73.867139,40.691324,3788.8021545410165
12:05:30,0,J19,Cypress Hills,-73.87255,40.689941,3784.802154541016
13:15:30,0,J20,Crescent St,-73.873785,40.683194,3638.8021545410165
13:15:30,0,J21,Norwood Av,-73.880039,40.68141,3548.8021545410165
13:15:30,0,J22,Cleveland St,-73.884639,40.679947,3520.802154541016
13:15:30,0,J23,Van Siclen Av,-73.891688,40.678024,3398.8021545410165
13:15:30,0,J24,Alabama Av,-73.898654,40.676992,3338.8021545410165
12:35:30,0,J27,Broadway Junction,-73.904512,40.679498,3248.8021545410165
12:35:30,0,J28,Chauncey St,-73.910456,40.682893,3308.8021545410165
12:35:30,0,J29,Halsey St,-73.916559,40.68637,3423.530614376068
12:35:30,0,J30,Gates Av,-73.92227,40.68963,3269.663264989853
12:35:30,0,J31,Kosciuszko St,-73.928814,40.693342,3243.530614376068
13:45:30,1,L01,8 Av,-74.002578,40.739777,1709.1632661819458
12:05:30,1,L02,6 Av,-73.996786,40.737335,1784.1632661819458
12:05:30,1,L03,14 St-Union Sq,-73.99073,40.734789,1857.1632661819456
12:05:30,1,L05,3 Av,-73.986122,40.732849,1899.1632661819456
12:05:30,1,L06,1 Av,-73.981628,40.730953,1948.1632661819458
12:05:30,1,L08,Bedford Av,-73.956872,40.717304,2150.163266181946
12:05:30,1,L10,Lorimer St,-73.950275,40.714063,2222.163266181946
12:05:30,1,L11,Graham Av,-73.944053,40.714565,2258.1632661819463
12:05:30,1,L12,Grand St,-73.94067,40.711926,2348.1632661819463
12:05:30,1,L13,Montrose Av,-73.93985,40.707739,2387.163266181946
12:05:30,1,L14,Morgan Av,-73.933147,40.706152,2467.1632661819463
12:05:30,1,L15,Jefferson St,-73.922913,40.706607,2576.1632661819463
12:05:30,1,L16,DeKalb Av,-73.918425,40.703811,2642.1632661819463
12:05:30,1,L17,Myrtle-Wyckoff Avs,-73.911586,40.699814,2700.1632661819467
12:05:30,1,L19,Halsey St,-73.904084,40.695602,2762.1632661819463
12:05:30,1,L20,Wilson Av,-73.904046,40.688764,2896.1632661819467
12:05:30,1,L21,Bushwick Av-Aberdeen St,-73.905249,40.682829,2965.1632661819463
12:05:30,1,L22,Broadway Junction,-73.90324,40.678856,3031.1632661819467
12:05:30,1,L24,Atlantic Av,-73.903097,40.675345,3102.1632661819463
12:05:30,1,L25,Sutter Av,-73.901975,40.669367,3181.6632661819463
12:05:30,1,L26,Livonia Av,-73.900571,40.664038,3247.6632661819467
12:05:30,1,L27,New Lots Av,-73.899232,40.658733,3328.6632661819467
12:05:30,1,L28,East 105 St,-73.899485,40.650573,3488.6632661819467
13:55:30,1,L29,Canarsie-Rockaway Pkwy,-73.90185,40.646654,3533.6632661819467
13:05:30,0,M01,Middle Village-Metropolitan Av,-73.889601,40.711396,3290.153650522233
12:45:30,0,M04,Fresh Pond Rd,-73.895877,40.706186,3215.619576931
13:05:30,0,M05,Forest Av,-73.903077,40.704423,3111.153650522233
12:45:30,0,M06,Seneca Av,-73.90774,40.702762,3009.1536505222325
12:45:30,0,M08,Myrtle-Wyckoff Avs,-73.912385,40.69943,2926.6195769310007
12:15:30,0,M09,Knickerbocker Av,-73.919711,40.698664,3036.6195769310007
12:45:30,0,M10,Central Av,-73.927397,40.697857,3140.153650522233
12:15:30,0,M11,Myrtle Av,-73.935657,40.697207,3089.663264989853
12:15:30,0,M12,Flushing Av,-73.941126,40.70026,2980.1026611328125
12:15:30,0,M13,Lorimer St,-73.947408,40.703869,2873.1026611328125
12:15:30,0,M14,Hewes St,-73.953431,40.70687,2778.1026611328125
12:15:30,0,M16,Marcy Av,-73.957757,40.708359,2710.1026611328125
12:15:30,0,M18,Delancey St-Essex St,-73.987437,40.718315,2350.1026611328125
12:05:30,2,M19,Bowery,-73.993915,40.72028,2389.8844192028046
12:05:30,2,M20,Canal St,-73.999892,40.718092,2279.8844192028046
12:05:30,0,M21,Chambers St,-74.003401,40.713243,2290.8079476356506
12:05:30,2,M22,Fulton St,-74.007582,40.710374,2380.9066314697266
12:05:30,1,M23,Broad St,-74.011056,40.706476,2445.906631469727
12:05:30,0,N02,8 Av,-74.011719,40.635064,3548.1632661819463
12:05:30,0,N03,Fort Hamilton Pkwy,-74.005351,40.631386,3640.060746192932
12:05:30,0,N04,New Utrecht Av,-73.996353,40.624842,3760.060746192932
12:05:30,0,N05,18 Av,-73.990414,40.620671,3862.060746192932
12:05:30,0,N06,20 Av,-73.985026,40.61741,3942.060746192932
12:05:30,0,N07,Bay Pkwy,-73.981848,40.611815,4042.060746192932
12:05:30,0,N08,Kings Hwy,-73.980353,40.603923,4157.060746192932
12:05:30,0,N09,Avenue U,-73.979137,40.597473,4262.060746192932
12:05:30,0,N10,86 St,-73.97823,40.592721,4377.060746192933
12:05:30,1,Q01,Canal St,-74.00046,40.718383,2054.163266181946
12:15:30,0,Q03,72 St,-73.958424,40.768799,1877.8079476356509
12:15:30,0,Q04,86 St,-73.951787,40.777891,1997.8079476356509
12:15:30,0,Q05,96 St,-73.947152,40.784318,2077.807947635651
12:05:30,2,R01,Astoria-Ditmars Blvd,-73.912034,40.775036,2515.3145284652715
12:05:30,2,R03,Astoria Blvd,-73.917843,40.770258,2442.314528465271
12:05:30,2,R04,30 Av,-73.921479,40.766779,2330.3145284652715
12:05:30,2,R05,Broadway,-73.925508,40.76182,2238.8641262054443
12:05:30,2,R06,36 Av,-73.929575,40.756804,2123.8641262054443
12:05:30,2,R08,39 Av-Dutch Kills,-73.932755,40.752882,2037.314528465271
12:05:30,2,R09,Queensboro Plaza,-73.940202,40.750582,1863.8641262054446
12:05:30,2,R11,Lexington Av/59 St,-73.967258,40.76266,1627.7170374393465
12:05:30,2,R13,5 Av/59 St,-73.973347,40.764811,1717.8641262054446
12:35:30,1,R14,57 St-7 Av,-73.980658,40.764664,1706.1632661819458
12:55:30,1,R15,49 St,-73.984139,40.759901,1621.1632661819456
12:05:30,1,R16,Times Sq-42 St,-73.986754,40.754672,1531.1632661819456
12:05:30,1,R17,34 St-Herald Sq,-73.98795,40.749567,1639.1632661819456
12:05:30,1,R18,28 St,-73.988691,40.745494,1716.1632661819458
12:05:30,1,R19,23 St,-73.989344,40.741303,1789.1632661819456
12:05:30,1,R20,14 St-Union Sq,-73.990568,40.735736,1809.1632661819456
12:05:30,1,R21,8 St-NYU,-73.992629,40.730328,1989.1632661819456
12:05:30,1,R22,Prince St,-73.997702,40.724329,2109.163266181946
12:05:30,1,R23,Canal St,-74.001775,40.719527,2224.1632661819453
13:55:30,1,R24,City Hall,-74.006978,40.713282,2331.5545687675476
12:05:30,1,R25,Cortlandt St,-74.011029,40.710668,2211.5545687675476
12:05:30,1,R26,Rector St,-74.013342,40.70722,2329.5545687675476
12:05:30,1,R27,Whitehall St-South Ferry,-74.012994,40.703087,2409.5545687675476
12:15:30,1,R28,Court St,-73.991777,40.6941,2599.5545687675476
12:05:30,1,R29,Jay St-MetroTech,-73.985942,40.69218,2610.163266181946
12:05:30,1,R30,DeKalb Av,-73.981824,40.690635,2523.5
12:05:30,0,R31,Atlantic Av-Barclays Ctr,-73.97881,40.683666,2658.5
12:05:30,0,R32,Union St,-73.98311,40.677316,2788.0
12:05:30,0,R33,4 Av-9 St,-73.988302,40.670847,2898.5
12:05:30,0,R34,Prospect Av,-73.992872,40.665414,2993.5
12:05:30,0,R35,25 St,-73.998091,40.660397,3061.5
12:05:30,0,R36,36 St,-74.003549,40.655144,3018.5
12:05:30,0,R39,45 St,-74.010006,40.648939,3258.060746192932
12:05:30,0,R40,53 St,-74.014034,40.645069,3349.060746192932
12:05:30,0,R41,59 St,-74.017881,40.641362,3378.163266181946
12:05:30,0,R42,Bay Ridge Av,-74.023377,40.634967,3540.7038064002995
12:05:30,0,R43,77 St,-74.02551,40.629742,3612.7038064002995
12:05:30,0,R44,86 St,-74.028398,40.622687,3777.7038064002995
12:05:30,0,R45,Bay Ridge-95 St,-74.030876,40.616622,3843.7038064002995
12:05:30,0,S01,Franklin Av,-73.955827,40.680596,3019.952741146087
12:05:30,1,S03,Park Pl,-73.957624,40.674772,3139.952741146087
12:05:30,0,S04,Botanic Garden,-73.959245,40.670343,3269.9527411460867
