start_time,ntransfers,stop_id,stop_name,stop_lon,stop_lat,duration
12:48:30,1,101,Van Cortlandt Park-242 St,-73.898583,40.889248,4513.989131212236
12:48:30,1,103,238 St,-73.90087,40.884667,4438.989131212236
12:48:30,1,104,231 St,-73.904834,40.878856,4365.989131212235
12:48:30,1,106,Marble Hill-225 St,-73.909831,40.874561,4278.989131212235
12:48:30,1,107,215 St,-73.915279,40.869444,4186.989131212235
12:48:30,1,108,207 St,-73.918822,40.864621,4098.989131212235
12:48:30,1,109,Dyckman St,-73.925536,40.860531,3998.9891312122354
12:48:30,1,110,191 St,-73.929412,40.855225,3913.989131212235
12:48:30,1,111,181 St,-73.933596,40.849505,3820.989131212235
12:48:30,1,112,168 St-Washington Hts,-73.940133,40.840556,3703.9891312122345
12:48:30,1,113,157 St,-73.94489,40.834041,3682.4809193611145
12:48:30,1,114,145 St,-73.95036,40.826551,3568.4809193611145
12:48:30,1,115,137 St-City College,-73.953676,40.822008,3474.480919361114
12:48:30,1,116,125 St,-73.958372,40.815581,3373.4809193611145
12:48:30,1,117,116 St-Columbia University,-73.96411,40.807722,3267.4809193611145
12:48:30,1,118,Cathedral Pkwy (110 St),-73.966847,40.803967,3190.4809193611145
12:48:30,1,119,103 St,-73.968379,40.799446,3111.4809193611145
12:04:30,1,120,96 St,-73.972323,40.793919,2817.5
12:04:30,1,121,86 St,-73.976218,40.788644,2909.9809193611145
12:04:30,1,122,79 St,-73.979917,40.783934,2825.9809193611145
12:04:30,1,123,72 St,-73.98197,40.778453,2635.5
12:08:30,1,124,66 St-Lincoln Center,-73.982209,40.77344,2694.5000000000005
12:08:30,1,125,59 St-Columbus Circle,-73.981929,40.768247,2612.5000000000005
12:08:30,1,126,50 St,-73.983849,40.761728,2510.5
12:48:30,1,127,Times Sq-42 St,-73.987495,40.75529,2401.5
12:08:30,1,128,34 St-Penn Station,-73.991057,40.750373,2385.9220404624934
12:18:30,1,129,28 St,-73.993365,40.747215,2577.5
12:21:00,1,130,23 St,-73.995657,40.744081,2581.9220404624934
12:21:00,1,131,18 St,-73.997871,40.74104,2513.9220404624934
12:21:00,1,132,14 St,-74.000201,40.737826,2230.9220404624934
13:01:00,1,133,Christopher St-Sheridan Sq,-74.002906,40.733422,2523.0892307758336
13:01:00,1,134,Houston St,-74.005367,40.728251,2442.089230775833
13:01:00,1,135,Canal St,-74.006277,40.722854,2357.0892307758336
13:01:00,1,136,Franklin St,-74.006886,40.719318,2291.0892307758336
12:21:00,1,137,Chambers St,-74.009266,40.715478,2002.9220404624937
13:41:00,1,138,WTC Cortlandt,-74.012188,40.711835,2168.820000886917
13:41:00,1,139,Rector St,-74.013783,40.707513,2093.820000886917
13:41:00,1,142,South Ferry,-74.013664,40.702068,2001.8200008869171
13:38:30,1,201,Wakefield-241 St,-73.85062,40.903125,5386.549007892608
13:38:30,1,204,Nereid Av,-73.854376,40.898379,5175.549007892608
13:38:30,1,205,233 St,-73.857473,40.893193,5043.549007892608
13:38:30,1,206,225 St,-73.860341,40.888022,4947.549007892608
13:38:30,1,207,219 St,-73.862633,40.883895,4865.549007892609
13:38:30,1,208,Gun Hill Rd,-73.866256,40.87785,4757.049007892609
13:38:30,1,209,Burke Av,-73.867164,40.871356,4834.549007892609
13:38:30,1,210,Allerton Av,-73.867352,40.865462,4844.922040462494
13:38:30,1,211,Pelham Pkwy,-73.867615,40.857192,4736.922040462494
13:38:30,1,212,Bronx Park East,-73.868457,40.848828,4615.922040462494
13:38:30,1,213,E 180 St,-73.873488,40.841894,4399.549007892609
12:18:30,1,214,West Farms Sq-E Tremont Av,-73.880049,40.840295,4258.549007892609
12:18:30,1,215,174 St,-73.887734,40.837288,4138.549007892609
12:18:30,1,216,Freeman St,-73.891865,40.829993,4024.5490078926086
12:18:30,1,217,Simpson St,-73.893064,40.824073,3914.5490078926086
13:38:30,1,218,Intervale Av,-73.896736,40.822181,3841.5490078926086
13:38:30,1,219,Prospect Av,-73.90177,40.819585,3761.549007892609
12:18:30,1,220,Jackson Av,-73.907807,40.81649,3667.5490078926086
13:38:30,1,221,3 Av-149 St,-73.917757,40.816109,3542.5490078926086
12:18:30,1,222,149 St-Grand Concourse,-73.926718,40.81841,3424.5490078926086
12:04:30,1,224,135 St,-73.94077,40.814229,3343.0
12:04:30,1,225,125 St,-73.945495,40.807754,3238.0
12:04:30,1,226,116 St,-73.949625,40.802098,3138.0000000000005
12:04:30,1,227,Central Park North (110 St),-73.951822,40.799075,3064.5
12:21:00,1,228,Park Place,-74.008811,40.713051,1916.922040462494
12:21:00,1,229,Fulton St,-74.006571,40.709416,1807.8200008869173
12:21:00,1,230,Wall St,-74.0091,40.706821,1731.3200008869171
12:21:00,1,231,Clark St,-73.993086,40.697466,1531.3200008869171
12:21:00,1,232,Borough Hall,-73.989998,40.693219,1432.3200008869171
12:21:00,1,233,Hoyt St,-73.985065,40.690545,1345.3200008869173
12:08:30,1,234,Nevins St,-73.980492,40.688246,1252.3200008869171
12:18:30,1,235,Atlantic Av-Barclays Ctr,-73.977666,40.684359,1170.3200008869171
12:18:30,1,236,Bergen St,-73.975098,40.680829,1246.3200008869171
12:08:30,1,237,Grand Army Plaza,-73.971046,40.675235,1239.3200008869173
12:08:30,1,238,Eastern Pkwy-Brooklyn Museum,-73.964375,40.671987,1143.3200008869171
12:08:30,1,239,Franklin Av-Medgar Evers College,-73.958131,40.670682,1046.3200008869171
12:18:30,1,241,President St-Medgar Evers College,-73.950683,40.667883,1191.3200008869173
12:18:30,1,242,Sterling St,-73.95085,40.662742,1280.3200008869173
12:18:30,1,243,Winthrop St,-73.9502,40.656652,1367.3200008869173
12:18:30,1,244,Church Av,-73.949575,40.650843,1449.3200008869173
12:18:30,1,245,Beverly Rd,-73.948959,40.645098,1534.3200008869173
12:18:30,1,246,Newkirk Av-Little Haiti,-73.948411,40.639967,1619.3200008869173
12:18:30,1,247,Flatbush Av-Brooklyn College,-73.947642,40.632836,1722.3200008869173
12:18:30,1,248,Nostrand Av,-73.950466,40.669847,1152.3200008869171
12:18:30,1,249,Kingston Av,-73.942161,40.669399,1242.3200008869171
12:08:30,1,250,Crown Hts-Utica Av,-73.932942,40.668897,1240.3200008869173
12:18:30,1,251,Sutter Av-Rutland Rd,-73.92261,40.664717,1378.3200008869173
12:18:30,1,252,Saratoga Av,-73.916327,40.661453,1481.3200008869171
12:18:30,1,253,Rockaway Av,-73.908946,40.662549,1566.3200008869173
12:18:30,1,254,Junius St,-73.902447,40.663515,1648.3200008869173
12:18:30,1,255,Pennsylvania Av,-73.894895,40.664635,1747.3200008869171
12:18:30,1,256,Van Siclen Av,-73.889395,40.665449,1825.3200008869173
12:18:30,1,257,New Lots Av,-73.884079,40.666235,1898.3200008869171
12:04:30,1,301,Harlem-148 St,-73.93647,40.82388,3584.5
12:04:30,1,302,145 St,-73.936245,40.820421,3477.4999999999995
13:41:00,1,401,Woodlawn,-73.878751,40.886037,4576.80780529976
13:41:00,1,402,Mosholu Pkwy,-73.884655,40.87975,4455.80780529976
12:21:00,1,405,Bedford Park Blvd-Lehman College,-73.890064,40.873412,4350.80780529976
12:21:00,1,406,Kingsbridge Rd,-73.897174,40.86776,4237.80780529976
12:21:00,1,407,Fordham Rd,-73.901034,40.862803,4142.80780529976
12:21:00,1,408,183 St,-73.903879,40.858407,4059.8078052997594
12:21:00,1,409,Burnside Av,-73.907684,40.853453,3962.80780529976
12:21:00,1,410,176 St,-73.911794,40.84848,3887.80780529976
12:21:00,1,411,Mt Eden Av,-73.914685,40.844434,3810.8078052997594
12:21:00,1,412,170 St,-73.917791,40.840075,3730.8078052997594
12:21:00,1,413,167 St,-73.9214,40.835537,3642.807805299759
12:21:00,1,414,161 St-Yankee Stadium,-73.925831,40.827994,3513.8078052997594
12:21:00,1,415,149 St-Grand Concourse,-73.927351,40.818375,3371.8078052997594
12:18:30,1,416,138 St-Grand Concourse,-73.929849,40.813224,3267.5490078926086
12:08:30,1,418,Fulton St,-74.009509,40.710368,1823.8078052997591
12:08:30,1,419,Wall St,-74.011862,40.707557,1746.8078052997591
12:08:30,1,420,Bowling Green,-74.014065,40.704817,1671.8078052997591
12:08:30,1,423,Borough Hall,-73.990151,40.692404,1406.807805299759
13:38:30,1,501,Eastchester-Dyre Av,-73.830834,40.8883,5096.549007892609
13:38:30,1,502,Baychester Av,-73.838591,40.878663,4968.549007892609
13:38:30,1,503,Gun Hill Rd,-73.846384,40.869526,4853.549007892609
13:38:30,1,504,Pelham Pkwy,-73.855359,40.858985,4719.549007892609
13:38:30,1,505,Morris Park,-73.860495,40.854364,4626.549007892609
13:41:00,1,601,Pelham Bay Park,-73.828121,40.852462,4762.191866397859
13:41:00,1,602,Buhre Av,-73.832569,40.84681,4626.691866397858
13:41:00,1,603,Middletown Rd,-73.836322,40.843863,4554.691866397858
13:41:00,1,604,Westchester Sq-E Tremont Av,-73.842952,40.839892,4451.691866397858
13:41:00,1,606,Zerega Av,-73.847036,40.836488,4371.191866397858
13:41:00,1,607,Castle Hill Av,-73.851222,40.834255,4303.191866397857
12:21:00,1,608,Parkchester,-73.860816,40.833226,4146.191866397858
12:21:00,1,609,St Lawrence Av,-73.867618,40.831509,4342.536178588868
12:21:00,1,610,Morrison Av-Soundview,-73.874516,40.829521,4258.536178588867
12:21:00,1,611,Elder Av,-73.879159,40.828584,4190.536178588867
12:21:00,1,612,Whitlock Av,-73.886283,40.826525,4092.5361785888667
12:21:00,1,613,Hunts Point Av,-73.890549,40.820948,3874.691866397857
12:18:30,1,614,Longwood Av,-73.896435,40.816104,3980.0373816490182
12:18:30,1,615,E 149 St,-73.904098,40.812118,3880.037381649018
12:18:30,1,616,E 143 St-St Mary's St,-73.907657,40.808719,3805.0373816490173
12:18:30,1,617,Cypress Av,-73.914042,40.805368,3688.0373816490173
12:18:30,1,618,Brook Av,-73.91924,40.807566,3614.0373816490173
12:18:30,1,619,3 Av-138 St,-73.926138,40.810476,3510.0373816490173
12:18:30,1,621,125 St,-73.937594,40.804138,3092.5490078926086
12:18:30,1,622,116 St,-73.941617,40.798629,3341.5485732555385
12:08:30,1,623,110 St,-73.94425,40.79502,3263.5485732555385
12:08:30,1,624,103 St,-73.947478,40.7906,3185.548573255539
12:08:30,1,625,96 St,-73.95107,40.785672,3097.548573255539
12:18:30,1,626,86 St,-73.955589,40.779492,2798.807805299759
12:08:30,1,627,77 St,-73.959874,40.77362,2897.5485732555385
12:08:30,1,628,68 St-Hunter College,-73.96387,40.768141,2805.5485732555385
12:18:30,1,629,59 St,-73.967967,40.762526,2603.807805299759
12:18:30,1,630,51 St,-73.97192,40.757107,2606.548573255539
12:18:30,1,631,Grand Central-42 St,-73.976848,40.751776,2437.807805299759
12:21:00,1,632,33 St,-73.982076,40.746081,2367.010478496551
12:21:00,1,633,28 St,-73.984264,40.74307,2300.010478496551
12:21:00,1,634,23 St,-73.986599,40.739864,2230.0104784965515
12:21:00,1,635,14 St-Union Sq,-73.989951,40.734673,2101.5485732555394
12:21:00,1,636,Astor Pl,-73.99107,40.730054,2021.5485732555394
12:18:30,1,637,Bleecker St,-73.994659,40.725915,1927.5485732555392
12:18:30,1,638,Spring St,-73.997141,40.722301,1994.5485732555392
12:21:00,1,639,Canal St,-74.000193,40.718803,1998.4999999999998
12:08:30,1,640,Brooklyn Bridge-City Hall,-74.004131,40.713065,1935.807805299759
12:26:30,1,701,Flushing-Main St,-73.83003,40.7596,3955.310182571412
13:58:30,1,702,Mets-Willets Point,-73.845625,40.754622,3811.3101825714116
13:58:30,1,705,111 St,-73.855334,40.75173,3842.8200008869176
13:58:30,1,706,103 St-Corona Plaza,-73.8627,40.749865,3743.012309074402
13:58:30,1,707,Junction Blvd,-73.869527,40.749145,3601.3101825714116
13:58:30,1,708,90 St-Elmhurst Av,-73.876613,40.748408,3602.0123090744023
13:58:30,1,709,82 St-Jackson Hts,-73.883697,40.747659,3532.0123090744023
13:01:00,1,710,74 St-Broadway,-73.891394,40.746848,3368.0123090744023
13:01:00,1,711,69 St,-73.896403,40.746325,3328.0123090744023
12:04:30,1,712,61 St-Woodside,-73.902984,40.74563,3256.0123090744023
12:04:30,1,713,52 St,-73.912549,40.744149,3168.0123090744023
12:04:30,1,714,46 St-Bliss St,-73.918435,40.743132,3113.0123090744023
12:04:30,1,715,40 St-Lowery St,-73.924016,40.743781,3055.0123090744023
12:04:30,1,716,33 St-Rawson St,-73.930997,40.744587,2989.012309074402
12:26:30,1,718,Queensboro Plaza,-73.940202,40.750582,2831.3200008869176
12:26:30,1,719,Court Sq,-73.945264,40.747023,2738.8200008869176
12:26:30,1,720,Hunters Point Av,-73.948916,40.742216,2651.8200008869176
12:18:30,2,721,Vernon Blvd-Jackson Av,-73.953581,40.742626,2614.3200008869176
12:26:30,1,723,Grand Central-42 St,-73.976041,40.751431,2404.3200008869176
12:26:30,1,724,5 Av,-73.981963,40.753821,2350.3200008869176
12:21:00,1,725,Times Sq-42 St,-73.987691,40.755477,2401.5
12:04:30,1,726,34 St-Hudson Yards,-74.00191,40.755882,2531.5
12:04:30,1,901,Grand Central-42 St,-73.979189,40.752769,2431.5
12:04:30,1,902,Times Sq-42 St,-73.986229,40.755983,2341.5
13:41:00,0,A02,Inwood-207 St,-73.919899,40.868072,4027.5
13:41:00,0,A03,Dyckman St,-73.927271,40.865491,3932.5000000000005
13:41:00,0,A05,190 St,-73.93418,40.859022,3812.5000000000005
13:41:00,0,A06,181 St,-73.937969,40.851695,3695.5
13:41:00,0,A07,175 St,-73.939704,40.847391,3598.5
13:41:00,0,A09,168 St,-73.939561,40.840719,3478.5
13:41:00,0,A10,163 St-Amsterdam Av,-73.939892,40.836013,3500.0
13:41:00,0,A11,155 St,-73.941514,40.830518,3396.5
13:41:00,0,A12,145 St,-73.944216,40.824783,3240.5
13:09:30,0,A14,135 St,-73.947649,40.817894,3160.5
13:41:00,0,A15,125 St,-73.952343,40.811109,3040.5
12:21:00,0,A16,116 St,-73.954882,40.805085,3113.320000886918
12:21:00,0,A17,Cathedral Pkwy (110 St),-73.958161,40.800603,3039.320000886918
12:21:00,0,A18,103 St,-73.961454,40.796092,2959.320000886918
12:21:00,0,A19,96 St,-73.964696,40.791642,2874.320000886918
12:21:00,0,A20,86 St,-73.968916,40.785868,2764.320000886918
12:21:00,0,A21,81 St-Museum of Natural History,-73.972143,40.781433,2659.320000886918
12:21:00,0,A22,72 St,-73.97641,40.775594,2571.3200008869176
12:21:00,0,A24,59 St-Columbus Circle,-73.981736,40.768296,2448.320000886918
13:09:30,0,A25,50 St,-73.985984,40.762456,2509.4999999999995
12:08:30,1,A27,42 St-Port Authority Bus Terminal,-73.989735,40.757308,2401.5
13:01:00,1,A28,34 St-Penn Station,-73.993391,40.752287,2341.8200008869176
13:01:00,1,A30,23 St,-73.998041,40.745906,2293.8200008869176
13:01:00,1,A31,14 St,-74.00169,40.740893,2208.8200008869176
13:46:30,1,A32,W 4 St-Wash Sq,-74.000495,40.732338,2088.8200008869176
13:06:30,1,A33,Spring St,-74.003739,40.726227,2198.8200008869176
13:46:30,1,A34,Canal St,-74.005229,40.720824,2101.320000886917
13:46:30,1,A36,Chambers St,-74.008585,40.714111,1981.3200008869171
13:46:30,1,A38,Fulton St,-74.007691,40.710197,1876.3200008869171
13:46:30,1,A40,High St,-73.990531,40.699337,1696.3200008869171
13:46:30,1,A41,Jay St-MetroTech,-73.987342,40.692338,1574.3200008869171
12:58:30,1,A42,Hoyt-Schermerhorn Sts,-73.985001,40.688484,1454.3200008869171
12:58:30,1,A43,Lafayette Av,-73.973946,40.686113,1320.3200008869171
12:58:30,1,A44,Clinton-Washington Avs,-73.965838,40.683263,1242.3200008869171
12:08:30,1,A45,Franklin Av,-73.956848,40.68138,1134.3200008869171
12:58:30,1,A46,Nostrand Av,-73.950426,40.680438,1208.3200008869171
12:58:30,1,A47,Kingston-Throop Avs,-73.940858,40.679921,1314.3200008869171
12:58:30,1,A48,Utica Av,-73.930729,40.679364,1422.3200008869171
12:58:30,1,A49,Ralph Av,-73.920786,40.678822,1537.3200008869171
12:58:30,1,A50,Rockaway Av,-73.911946,40.67834,1642.3200008869171
12:18:30,1,A51,Broadway Junction,-73.905316,40.678334,1706.1621067523956
12:08:30,1,A52,Liberty Av,-73.896548,40.674542,1844.8379848003387
12:08:30,1,A53,Van Siclen Av,-73.890358,40.67271,1921.8379848003385
12:08:30,1,A54,Shepherd Av,-73.88075,40.67413,2031.8379848003387
12:18:30,1,A55,Euclid Av,-73.872106,40.675377,2005.1621067523956
12:18:30,1,A57,Grant Av,-73.86505,40.677044,2125.1621067523956
12:18:30,1,A59,80 St,-73.858992,40.679371,2225.1621067523956
12:18:30,1,A60,88 St,-73.85147,40.679843,2330.1621067523956
12:18:30,1,A61,Rockaway Blvd,-73.843853,40.680429,2415.162106752395
12:48:30,1,A63,104 St,-73.837683,40.681711,2495.1621067523956
12:48:30,1,A64,111 St,-73.832163,40.684331,2570.1621067523956
12:48:30,1,A65,Ozone Park-Lefferts Blvd,-73.825798,40.685951,2675.1621067523956
12:04:30,0,B04,21 St-Queensbridge,-73.942836,40.754203,2950.3200008869176
12:04:30,0,B06,Roosevelt Island,-73.95326,40.759145,2789.5040499666725
12:04:30,0,B08,Lexington Av/63 St,-73.966113,40.764629,2632.4999999999995
12:21:00,0,B10,57 St,-73.97745,40.763972,2530.3200008869176
12:04:30,1,B12,9 Av,-73.994324,40.646292,2053.320000886917
12:04:30,1,B13,Fort Hamilton Pkwy,-73.994304,40.640914,2068.9999999999995
12:04:30,1,B14,50 St,-73.994791,40.63626,1998.9999999999998
12:21:00,0,B15,55 St,-73.995476,40.631435,1922.0
12:21:00,0,B16,62 St,-73.996895,40.626472,1806.0
12:21:00,0,B17,71 St,-73.998864,40.619589,1696.0000000000002
12:21:00,0,B18,79 St,-74.00061,40.613501,1616.0000000000002
12:21:00,0,B19,18 Av,-74.001736,40.607954,1516.0000000000002
12:21:00,0,B20,20 Av,-73.998168,40.604556,1441.0000000000002
12:21:00,0,B21,Bay Pkwy,-73.993728,40.601875,1343.0000000000002
12:21:00,0,B22,25 Av,-73.986829,40.597704,1236.0
12:21:00,0,B23,Bay 50 St,-73.983765,40.588841,1106.0
12:21:00,0,D01,Norwood-205 St,-73.878855,40.874811,4529.635226726531
12:21:00,0,D03,Bedford Park Blvd,-73.887138,40.873244,4386.663266181945
12:21:00,0,D04,Kingsbridge Rd,-73.893509,40.866978,4282.815792560577
12:21:00,0,D05,Fordham Rd,-73.897749,40.861296,4177.815792560577
12:21:00,0,D06,182-183 Sts,-73.900741,40.856093,4087.8157925605774
13:01:00,0,D07,Tremont Av,-73.905227,40.85041,4002.6632661819453
13:01:00,0,D08,174-175 Sts,-73.910136,40.8459,3892.663266181946
13:01:00,0,D09,170 St,-73.9134,40.839306,3812.6632661819453
13:01:00,0,D10,167 St,-73.91844,40.833771,3692.6632661819453
13:01:00,0,D11,161 St-Yankee Stadium,-73.925651,40.827905,3555.663266181946
13:01:00,0,D12,155 St,-73.938209,40.830135,3430.6632661819453
12:21:00,0,D13,145 St,-73.944216,40.824783,3310.6632661819453
12:21:00,0,D14,7 Av,-73.981637,40.762862,2337.3200008869176
12:21:00,0,D15,47-50 Sts-Rockefeller Ctr,-73.981329,40.758663,2227.3200008869176
12:21:00,0,D16,42 St-Bryant Pk,-73.984569,40.754222,2125.3200008869176
12:21:00,0,D17,34 St-Herald Sq,-73.987823,40.749719,2050.3200008869176
13:01:00,0,D18,23 St,-73.992821,40.742878,2277.820000886917
13:01:00,0,D19,14 St,-73.996209,40.738228,2188.820000886917
12:21:00,0,D20,W 4 St-Wash Sq,-74.000495,40.732338,1848.8200008869171
12:21:00,0,D21,Broadway-Lafayette St,-73.996204,40.725297,1715.3200008869171
12:21:00,0,D22,Grand St,-73.993753,40.718267,1590.3200008869171
12:04:30,0,D24,Atlantic Av-Barclays Ctr,-73.97689,40.68446,945.3200008869171
12:04:30,0,D25,7 Av,-73.972367,40.67705,817.3200008869172
12:04:30,0,D26,Prospect Park,-73.962246,40.661614,634.3200008869171
12:04:30,0,D27,Parkside Av,-73.961495,40.655292,647.0
12:04:30,0,D28,Church Av,-73.962982,40.650527,499.32000088691717
12:04:30,0,D29,Beverley Rd,-73.964492,40.644031,426.00000000000006
12:04:30,0,D30,Cortelyou Rd,-73.963891,40.640927,366.00000000000006
12:04:30,0,D31,Newkirk Plaza,-73.962793,40.635082,280.0
12:04:30,0,D32,Avenue H,-73.961639,40.62927,180.0
12:04:30,0,D33,Avenue J,-73.960803,40.625039,115.0
12:04:30,0,D34,Avenue M,-73.959399,40.617618,0.0
12:08:30,0,D35,Kings Hwy,-73.957734,40.60867,95.0
12:08:30,0,D37,Avenue U,-73.955929,40.5993,225.0
12:08:30,0,D38,Neck Rd,-73.955161,40.595246,313.0
12:08:30,0,D39,Sheepshead Bay,-73.954155,40.586896,393.0
12:08:30,0,D40,Brighton Beach,-73.961376,40.577621,561.0
12:38:30,0,D41,Ocean Pkwy,-73.968501,40.576312,669.0000000000001
12:38:30,0,D42,W 8 St-NY Aquarium,-73.975939,40.576127,784.0000000000001
12:38:30,0,D43,Coney Island-Stillwell Av,-73.981233,40.577422,856.0
12:48:30,1,E01,World Trade Center,-74.009781,40.712582,2000.922040462494
12:08:30,0,F01,Jamaica-179 St,-73.783817,40.712646,4150.320000886916
12:04:30,0,F02,169 St,-73.793604,40.71047,4091.3200008869167
12:04:30,0,F03,Parsons Blvd,-73.803326,40.707564,3906.3200008869167
12:04:30,0,F04,Sutphin Blvd,-73.810708,40.70546,3816.3200008869167
12:04:30,0,F05,Briarwood,-73.820574,40.709179,3641.320000886917
13:01:00,0,F06,Kew Gardens-Union Tpke,-73.831008,40.714441,3751.320000886917
12:04:30,0,F07,75 Av,-73.837324,40.718331,3817.8200008869176
13:01:00,0,F09,Court Sq-23 St,-73.946,40.747846,2858.8200008869176
13:01:00,0,F11,Lexington Av/53 St,-73.969055,40.757552,2700.932247025626
13:01:00,0,F12,5 Av/53 St,-73.975224,40.760167,2601.7485735562386
12:08:30,1,F14,2 Av,-73.989938,40.723402,2050.320000886917
12:58:30,1,F15,Delancey St-Essex St,-73.988114,40.718611,1973.8200008869171
12:58:30,1,F16,East Broadway,-73.990173,40.713715,1883.8200008869173
12:58:30,1,F18,York St,-73.986751,40.701397,1703.8200008869173
12:08:30,1,F20,Bergen St,-73.990862,40.686145,1759.005185365677
12:08:30,1,F21,Carroll St,-73.995048,40.680303,1868.005185365677
12:08:30,1,F22,Smith-9 Sts,-73.995959,40.67358,1830.3479676246643
12:08:30,1,F23,4 Av-9 St,-73.989779,40.670272,1749.3274474143984
12:08:30,1,F24,7 Av,-73.980305,40.666271,1869.3274474143984
12:48:30,0,F25,15 St-Prospect Park,-73.979493,40.660365,1987.0413088798525
12:48:30,0,F26,Fort Hamilton Pkwy,-73.975776,40.650782,2119.327447414398
12:48:30,0,F27,Church Av,-73.979678,40.644041,2133.0
12:48:30,0,F29,Ditmas Av,-73.978172,40.636119,2010.0
12:48:30,0,F30,18 Av,-73.976971,40.629755,1897.0
12:48:30,0,F31,Avenue I,-73.976127,40.625322,1817.0
12:48:30,0,F32,Bay Pkwy,-73.975264,40.620769,1739.0
12:48:30,0,F33,Avenue N,-73.974197,40.61514,1634.0
12:48:30,0,F34,Avenue P,-73.973022,40.608944,1559.0
12:48:30,0,F35,Kings Hwy,-73.972361,40.603217,1456.0000000000002
12:48:30,0,F36,Avenue U,-73.973357,40.596063,1341.0
12:48:30,0,F38,Avenue X,-73.97425,40.58962,1231.0
12:48:30,0,F39,Neptune Av,-73.974574,40.581011,1096.0
12:08:30,2,G05,Jamaica Center-Parsons/Archer,-73.801109,40.702147,3232.3200008869167
13:38:30,2,G06,Sutphin Blvd-Archer Av-JFK Airport,-73.807969,40.700486,3172.3200008869167
13:01:00,0,G07,Jamaica-Van Wyck,-73.816859,40.702566,3521.320000886917
13:01:00,0,G08,Forest Hills-71 Av,-73.844521,40.721691,3700.8200008869176
12:04:30,0,G09,67 Av,-73.852719,40.726523,3840.2593057155614
13:54:30,0,G10,63 Dr-Rego Park,-73.861604,40.729846,3799.820000886917
13:54:30,0,G11,Woodhaven Blvd,-73.869229,40.733106,3691.820000886917
13:54:30,0,G12,Grand Av-Newtown,-73.877223,40.737015,3576.820000886917
13:54:30,0,G13,Elmhurst Av,-73.882017,40.742454,3471.820000886917
13:01:00,0,G14,Jackson Hts-Roosevelt Av,-73.891338,40.746644,3338.8200008869176
12:21:00,0,G15,65 St,-73.898453,40.749669,3466.8200008869176
13:01:00,0,G16,Northern Blvd,-73.906006,40.752885,3454.5027275858447
13:01:00,0,G18,46 St,-73.913333,40.756312,3364.5027275858447
13:01:00,0,G19,Steinway St,-73.92074,40.756879,3247.5955110909995
13:01:00,0,G20,36 St,-73.928781,40.752039,3127.5955110909995
13:01:00,0,G21,Queens Plaza,-73.937243,40.748973,2978.8200008869176
13:38:30,1,G22,Court Sq,-73.943832,40.746554,2798.8200008869176
13:38:30,1,G24,21 St,-73.949724,40.744065,2786.41574716568
13:38:30,1,G26,Greenpoint Av,-73.954449,40.731352,2656.41574716568
13:38:30,1,G28,Nassau Av,-73.951277,40.724635,2541.41574716568
13:38:30,1,G29,Metropolitan Av,-73.951418,40.712792,2406.41574716568
13:38:30,1,G30,Broadway,-73.950308,40.706092,2319.418213129043
13:38:30,1,G31,Flushing Av,-73.950234,40.700377,2226.91574716568
13:38:30,1,G32,Myrtle-Willoughby Avs,-73.949046,40.694568,2151.91574716568
13:38:30,1,G33,Bedford-Nostrand Avs,-73.953522,40.689627,2038.9157471656802
13:38:30,1,G34,Classon Av,-73.96007,40.688873,1963.9157471656802
13:38:30,1,G35,Clinton-Washington Avs,-73.966839,40.688089,1890.91574716568
13:38:30,1,G36,Fulton St,-73.975375,40.687119,1795.9157471656802
12:34:30,1,H01,Aqueduct Racetrack,-73.834058,40.668234,2600.1621067523956
12:18:30,1,H02,Aqueduct-N Conduit Av,-73.834058,40.668234,2635.8379848003387
12:18:30,1,H03,Howard Beach-JFK Airport,-73.830301,40.660476,2765.8379848003387
12:18:30,1,H04,Broad Channel,-73.815925,40.608382,3187.8379848003387
12:18:30,1,H06,Beach 67 St,-73.796924,40.590927,3477.8379848003387
12:58:30,1,H07,Beach 60 St,-73.788522,40.592374,3590.8379848003387
12:58:30,1,H08,Beach 44 St,-73.776013,40.592943,3705.8379848003387
12:58:30,1,H09,Beach 36 St,-73.768175,40.595398,3806.8379848003383
12:58:30,1,H10,Beach 25 St,-73.761353,40.600066,3896.8379848003387
12:58:30,1,H11,Far Rockaway-Mott Av,-73.755405,40.603995,3961.8379848003387
12:58:30,1,H12,Beach 90 St,-73.813641,40.588034,3457.162106752395
12:58:30,1,H13,Beach 98 St,-73.820558,40.585307,3548.662106752395
12:58:30,1,H14,Beach 105 St,-73.827559,40.583209,3622.662106752395
12:58:30,1,H15,Rockaway Park-Beach 116 St,-73.835592,40.580903,3733.6621067523956
13:38:30,2,J12,121 St,-73.828294,40.700492,2932.3200008869167
13:38:30,2,J13,111 St,-73.836345,40.697418,3097.3200008869167
13:38:30,2,J14,104 St,-73.84433,40.695178,2752.3200008869167
13:38:30,2,J15,Woodhaven Blvd,-73.851576,40.693879,2662.3200008869167
13:38:30,2,J16,85 St-Forest Pkwy,-73.86001,40.692435,2684.0621073245998
13:38:30,2,J17,75 St-Elderts Ln,-73.867139,40.691324,2482.3200008869167
13:38:30,2,J19,Cypress Hills,-73.87255,40.689941,2504.0621073245998
13:38:30,2,J20,Crescent St,-73.873785,40.683194,2332.3200008869167
13:38:30,2,J21,Norwood Av,-73.880039,40.68141,2242.3200008869167
13:38:30,2,J22,Cleveland St,-73.884639,40.679947,2228.3562819957733
13:38:30,2,J23,Van Siclen Av,-73.891688,40.678024,2092.3200008869167
13:38:30,2,J24,Alabama Av,-73.898654,40.676992,2032.3200008869167
12:08:30,2,J27,Broadway Junction,-73.904512,40.679498,1931.1621067523956
12:18:30,2,J28,Chauncey St,-73.910456,40.682893,2002.3200008869167
12:18:30,2,J29,Halsey St,-73.916559,40.68637,2148.0621073246
12:18:30,2,J30,Gates Av,-73.92227,40.68963,2152.3200008869167
12:18:30,2,J31,Kosciuszko St,-73.928814,40.693342,2328.0621073246
12:04:30,1,L01,8 Av,-74.002578,40.739777,2268.8200008869176
12:04:30,1,L02,6 Av,-73.996786,40.737335,2273.96103978157
12:04:30,1,L03,14 St-Union Sq,-73.99073,40.734789,2188.9610397815704
12:04:30,1,L05,3 Av,-73.986122,40.732849,2252.6304347515106
12:04:30,1,L06,1 Av,-73.981628,40.730953,2283.9610397815704
12:04:30,1,L08,Bedford Av,-73.956872,40.717304,2479.9610397815704
12:04:30,1,L10,Lorimer St,-73.950275,40.714063,2569.9610397815704
12:04:30,1,L11,Graham Av,-73.944053,40.714565,2605.9610397815704
12:04:30,1,L12,Grand St,-73.94067,40.711926,2590.480494022369
12:04:30,1,L13,Montrose Av,-73.93985,40.707739,2542.480494022369
12:04:30,1,L14,Morgan Av,-73.933147,40.706152,2484.480494022369
12:04:30,1,L15,Jefferson St,-73.922913,40.706607,2378.8009951114655
12:08:30,2,L16,DeKalb Av,-73.918425,40.703811,2312.8009951114655
12:08:30,2,L17,Myrtle-Wyckoff Avs,-73.911586,40.699814,2252.4804940223694
12:08:30,2,L19,Halsey St,-73.904084,40.695602,2192.8009951114655
12:08:30,2,L20,Wilson Av,-73.904046,40.688764,2058.8009951114655
12:08:30,2,L21,Bushwick Av-Aberdeen St,-73.905249,40.682829,1989.8009951114655
12:08:30,2,L22,Broadway Junction,-73.90324,40.678856,1923.8009951114655
12:08:30,2,L24,Atlantic Av,-73.903097,40.675345,1994.8009951114652
12:08:30,2,L25,Sutter Av,-73.901975,40.669367,2053.0699996948247
12:08:30,2,L26,Livonia Av,-73.900571,40.664038,1987.0699996948244
12:26:30,2,L27,New Lots Av,-73.899232,40.658733,2045.3199996948242
12:26:30,2,L28,East 105 St,-73.899485,40.650573,2150.319999694824
12:26:30,2,L29,Canarsie-Rockaway Pkwy,-73.90185,40.646654,2225.319999694824
13:41:00,0,M01,Middle Village-Metropolitan Av,-73.889601,40.711396,2842.4708783626556
13:01:00,0,M04,Fresh Pond Rd,-73.895877,40.706186,2766.480494022369
13:41:00,0,M05,Forest Av,-73.903077,40.704423,2663.4708783626556
13:01:00,0,M06,Seneca Av,-73.90774,40.702762,2561.4708783626556
13:01:00,0,M08,Myrtle-Wyckoff Avs,-73.912385,40.69943,2477.4804940223694
13:01:00,0,M09,Knickerbocker Av,-73.919711,40.698664,2587.4804940223694
13:01:00,0,M10,Central Av,-73.927397,40.697857,2552.0747282505035
13:01:00,0,M11,Myrtle Av,-73.935657,40.697207,2332.3200008869167
13:01:00,0,M12,Flushing Av,-73.941126,40.70026,2519.7611753940582
13:01:00,0,M13,Lorimer St,-73.947408,40.703869,2626.761175394058
13:01:00,0,M14,Hewes St,-73.953431,40.70687,2568.52408003807
13:01:00,0,M16,Marcy Av,-73.957757,40.708359,2500.5240800380707
13:01:00,0,M18,Delancey St-Essex St,-73.987437,40.718315,2140.5240800380707
12:04:30,1,M19,Bowery,-73.993915,40.72028,2094.2211530208588
12:08:30,1,M20,Canal St,-73.999892,40.718092,1984.2211530208585
12:08:30,1,M21,Chambers St,-74.003401,40.713243,2071.5490078926086
12:08:30,1,M22,Fulton St,-74.007582,40.710374,2116.320000886917
12:08:30,1,M23,Broad St,-74.011056,40.706476,2181.320000886917
13:09:30,0,N02,8 Av,-74.011719,40.635064,1964.0
13:09:30,0,N03,Fort Hamilton Pkwy,-74.005351,40.631386,1832.0
13:09:30,0,N04,New Utrecht Av,-73.996353,40.624842,1702.0
13:09:30,0,N05,18 Av,-73.990414,40.620671,1601.0
13:09:30,0,N06,20 Av,-73.985026,40.61741,1526.0
13:09:30,0,N07,Bay Pkwy,-73.981848,40.611815,1418.0
13:09:30,0,N08,Kings Hwy,-73.980353,40.603923,1302.0
13:09:30,0,N09,Avenue U,-73.979137,40.597473,1199.0
13:09:30,0,N10,86 St,-73.97823,40.592721,1129.0
12:04:30,0,Q01,Canal St,-74.00046,40.718383,1728.0
12:04:30,0,Q03,72 St,-73.958424,40.768799,2752.4999999999995
12:04:30,0,Q04,86 St,-73.951787,40.777891,2877.4999999999995
12:04:30,0,Q05,96 St,-73.947152,40.784318,2943.5
12:04:30,0,R01,Astoria-Ditmars Blvd,-73.912034,40.775036,3511.0123090744028
12:04:30,0,R03,Astoria Blvd,-73.917843,40.770258,3423.0123090744023
12:04:30,0,R04,30 Av,-73.921479,40.766779,3318.0123090744023
12:04:30,0,R05,Broadway,-73.925508,40.76182,3238.012309074402
12:04:30,0,R06,36 Av,-73.929575,40.756804,3133.012309074402
12:04:30,0,R08,39 Av-Dutch Kills,-73.932755,40.752882,3018.0123090744023
12:04:30,0,R09,Queensboro Plaza,-73.940202,40.750582,2883.0123090744023
12:04:30,0,R11,Lexington Av/59 St,-73.967258,40.76266,2833.7168951034546
12:04:30,0,R13,5 Av/59 St,-73.973347,40.764811,2722.217961311341
12:04:30,0,R14,57 St-7 Av,-73.980658,40.764664,2452.4999999999995
12:08:30,0,R15,49 St,-73.984139,40.759901,2491.5
12:04:30,0,R16,Times Sq-42 St,-73.986754,40.754672,2272.4999999999995
12:04:30,0,R17,34 St-Herald Sq,-73.98795,40.749567,2164.4999999999995
12:26:30,0,R18,28 St,-73.988691,40.745494,2350.2179613113403
12:26:30,0,R19,23 St,-73.989344,40.741303,2294.680849313736
12:04:30,0,R20,14 St-Union Sq,-73.990568,40.735736,1974.9999999999998
12:04:30,0,R21,8 St-NYU,-73.992629,40.730328,2209.0824189186096
12:26:30,1,R22,Prince St,-73.997702,40.724329,2109.080356121063
12:08:30,0,R23,Canal St,-74.001775,40.719527,1994.080356121063
12:08:30,0,R24,City Hall,-74.006978,40.713282,2131.820000886917
12:08:30,0,R25,Cortlandt St,-74.011029,40.710668,2011.8200008869171
12:08:30,0,R26,Rector St,-74.013342,40.70722,1886.8200008869171
12:08:30,0,R27,Whitehall St-South Ferry,-74.012994,40.703087,1821.8200008869171
12:08:30,0,R28,Court St,-73.991777,40.6941,1589.8200008869171
12:08:30,0,R29,Jay St-MetroTech,-73.985942,40.69218,1478.8200008869173
12:04:30,0,R30,DeKalb Av,-73.981824,40.690635,1120.3200008869173
12:26:30,0,R31,Atlantic Av-Barclays Ctr,-73.97881,40.683666,1221.7619032859802
12:26:30,0,R32,Union St,-73.98311,40.677316,1397.922040462494
12:26:30,0,R33,4 Av-9 St,-73.988302,40.670847,1508.9220404624941
12:26:30,0,R34,Prospect Av,-73.992872,40.665414,1623.9220404624941
12:26:30,0,R35,25 St,-73.998091,40.660397,1697.3200008869173
12:04:30,1,R36,36 St,-74.003549,40.655144,1761.7619032859802
12:26:30,0,R39,45 St,-74.010006,40.648939,1929.3200008869171
12:26:30,0,R40,53 St,-74.014034,40.645069,2029.320000886917
12:21:00,1,R41,59 St,-74.017881,40.641362,2036.7619032859802
12:08:30,0,R42,Bay Ridge Av,-74.023377,40.634967,2199.3024435043335
12:08:30,0,R43,77 St,-74.02551,40.629742,2271.3024435043335
12:08:30,0,R44,86 St,-74.028398,40.622687,2436.3024435043335
12:08:30,0,R45,Bay Ridge-95 St,-74.030876,40.616622,2502.302443504334
12:08:30,0,S01,Franklin Av,-73.955827,40.680596,1017.3200008869171
12:08:30,0,S03,Park Pl,-73.957624,40.674772,902.3200008869171
12:08:30,0,S04,Botanic Garden,-73.959245,40.670343,821.3200008869172
