start_time,ntransfers,stop_id,stop_name,stop_lon,stop_lat,duration
13:39:00,1,101,Van Cortlandt Park-242 St,-73.898583,40.889248,4611.969662189485
13:39:00,1,103,238 St,-73.90087,40.884667,4536.969662189485
13:39:00,1,104,231 St,-73.904834,40.878856,4463.969662189485
13:39:00,1,106,Marble Hill-225 St,-73.909831,40.874561,4376.969662189484
13:39:00,1,107,215 St,-73.915279,40.869444,4284.969662189485
13:39:00,1,108,207 St,-73.918822,40.864621,4196.969662189484
13:39:00,1,109,Dyckman St,-73.925536,40.860531,4096.969662189484
13:39:00,1,110,191 St,-73.929412,40.855225,4011.9696621894836
13:39:00,1,111,181 St,-73.933596,40.849505,3918.9696621894836
12:29:00,1,112,168 St-Washington Hts,-73.940133,40.840556,3801.969662189484
13:19:00,1,113,157 St,-73.94489,40.834041,3846.480919361114
12:29:00,1,114,145 St,-73.95036,40.826551,3732.4809193611136
12:29:00,1,115,137 St-City College,-73.953676,40.822008,3638.4809193611136
12:29:00,1,116,125 St,-73.958372,40.815581,3537.4809193611136
12:29:00,1,117,116 St-Columbia University,-73.96411,40.807722,3431.4809193611136
12:29:00,1,118,Cathedral Pkwy (110 St),-73.966847,40.803967,3354.4809193611136
12:29:00,1,119,103 St,-73.968379,40.799446,3275.4809193611136
13:29:00,1,120,96 St,-73.972323,40.793919,2981.4999999999995
12:29:00,1,121,86 St,-73.976218,40.788644,3073.9809193611136
12:29:00,1,122,79 St,-73.979917,40.783934,2989.9809193611136
13:29:00,1,123,72 St,-73.98197,40.778453,2799.4999999999995
12:29:00,1,124,66 St-Lincoln Center,-73.982209,40.77344,2858.5
13:29:00,1,125,59 St-Columbus Circle,-73.981929,40.768247,2776.5
13:29:00,1,126,50 St,-73.983849,40.761728,2674.4999999999995
12:29:00,1,127,Times Sq-42 St,-73.987495,40.75529,2565.4999999999995
13:58:00,1,128,34 St-Penn Station,-73.991057,40.750373,2651.63888835907
12:29:00,1,129,28 St,-73.993365,40.747215,2694.6388883590703
12:29:00,1,130,23 St,-73.995657,40.744081,2625.6388883590703
13:29:00,1,131,18 St,-73.997871,40.74104,2557.6388883590703
13:58:00,1,132,14 St,-74.000201,40.737826,2484.6388883590703
12:03:30,2,133,Christopher St-Sheridan Sq,-74.002906,40.733422,2571.6388883590703
12:03:30,2,134,Houston St,-74.005367,40.728251,2652.6388883590703
12:03:30,2,135,Canal St,-74.006277,40.722854,2737.6388883590703
12:03:30,2,136,Franklin St,-74.006886,40.719318,2803.6388883590703
12:42:30,2,137,Chambers St,-74.009266,40.715478,2580.993228673935
12:03:30,2,138,WTC Cortlandt,-74.012188,40.711835,2671.6351308822627
12:03:30,2,139,Rector St,-74.013783,40.707513,2596.6351308822627
12:03:30,2,142,South Ferry,-74.013664,40.702068,2504.6351308822627
13:58:00,1,201,Wakefield-241 St,-73.85062,40.903125,5298.0
13:58:00,1,204,Nereid Av,-73.854376,40.898379,5087.0
13:58:00,1,205,233 St,-73.857473,40.893193,4955.0
13:58:00,1,206,225 St,-73.860341,40.888022,4859.0
13:58:00,1,207,219 St,-73.862633,40.883895,4777.0
13:58:00,1,208,Gun Hill Rd,-73.866256,40.87785,4668.5
13:58:00,1,209,Burke Av,-73.867164,40.871356,4746.000000000001
13:58:00,1,210,Allerton Av,-73.867352,40.865462,4737.470584869386
13:58:00,1,211,Pelham Pkwy,-73.867615,40.857192,4629.470584869386
13:58:00,1,212,Bronx Park East,-73.868457,40.848828,4508.470584869386
13:58:00,1,213,E 180 St,-73.873488,40.841894,4311.000000000001
13:58:00,1,214,West Farms Sq-E Tremont Av,-73.880049,40.840295,4170.000000000001
13:58:00,1,215,174 St,-73.887734,40.837288,4050.000000000001
13:58:00,1,216,Freeman St,-73.891865,40.829993,3936.0000000000005
13:58:00,1,217,Simpson St,-73.893064,40.824073,3826.000000000001
13:58:00,1,218,Intervale Av,-73.896736,40.822181,3753.000000000001
13:58:00,1,219,Prospect Av,-73.90177,40.819585,3673.0000000000005
13:58:00,1,220,Jackson Av,-73.907807,40.81649,3579.0000000000005
13:58:00,1,221,3 Av-149 St,-73.917757,40.816109,3454.0
13:58:00,1,222,149 St-Grand Concourse,-73.926718,40.81841,3336.0
13:29:00,1,224,135 St,-73.94077,40.814229,3506.999999999999
13:29:00,1,225,125 St,-73.945495,40.807754,3401.999999999999
13:29:00,1,226,116 St,-73.949625,40.802098,3301.9999999999995
13:29:00,1,227,Central Park North (110 St),-73.951822,40.799075,3228.4999999999995
12:03:30,2,228,Park Place,-74.008811,40.713051,2494.993228673935
12:03:30,2,229,Fulton St,-74.006571,40.709416,2385.993228673935
12:03:30,2,230,Wall St,-74.0091,40.706821,2459.993228673935
12:03:30,3,231,Clark St,-73.993086,40.697466,2405.2391300201416
12:03:30,3,232,Borough Hall,-73.989998,40.693219,2317.239130020141
12:33:30,3,233,Hoyt St,-73.985065,40.690545,2404.2391300201416
12:03:30,3,234,Nevins St,-73.980492,40.688246,2437.239130020141
12:03:30,3,235,Atlantic Av-Barclays Ctr,-73.977666,40.684359,2388.0
12:13:30,2,236,Bergen St,-73.975098,40.680829,2448.0
12:13:30,2,237,Grand Army Plaza,-73.971046,40.675235,2349.0
12:13:30,2,238,Eastern Pkwy-Brooklyn Museum,-73.964375,40.671987,2253.0
12:13:30,2,239,Franklin Av-Medgar Evers College,-73.958131,40.670682,2156.0
12:13:30,2,241,President St-Medgar Evers College,-73.950683,40.667883,2300.9999999999995
12:13:30,2,242,Sterling St,-73.95085,40.662742,2389.9999999999995
12:13:30,2,243,Winthrop St,-73.9502,40.656652,2477.0
12:13:30,2,244,Church Av,-73.949575,40.650843,2559.0
12:13:30,2,245,Beverly Rd,-73.948959,40.645098,2644.0
12:13:30,2,246,Newkirk Av-Little Haiti,-73.948411,40.639967,2728.9999999999995
12:13:30,2,247,Flatbush Av-Brooklyn College,-73.947642,40.632836,2831.9999999999995
12:13:30,2,248,Nostrand Av,-73.950466,40.669847,2084.6023015975948
12:13:30,2,249,Kingston Av,-73.942161,40.669399,1991.602301597595
12:13:30,2,250,Crown Hts-Utica Av,-73.932942,40.668897,1920.6023015975952
12:13:30,2,251,Sutter Av-Rutland Rd,-73.92261,40.664717,1851.6023015975952
12:13:30,2,252,Saratoga Av,-73.916327,40.661453,1745.6023015975952
12:13:30,2,253,Rockaway Av,-73.908946,40.662549,1657.6023015975952
12:13:30,2,254,Junius St,-73.902447,40.663515,1575.6023015975952
12:33:30,2,255,Pennsylvania Av,-73.894895,40.664635,1673.6023015975952
12:33:30,2,256,Van Siclen Av,-73.889395,40.665449,1749.6023015975952
12:33:30,2,257,New Lots Av,-73.884079,40.666235,1824.888887166977
13:29:00,1,301,Harlem-148 St,-73.93647,40.82388,3748.499999999999
13:29:00,1,302,145 St,-73.936245,40.820421,3641.4999999999995
13:29:00,1,401,Woodlawn,-73.878751,40.886037,4494.0
13:29:00,1,402,Mosholu Pkwy,-73.884655,40.87975,4373.0
13:29:00,1,405,Bedford Park Blvd-Lehman College,-73.890064,40.873412,4268.0
13:29:00,1,406,Kingsbridge Rd,-73.897174,40.86776,4155.0
13:29:00,1,407,Fordham Rd,-73.901034,40.862803,4060.0000000000005
13:29:00,1,408,183 St,-73.903879,40.858407,3977.0
13:29:00,1,409,Burnside Av,-73.907684,40.853453,3880.0000000000005
13:29:00,1,410,176 St,-73.911794,40.84848,3805.0000000000005
13:29:00,1,411,Mt Eden Av,-73.914685,40.844434,3728.0000000000005
13:29:00,1,412,170 St,-73.917791,40.840075,3648.0000000000005
13:29:00,1,413,167 St,-73.9214,40.835537,3560.0
13:29:00,1,414,161 St-Yankee Stadium,-73.925831,40.827994,3431.0
13:29:00,1,415,149 St-Grand Concourse,-73.927351,40.818375,3289.0
13:58:00,1,416,138 St-Grand Concourse,-73.929849,40.813224,3177.25
12:03:30,2,418,Fulton St,-74.009509,40.710368,2391.6667623519897
12:03:30,2,419,Wall St,-74.011862,40.707557,2468.6667623519897
12:03:30,2,420,Bowling Green,-74.014065,40.704817,2542.6701633930206
12:03:30,2,423,Borough Hall,-73.990151,40.692404,2316.503836393356
13:58:00,1,501,Eastchester-Dyre Av,-73.830834,40.8883,5003.470584869385
13:58:00,1,502,Baychester Av,-73.838591,40.878663,4880.000000000001
13:58:00,1,503,Gun Hill Rd,-73.846384,40.869526,4757.470584869386
13:58:00,1,504,Pelham Pkwy,-73.855359,40.858985,4623.470584869385
13:58:00,1,505,Morris Park,-73.860495,40.854364,4537.470584869385
13:29:00,1,601,Pelham Bay Park,-73.828121,40.852462,4585.120688915254
13:29:00,1,602,Buhre Av,-73.832569,40.84681,4449.620688915254
13:29:00,1,603,Middletown Rd,-73.836322,40.843863,4377.620688915253
13:29:00,1,604,Westchester Sq-E Tremont Av,-73.842952,40.839892,4274.620688915253
13:29:00,1,606,Zerega Av,-73.847036,40.836488,4194.120688915253
13:29:00,1,607,Castle Hill Av,-73.851222,40.834255,4126.120688915253
13:29:00,1,608,Parkchester,-73.860816,40.833226,3969.1206889152527
13:29:00,1,609,St Lawrence Av,-73.867618,40.831509,4165.465001106263
13:29:00,1,610,Morrison Av-Soundview,-73.874516,40.829521,4081.465001106263
13:29:00,1,611,Elder Av,-73.879159,40.828584,4013.4650011062627
13:29:00,1,612,Whitlock Av,-73.886283,40.826525,3915.465001106262
13:29:00,1,613,Hunts Point Av,-73.890549,40.820948,3697.6206889152527
13:58:00,1,614,Longwood Av,-73.896435,40.816104,3761.4310333728786
13:58:00,1,615,E 149 St,-73.904098,40.812118,3661.431033372879
13:58:00,1,616,E 143 St-St Mary's St,-73.907657,40.808719,3586.431033372879
13:58:00,1,617,Cypress Av,-73.914042,40.805368,3469.4310333728786
13:58:00,1,618,Brook Av,-73.91924,40.807566,3395.4310333728786
13:58:00,1,619,3 Av-138 St,-73.926138,40.810476,3291.4310333728786
13:58:00,1,621,125 St,-73.937594,40.804138,3004.0
13:29:00,1,622,116 St,-73.941617,40.798629,3005.4310333728786
13:29:00,1,623,110 St,-73.94425,40.79502,2927.4310333728786
13:29:00,1,624,103 St,-73.947478,40.7906,2849.431033372879
13:29:00,1,625,96 St,-73.95107,40.785672,2761.431033372879
13:29:00,1,626,86 St,-73.955589,40.779492,2658.9761898517604
13:29:00,1,627,77 St,-73.959874,40.77362,2559.9761898517604
13:29:00,1,628,68 St-Hunter College,-73.96387,40.768141,2461.9761898517604
12:59:00,1,629,59 St,-73.967967,40.762526,2368.976189851761
13:29:00,1,630,51 St,-73.97192,40.757107,2267.976189851761
13:29:00,1,631,Grand Central-42 St,-73.976848,40.751776,2385.976189851761
13:58:00,1,632,33 St,-73.982076,40.746081,2507.4310333728786
13:58:00,1,633,28 St,-73.984264,40.74307,2575.4310333728786
13:58:00,1,634,23 St,-73.986599,40.739864,2513.2794270515446
13:29:00,1,635,14 St-Union Sq,-73.989951,40.734673,2410.2794270515446
12:33:30,1,636,Astor Pl,-73.99107,40.730054,2489.2794270515446
12:03:30,1,637,Bleecker St,-73.994659,40.725915,2437.2285723686214
12:03:30,1,638,Spring St,-73.997141,40.722301,2425.38234782219
12:13:30,1,639,Canal St,-74.000193,40.718803,2376.38234782219
12:03:30,2,640,Brooklyn Bridge-City Hall,-74.004131,40.713065,2354.9999999999995
12:29:00,1,701,Flushing-Main St,-73.83003,40.7596,2196.772513628006
12:29:00,1,702,Mets-Willets Point,-73.845625,40.754622,2040.7725136280058
12:29:00,1,705,111 St,-73.855334,40.75173,1943.7725136280055
12:29:00,1,706,103 St-Corona Plaza,-73.8627,40.749865,1873.7725136280058
12:29:00,1,707,Junction Blvd,-73.869527,40.749145,1808.7725136280058
12:29:00,1,708,90 St-Elmhurst Av,-73.876613,40.748408,1745.7725136280058
12:29:00,1,709,82 St-Jackson Hts,-73.883697,40.747659,1672.772513628006
12:29:00,1,710,74 St-Broadway,-73.891394,40.746848,1578.9574484825132
12:29:00,1,711,69 St,-73.896403,40.746325,1618.9574484825134
12:29:00,1,712,61 St-Woodside,-73.902984,40.74563,1690.9574484825132
12:29:00,1,713,52 St,-73.912549,40.744149,1778.9574484825132
12:29:00,1,714,46 St-Bliss St,-73.918435,40.743132,1833.9574484825132
12:29:00,1,715,40 St-Lowery St,-73.924016,40.743781,1891.9574484825132
12:29:00,1,716,33 St-Rawson St,-73.930997,40.744587,1957.957448482513
13:29:00,1,718,Queensboro Plaza,-73.940202,40.750582,2052.9999999999995
13:29:00,1,719,Court Sq,-73.945264,40.747023,1967.9999999999998
13:29:00,1,720,Hunters Point Av,-73.948916,40.742216,2055.0
13:29:00,1,721,Vernon Blvd-Jackson Av,-73.953581,40.742626,2076.0
13:29:00,1,723,Grand Central-42 St,-73.976041,40.751431,2279.5
13:29:00,1,724,5 Av,-73.981963,40.753821,2356.5
13:29:00,1,725,Times Sq-42 St,-73.987691,40.755477,2410.5
12:29:00,1,726,34 St-Hudson Yards,-74.00191,40.755882,2540.4999999999995
13:29:00,1,901,Grand Central-42 St,-73.979189,40.752769,2366.5
13:29:00,1,902,Times Sq-42 St,-73.986229,40.755983,2460.5
13:19:00,0,A02,Inwood-207 St,-73.919899,40.868072,4125.480530977249
13:19:00,0,A03,Dyckman St,-73.927271,40.865491,4030.4805309772496
13:19:00,0,A05,190 St,-73.93418,40.859022,3910.4805309772496
13:19:00,0,A06,181 St,-73.937969,40.851695,3793.4805309772496
13:19:00,0,A07,175 St,-73.939704,40.847391,3696.4805309772496
13:19:00,0,A09,168 St,-73.939561,40.840719,3576.4805309772496
12:29:00,0,A10,163 St-Amsterdam Av,-73.939892,40.836013,3523.322634696961
12:29:00,0,A11,155 St,-73.941514,40.830518,3448.322634696961
12:29:00,0,A12,145 St,-73.944216,40.824783,3306.328004598617
12:29:00,0,A14,135 St,-73.947649,40.817894,3213.3226346969604
12:59:00,0,A15,125 St,-73.952343,40.811109,3048.1647384166718
12:29:00,0,A16,116 St,-73.954882,40.805085,3193.3226346969604
12:19:00,0,A17,Cathedral Pkwy (110 St),-73.958161,40.800603,3140.164738416672
12:19:00,0,A18,103 St,-73.961454,40.796092,3075.1647384166718
12:19:00,0,A19,96 St,-73.964696,40.791642,2988.1647384166718
12:19:00,0,A20,86 St,-73.968916,40.785868,2880.1647384166718
12:19:00,0,A21,81 St-Museum of Natural History,-73.972143,40.781433,2775.1647384166718
12:19:00,0,A22,72 St,-73.97641,40.775594,2687.1647384166718
12:59:00,0,A24,59 St-Columbus Circle,-73.981736,40.768296,2564.1647384166718
13:29:00,0,A25,50 St,-73.985984,40.762456,2337.5
13:29:00,0,A27,42 St-Port Authority Bus Terminal,-73.989735,40.757308,2452.5
13:29:00,0,A28,34 St-Penn Station,-73.993391,40.752287,2542.6388883590703
13:29:00,0,A30,23 St,-73.998041,40.745906,2489.6388883590703
12:03:30,1,A31,14 St,-74.00169,40.740893,2409.6388883590703
12:03:30,1,A32,W 4 St-Wash Sq,-74.000495,40.732338,2529.6388883590703
12:03:30,1,A33,Spring St,-74.003739,40.726227,2563.897024154663
12:03:30,1,A34,Canal St,-74.005229,40.720824,2394.7391300201416
12:03:30,1,A36,Chambers St,-74.008585,40.714111,2274.7391300201416
12:03:30,1,A38,Fulton St,-74.007691,40.710197,2168.7391300201416
12:03:30,1,A40,High St,-73.990531,40.699337,1988.7391300201416
12:03:30,1,A41,Jay St-MetroTech,-73.987342,40.692338,1863.7391300201416
12:03:30,1,A42,Hoyt-Schermerhorn Sts,-73.985001,40.688484,1748.7391300201414
12:03:30,1,A43,Lafayette Av,-73.973946,40.686113,1804.0
12:03:30,1,A44,Clinton-Washington Avs,-73.965838,40.683263,1726.0
12:03:30,1,A45,Franklin Av,-73.956848,40.68138,1618.0
12:03:30,1,A46,Nostrand Av,-73.950426,40.680438,1503.7391300201416
12:03:30,1,A47,Kingston-Throop Avs,-73.940858,40.679921,1431.7391300201416
12:03:30,1,A48,Utica Av,-73.930729,40.679364,1323.0
12:52:30,1,A49,Ralph Av,-73.920786,40.678822,1208.0
12:52:30,1,A50,Rockaway Av,-73.911946,40.67834,1103.0
12:03:30,1,A51,Broadway Junction,-73.905316,40.678334,1020.0
12:03:30,1,A52,Liberty Av,-73.896548,40.674542,1147.0
12:03:30,1,A53,Van Siclen Av,-73.890358,40.67271,1252.0
12:03:30,1,A54,Shepherd Av,-73.88075,40.67413,1362.0
12:03:30,1,A55,Euclid Av,-73.872106,40.675377,1408.7391300201416
12:03:30,1,A57,Grant Av,-73.86505,40.677044,1518.7391300201416
12:03:30,1,A59,80 St,-73.858992,40.679371,1630.7391300201416
12:03:30,1,A60,88 St,-73.85147,40.679843,1712.7391300201416
12:03:30,1,A61,Rockaway Blvd,-73.843853,40.680429,1827.7391300201416
12:03:30,1,A63,104 St,-73.837683,40.681711,1909.0359678268435
13:02:30,1,A64,111 St,-73.832163,40.684331,1984.0359678268437
13:02:30,1,A65,Ozone Park-Lefferts Blvd,-73.825798,40.685951,2073.739130020142
13:29:00,0,B04,21 St-Queensbridge,-73.942836,40.754203,1868.5
13:29:00,0,B06,Roosevelt Island,-73.95326,40.759145,1996.0
13:29:00,0,B08,Lexington Av/63 St,-73.966113,40.764629,2146.0
13:29:00,0,B10,57 St,-73.97745,40.763972,2296.0
12:03:30,0,B12,9 Av,-73.994324,40.646292,3170.130433797836
12:03:30,0,B13,Fort Hamilton Pkwy,-73.994304,40.640914,3297.578753471375
12:03:30,0,B14,50 St,-73.994791,40.63626,3367.5787534713745
12:03:30,0,B15,55 St,-73.995476,40.631435,3477.578753471375
12:03:30,0,B16,62 St,-73.996895,40.626472,3537.578753471375
12:03:30,0,B17,71 St,-73.998864,40.619589,3647.578753471375
12:03:30,0,B18,79 St,-74.00061,40.613501,3757.578753471375
12:03:30,0,B19,18 Av,-74.001736,40.607954,3832.578753471375
12:03:30,0,B20,20 Av,-73.998168,40.604556,3907.578753471375
12:03:30,0,B21,Bay Pkwy,-73.993728,40.601875,3935.6400017738342
12:03:30,0,B22,25 Av,-73.986829,40.597704,3828.640001773834
12:03:30,2,B23,Bay 50 St,-73.983765,40.588841,3698.640001773834
12:29:00,0,D01,Norwood-205 St,-73.878855,40.874811,4453.164738416672
12:29:00,0,D03,Bedford Park Blvd,-73.887138,40.873244,4317.164738416672
12:29:00,0,D04,Kingsbridge Rd,-73.893509,40.866978,4200.164738416672
12:29:00,0,D05,Fordham Rd,-73.897749,40.861296,4095.1647384166718
12:29:00,0,D06,182-183 Sts,-73.900741,40.856093,4005.1647384166718
12:59:00,0,D07,Tremont Av,-73.905227,40.85041,3930.1647384166718
12:59:00,0,D08,174-175 Sts,-73.910136,40.8459,3869.6647384166718
12:59:00,0,D09,170 St,-73.9134,40.839306,3782.1647384166713
12:59:00,0,D10,167 St,-73.91844,40.833771,3667.1647384166718
12:59:00,0,D11,161 St-Yankee Stadium,-73.925651,40.827905,3535.6647384166718
12:59:00,0,D12,155 St,-73.938209,40.830135,3413.6647384166718
12:59:00,0,D13,145 St,-73.944216,40.824783,3268.1647384166718
13:29:00,0,D14,7 Av,-73.981637,40.762862,2217.5
13:29:00,0,D15,47-50 Sts-Rockefeller Ctr,-73.981329,40.758663,2386.0
13:29:00,0,D16,42 St-Bryant Pk,-73.984569,40.754222,2476.0
13:29:00,0,D17,34 St-Herald Sq,-73.987823,40.749719,2566.0
13:29:00,0,D18,23 St,-73.992821,40.742878,2568.820707082749
13:29:00,0,D19,14 St,-73.996209,40.738228,2496.9999999999995
12:03:30,0,D20,W 4 St-Wash Sq,-74.000495,40.732338,2391.9999999999995
12:03:30,0,D21,Broadway-Lafayette St,-73.996204,40.725297,2224.9999999999995
12:03:30,0,D22,Grand St,-73.993753,40.718267,2595.2040791511536
12:03:30,2,D24,Atlantic Av-Barclays Ctr,-73.97689,40.68446,2428.9999999999995
12:03:30,2,D25,7 Av,-73.972367,40.67705,2300.9999999999995
12:03:30,2,D26,Prospect Park,-73.962246,40.661614,1997.9999999999998
12:03:30,2,D27,Parkside Av,-73.961495,40.655292,2342.5238089561462
12:03:30,2,D28,Church Av,-73.962982,40.650527,2253.0
12:03:30,2,D29,Beverley Rd,-73.964492,40.644031,2356.6904776096344
12:03:30,2,D30,Cortelyou Rd,-73.963891,40.640927,2426.690477609634
12:03:30,2,D31,Newkirk Plaza,-73.962793,40.635082,2426.0
12:03:30,2,D32,Avenue H,-73.961639,40.62927,2532.320000886917
12:03:30,2,D33,Avenue J,-73.960803,40.625039,2637.320000886917
12:03:30,2,D34,Avenue M,-73.959399,40.617618,2752.3200008869167
12:03:30,2,D35,Kings Hwy,-73.957734,40.60867,2666.0
12:03:30,2,D37,Avenue U,-73.955929,40.5993,2893.0103120803833
12:03:30,2,D38,Neck Rd,-73.955161,40.595246,3005.0103120803833
12:03:30,2,D39,Sheepshead Bay,-73.954155,40.586896,2900.9999999999995
12:03:30,2,D40,Brighton Beach,-73.961376,40.577621,3033.0
12:03:30,2,D41,Ocean Pkwy,-73.968501,40.576312,3261.6400017738342
12:03:30,2,D42,W 8 St-NY Aquarium,-73.975939,40.576127,3376.640001773834
12:03:30,2,D43,Coney Island-Stillwell Av,-73.981233,40.577422,3448.6400017738342
12:42:30,1,E01,World Trade Center,-74.009781,40.712582,2572.531036376953
12:59:00,0,F01,Jamaica-179 St,-73.783817,40.712646,1215.0
12:59:00,0,F02,169 St,-73.793604,40.71047,1156.0
12:59:00,0,F03,Parsons Blvd,-73.803326,40.707564,971.0
12:59:00,0,F04,Sutphin Blvd,-73.810708,40.70546,881.0
12:59:00,0,F05,Briarwood,-73.820574,40.709179,706.0
13:29:00,0,F06,Kew Gardens-Union Tpke,-73.831008,40.714441,816.0
13:29:00,0,F07,75 Av,-73.837324,40.718331,936.0
13:29:00,0,F09,Court Sq-23 St,-73.946,40.747846,1847.9999999999998
13:29:00,0,F11,Lexington Av/53 St,-73.969055,40.757552,2032.5
13:29:00,0,F12,5 Av/53 St,-73.975224,40.760167,2097.5
12:03:30,0,F14,2 Av,-73.989938,40.723402,2254.3518531322475
12:03:30,1,F15,Delancey St-Essex St,-73.988114,40.718611,2134.9999999999995
12:03:30,1,F16,East Broadway,-73.990173,40.713715,2223.351853132248
12:42:30,1,F18,York St,-73.986751,40.701397,2088.7391300201416
12:03:30,1,F20,Bergen St,-73.990862,40.686145,2096.130433797836
12:03:30,1,F21,Carroll St,-73.995048,40.680303,2201.130433797836
12:03:30,1,F22,Smith-9 Sts,-73.995959,40.67358,2337.130433797836
12:03:30,1,F23,4 Av-9 St,-73.989779,40.670272,2412.130433797836
12:03:30,1,F24,7 Av,-73.980305,40.666271,2418.7391300201416
12:03:30,1,F25,15 St-Prospect Park,-73.979493,40.660365,2581.904268980026
12:03:30,1,F26,Fort Hamilton Pkwy,-73.975776,40.650782,2746.904268980026
12:03:30,1,F27,Church Av,-73.979678,40.644041,2658.7391300201416
13:42:30,1,F29,Ditmas Av,-73.978172,40.636119,2778.7391300201416
13:42:30,1,F30,18 Av,-73.976971,40.629755,2898.7391300201416
13:42:30,1,F31,Avenue I,-73.976127,40.625322,2958.7391300201416
13:42:30,1,F32,Bay Pkwy,-73.975264,40.620769,3018.7391300201416
13:42:30,1,F33,Avenue N,-73.974197,40.61514,3138.7391300201416
13:42:30,1,F34,Avenue P,-73.973022,40.608944,3228.7391300201416
13:42:30,1,F35,Kings Hwy,-73.972361,40.603217,3394.099379777909
13:12:30,1,F36,Avenue U,-73.973357,40.596063,3510.8334722518916
13:12:30,1,F38,Avenue X,-73.97425,40.58962,3612.833472251892
13:42:30,1,F39,Neptune Av,-73.974574,40.581011,3688.6400017738342
12:09:00,0,G05,Jamaica Center-Parsons/Archer,-73.801109,40.702147,297.0
12:09:00,0,G06,Sutphin Blvd-Archer Av-JFK Airport,-73.807969,40.700486,231.0
13:29:00,0,G07,Jamaica-Van Wyck,-73.816859,40.702566,586.0
13:29:00,0,G08,Forest Hills-71 Av,-73.844521,40.721691,1006.0
12:29:00,0,G09,67 Av,-73.852719,40.726523,1145.4393048286438
12:29:00,0,G10,63 Dr-Rego Park,-73.861604,40.729846,1260.4393048286438
12:29:00,0,G11,Woodhaven Blvd,-73.869229,40.733106,1362.4393048286438
12:29:00,0,G12,Grand Av-Newtown,-73.877223,40.737015,1468.9999999999998
12:29:00,0,G13,Elmhurst Av,-73.882017,40.742454,1577.439304828644
13:29:00,0,G14,Jackson Hts-Roosevelt Av,-73.891338,40.746644,1367.9999999999998
12:19:00,0,G15,65 St,-73.898453,40.749669,1625.9999999999998
12:19:00,0,G16,Northern Blvd,-73.906006,40.752885,1730.9999999999998
12:19:00,0,G18,46 St,-73.913333,40.756312,1835.0
13:29:00,0,G19,Steinway St,-73.92074,40.756879,1944.9999999999998
13:29:00,0,G20,36 St,-73.928781,40.752039,2065.0
13:29:00,0,G21,Queens Plaza,-73.937243,40.748973,1727.9999999999998
13:19:00,1,G22,Court Sq,-73.943832,40.746554,1907.9999999999998
13:49:00,1,G24,21 St,-73.949724,40.744065,2003.5
13:49:00,1,G26,Greenpoint Av,-73.954449,40.731352,2133.5
13:49:00,1,G28,Nassau Av,-73.951277,40.724635,2158.532671451568
13:49:00,1,G29,Metropolitan Av,-73.951418,40.712792,2028.5326714515686
12:03:30,2,G30,Broadway,-73.950308,40.706092,2143.532671451568
12:03:30,2,G31,Flushing Av,-73.950234,40.700377,2228.532671451568
12:23:30,1,G32,Myrtle-Willoughby Avs,-73.949046,40.694568,2298.532671451568
12:23:30,1,G33,Bedford-Nostrand Avs,-73.953522,40.689627,2334.130433797836
12:23:30,1,G34,Classon Av,-73.96007,40.688873,2259.130433797836
12:23:30,1,G35,Clinton-Washington Avs,-73.966839,40.688089,2186.130433797836
12:23:30,1,G36,Fulton St,-73.975375,40.687119,2091.130433797836
12:52:30,1,H01,Aqueduct Racetrack,-73.834058,40.668234,2014.0359678268437
13:32:30,1,H02,Aqueduct-N Conduit Av,-73.834058,40.668234,2007.7391300201418
13:32:30,1,H03,Howard Beach-JFK Airport,-73.830301,40.660476,2137.7391300201416
13:32:30,1,H04,Broad Channel,-73.815925,40.608382,2559.7391300201416
13:32:30,1,H06,Beach 67 St,-73.796924,40.590927,2849.7391300201416
13:32:30,1,H07,Beach 60 St,-73.788522,40.592374,2962.7391300201416
13:32:30,1,H08,Beach 44 St,-73.776013,40.592943,3077.7391300201416
13:32:30,1,H09,Beach 36 St,-73.768175,40.595398,3178.739130020141
13:32:30,1,H10,Beach 25 St,-73.761353,40.600066,3268.739130020141
13:32:30,1,H11,Far Rockaway-Mott Av,-73.755405,40.603995,3333.7391300201416
12:52:30,1,H12,Beach 90 St,-73.813641,40.588034,2871.0359678268433
12:52:30,1,H13,Beach 98 St,-73.820558,40.585307,2962.5359678268433
12:52:30,1,H14,Beach 105 St,-73.827559,40.583209,3036.5359678268433
12:52:30,1,H15,Rockaway Park-Beach 116 St,-73.835592,40.580903,3147.5359678268437
12:09:00,0,J12,121 St,-73.828294,40.700492,180.0
12:09:00,0,J13,111 St,-73.836345,40.697418,110.0
12:09:00,0,J14,104 St,-73.84433,40.695178,0.0
12:03:30,0,J15,Woodhaven Blvd,-73.851576,40.693879,90.0
12:03:30,0,J16,85 St-Forest Pkwy,-73.86001,40.692435,378.1818187236786
12:03:30,0,J17,75 St-Elderts Ln,-73.867139,40.691324,270.0
12:03:30,0,J19,Cypress Hills,-73.87255,40.689941,558.1818187236786
12:03:30,0,J20,Crescent St,-73.873785,40.683194,420.0
12:03:30,0,J21,Norwood Av,-73.880039,40.68141,510.0
12:03:30,0,J22,Cleveland St,-73.884639,40.679947,734.1818187236786
12:03:30,0,J23,Van Siclen Av,-73.891688,40.678024,660.0
12:03:30,0,J24,Alabama Av,-73.898654,40.676992,720.0
12:03:30,0,J27,Broadway Junction,-73.904512,40.679498,810.0
12:03:30,0,J28,Chauncey St,-73.910456,40.682893,870.0
12:03:30,0,J29,Halsey St,-73.916559,40.68637,1185.0
12:03:30,0,J30,Gates Av,-73.92227,40.68963,1020.0
12:03:30,0,J31,Kosciuszko St,-73.928814,40.693342,1365.0
12:03:30,1,L01,8 Av,-74.002578,40.739777,2349.6388883590703
12:03:30,1,L02,6 Av,-73.996786,40.737335,2274.6388883590703
12:03:30,1,L03,14 St-Union Sq,-73.99073,40.734789,2196.318387269974
12:03:30,1,L05,3 Av,-73.986122,40.732849,2131.318387269974
12:03:30,1,L06,1 Av,-73.981628,40.730953,2101.318387269974
12:03:30,1,L08,Bedford Av,-73.956872,40.717304,1905.3183872699738
12:03:30,1,L10,Lorimer St,-73.950275,40.714063,1815.3183872699738
12:03:30,1,L11,Graham Av,-73.944053,40.714565,1779.3183872699738
12:03:30,1,L12,Grand St,-73.94067,40.711926,1694.3183872699738
12:03:30,1,L13,Montrose Av,-73.93985,40.707739,1646.3183872699738
12:03:30,1,L14,Morgan Av,-73.933147,40.706152,1588.3183872699738
12:03:30,1,L15,Jefferson St,-73.922913,40.706607,1482.63888835907
12:03:30,1,L16,DeKalb Av,-73.918425,40.703811,1416.6388883590698
12:03:30,1,L17,Myrtle-Wyckoff Avs,-73.911586,40.699814,1356.3183872699738
12:03:30,1,L19,Halsey St,-73.904084,40.695602,1296.6388883590698
12:03:30,1,L20,Wilson Av,-73.904046,40.688764,1162.6388883590698
12:03:30,1,L21,Bushwick Av-Aberdeen St,-73.905249,40.682829,1093.6388883590698
12:03:30,1,L22,Broadway Junction,-73.90324,40.678856,1027.6388883590698
12:13:30,1,L24,Atlantic Av,-73.903097,40.675345,1098.6388883590698
12:13:30,1,L25,Sutter Av,-73.901975,40.669367,1178.1388883590698
12:13:30,1,L26,Livonia Av,-73.900571,40.664038,1244.1388883590698
12:13:30,1,L27,New Lots Av,-73.899232,40.658733,1318.3183872699738
12:13:30,1,L28,East 105 St,-73.899485,40.650573,1423.3183872699738
12:03:30,1,L29,Canarsie-Rockaway Pkwy,-73.90185,40.646654,1498.3183872699738
13:32:30,0,M01,Middle Village-Metropolitan Av,-73.889601,40.711396,1946.30877161026
13:12:30,0,M04,Fresh Pond Rd,-73.895877,40.706186,1870.318387269974
13:32:30,0,M05,Forest Av,-73.903077,40.704423,1767.30877161026
13:12:30,0,M06,Seneca Av,-73.90774,40.702762,1665.30877161026
13:12:30,0,M08,Myrtle-Wyckoff Avs,-73.912385,40.69943,1581.3183872699738
12:03:30,0,M09,Knickerbocker Av,-73.919711,40.698664,1530.0000047683716
13:12:30,0,M10,Central Av,-73.927397,40.697857,1450.0000047683716
12:03:30,0,M11,Myrtle Av,-73.935657,40.697207,1200.0
12:42:30,0,M12,Flushing Av,-73.941126,40.70026,1387.441174507141
12:42:30,0,M13,Lorimer St,-73.947408,40.703869,1494.441174507141
12:42:30,0,M14,Hewes St,-73.953431,40.70687,1589.441174507141
12:03:30,0,M16,Marcy Av,-73.957757,40.708359,1460.0
12:03:30,0,M18,Delancey St-Essex St,-73.987437,40.718315,1910.0
12:03:30,0,M19,Bowery,-73.993915,40.72028,2028.8823490142822
12:03:30,0,M20,Canal St,-73.999892,40.718092,2138.8823490142827
12:03:30,0,M21,Chambers St,-74.003401,40.713243,2253.882349014282
12:03:30,0,M22,Fulton St,-74.007582,40.710374,2358.882349014282
12:03:30,0,M23,Broad St,-74.011056,40.706476,2423.8823490142827
12:03:30,0,N02,8 Av,-74.011719,40.635064,3312.194444179535
12:03:30,0,N03,Fort Hamilton Pkwy,-74.005351,40.631386,3392.194444179535
12:03:30,0,N04,New Utrecht Av,-73.996353,40.624842,3512.194444179535
12:03:30,0,N05,18 Av,-73.990414,40.620671,3614.1944441795354
12:03:30,0,N06,20 Av,-73.985026,40.61741,3694.1944441795354
12:03:30,0,N07,Bay Pkwy,-73.981848,40.611815,3794.1944441795354
12:03:30,0,N08,Kings Hwy,-73.980353,40.603923,3894.640001773834
12:03:30,0,N09,Avenue U,-73.979137,40.597473,3791.640001773834
12:03:30,2,N10,86 St,-73.97823,40.592721,3721.640001773834
13:29:00,0,Q01,Canal St,-74.00046,40.718383,2376.38234782219
13:29:00,0,Q03,72 St,-73.958424,40.768799,2626.0
13:29:00,0,Q04,86 St,-73.951787,40.777891,2746.0
13:29:00,0,Q05,96 St,-73.947152,40.784318,2815.2767877578735
13:29:00,0,R01,Astoria-Ditmars Blvd,-73.912034,40.775036,2740.0000016689305
13:29:00,0,R03,Astoria Blvd,-73.917843,40.770258,2652.00000166893
13:29:00,0,R04,30 Av,-73.921479,40.766779,2547.00000166893
13:29:00,0,R05,Broadway,-73.925508,40.76182,2467.0000016689296
13:29:00,0,R06,36 Av,-73.929575,40.756804,2362.0000016689296
13:29:00,0,R08,39 Av-Dutch Kills,-73.932755,40.752882,2247.00000166893
13:29:00,0,R09,Queensboro Plaza,-73.940202,40.750582,2112.00000166893
13:29:00,0,R11,Lexington Av/59 St,-73.967258,40.76266,2315.2767877578735
13:29:00,0,R13,5 Av/59 St,-73.973347,40.764811,2431.276787757873
13:29:00,0,R14,57 St-7 Av,-73.980658,40.764664,2561.0000016689296
13:29:00,0,R15,49 St,-73.984139,40.759901,2655.4999999999995
13:29:00,0,R16,Times Sq-42 St,-73.986754,40.754672,2565.4999999999995
13:29:00,0,R17,34 St-Herald Sq,-73.98795,40.749567,2580.2794270515446
13:29:00,0,R18,28 St,-73.988691,40.745494,2565.2794270515446
13:29:00,0,R19,23 St,-73.989344,40.741303,2490.2794270515446
13:29:00,0,R20,14 St-Union Sq,-73.990568,40.735736,2410.2794270515446
13:29:00,0,R21,8 St-NYU,-73.992629,40.730328,2525.2794270515446
12:03:30,1,R22,Prince St,-73.997702,40.724329,2604.3823478221893
12:03:30,1,R23,Canal St,-74.001775,40.719527,2496.38234782219
12:23:30,2,R24,City Hall,-74.006978,40.713282,2623.739130020141
12:03:30,2,R25,Cortlandt St,-74.011029,40.710668,2503.739130020141
12:23:30,2,R26,Rector St,-74.013342,40.70722,2398.739130020141
12:23:30,2,R27,Whitehall St-South Ferry,-74.012994,40.703087,2317.239130020141
12:23:30,2,R28,Court St,-73.991777,40.6941,2077.239130020141
12:03:30,2,R29,Jay St-MetroTech,-73.985942,40.69218,1998.7391300201416
12:42:30,2,R30,DeKalb Av,-73.981824,40.690635,2112.2391300201416
12:03:30,2,R31,Atlantic Av-Barclays Ctr,-73.97881,40.683666,2283.2391300201416
12:03:30,0,R32,Union St,-73.98311,40.677316,2408.7391300201416
12:03:30,0,R33,4 Av-9 St,-73.988302,40.670847,2525.2391300201416
12:03:30,0,R34,Prospect Av,-73.992872,40.665414,2615.2391300201416
12:03:30,0,R35,25 St,-73.998091,40.660397,2675.2391300201416
12:03:30,0,R36,36 St,-74.003549,40.655144,2795.2391300201416
12:03:30,0,R39,45 St,-74.010006,40.648939,2974.0118584632874
12:03:30,0,R40,53 St,-74.014034,40.645069,3055.239130020142
12:03:30,0,R41,59 St,-74.017881,40.641362,3132.194444179535
12:03:30,0,R42,Bay Ridge Av,-74.023377,40.634967,3294.734984397888
12:03:30,0,R43,77 St,-74.02551,40.629742,3366.7349843978886
12:03:30,0,R44,86 St,-74.028398,40.622687,3508.499997615814
12:03:30,0,R45,Bay Ridge-95 St,-74.030876,40.616622,3588.499997615814
12:03:30,2,S01,Franklin Av,-73.955827,40.680596,1678.0
12:03:30,2,S03,Park Pl,-73.957624,40.674772,1798.0
12:03:30,2,S04,Botanic Garden,-73.959245,40.670343,1928.0
