start_time,ntransfers,stop_id,stop_name,stop_lon,stop_lat,duration
12:29:00,1,101,Van Cortlandt Park-242 St,-73.898583,40.889248,3948.9891312122345
12:29:00,1,103,238 St,-73.90087,40.884667,3873.9891312122345
12:29:00,1,104,231 St,-73.904834,40.878856,3800.9891312122345
12:29:00,1,106,Marble Hill-225 St,-73.909831,40.874561,3713.9891312122345
12:29:00,1,107,215 St,-73.915279,40.869444,3621.9891312122345
12:29:00,1,108,207 St,-73.918822,40.864621,3533.9891312122345
12:29:00,1,109,Dyckman St,-73.925536,40.860531,3433.9891312122345
12:29:00,1,110,191 St,-73.929412,40.855225,3348.9891312122345
12:29:00,1,111,181 St,-73.933596,40.849505,3255.989131212235
12:29:00,1,112,168 St-Washington Hts,-73.940133,40.840556,3138.9891312122345
12:29:00,1,113,157 St,-73.94489,40.834041,3155.8979072570796
12:29:00,1,114,145 St,-73.95036,40.826551,3041.8979072570796
12:29:00,1,115,137 St-City College,-73.953676,40.822008,2947.8979072570796
12:29:00,1,116,125 St,-73.958372,40.815581,2846.8979072570796
12:29:00,1,117,116 St-Columbia University,-73.96411,40.807722,2740.8979072570796
12:29:00,1,118,Cathedral Pkwy (110 St),-73.966847,40.803967,2663.8979072570796
12:29:00,1,119,103 St,-73.968379,40.799446,2584.8979072570796
12:09:00,1,120,96 St,-73.972323,40.793919,2339.9999999999995
12:09:00,1,121,86 St,-73.976218,40.788644,2383.3979072570796
12:09:00,1,122,79 St,-73.979917,40.783934,2299.3979072570796
12:09:00,1,123,72 St,-73.98197,40.778453,2169.0
12:49:00,1,124,66 St-Lincoln Center,-73.982209,40.77344,2249.5000000000005
12:49:00,1,125,59 St-Columbus Circle,-73.981929,40.768247,2167.5000000000005
12:49:00,1,126,50 St,-73.983849,40.761728,2065.5000000000005
12:09:00,1,127,Times Sq-42 St,-73.987495,40.75529,1935.0
12:09:00,1,128,34 St-Penn Station,-73.991057,40.750373,1832.9999999999998
12:24:00,1,129,28 St,-73.993365,40.747215,1875.9999999999998
12:24:00,1,130,23 St,-73.995657,40.744081,1806.9999999999998
12:24:00,1,131,18 St,-73.997871,40.74104,1738.9999999999998
12:24:00,1,132,14 St,-74.000201,40.737826,1666.0
12:09:00,1,133,Christopher St-Sheridan Sq,-74.002906,40.733422,1753.0
12:09:00,1,134,Houston St,-74.005367,40.728251,1834.0
12:09:00,1,135,Canal St,-74.006277,40.722854,1919.0
12:09:00,1,136,Franklin St,-74.006886,40.719318,1985.0000000000002
12:54:00,2,137,Chambers St,-74.009266,40.715478,1909.0
12:24:00,1,138,WTC Cortlandt,-74.012188,40.711835,2068.0307755470276
12:24:00,1,139,Rector St,-74.013783,40.707513,1993.0307755470274
12:24:00,1,142,South Ferry,-74.013664,40.702068,1901.0307755470276
13:44:00,1,201,Wakefield-241 St,-73.85062,40.903125,4763.961039781571
13:44:00,1,204,Nereid Av,-73.854376,40.898379,4552.961039781571
13:44:00,1,205,233 St,-73.857473,40.893193,4420.96103978157
13:44:00,1,206,225 St,-73.860341,40.888022,4324.961039781571
13:44:00,1,207,219 St,-73.862633,40.883895,4242.961039781571
13:44:00,1,208,Gun Hill Rd,-73.866256,40.87785,4134.461039781571
13:44:00,1,209,Burke Av,-73.867164,40.871356,4211.961039781571
13:44:00,1,210,Allerton Av,-73.867352,40.865462,4161.961039781571
13:44:00,1,211,Pelham Pkwy,-73.867615,40.857192,4053.9610397815713
13:44:00,1,212,Bronx Park East,-73.868457,40.848828,3932.9610397815713
13:44:00,1,213,E 180 St,-73.873488,40.841894,3744.961039781571
12:24:00,1,214,West Farms Sq-E Tremont Av,-73.880049,40.840295,3635.9610397815713
12:24:00,1,215,174 St,-73.887734,40.837288,3515.9610397815713
12:24:00,1,216,Freeman St,-73.891865,40.829993,3401.9610397815713
12:24:00,1,217,Simpson St,-73.893064,40.824073,3291.9610397815713
13:44:00,1,218,Intervale Av,-73.896736,40.822181,3218.961039781571
13:44:00,1,219,Prospect Av,-73.90177,40.819585,3138.961039781571
12:24:00,1,220,Jackson Av,-73.907807,40.81649,3042.961039781571
13:44:00,1,221,3 Av-149 St,-73.917757,40.816109,2907.961039781571
12:24:00,1,222,149 St-Grand Concourse,-73.926718,40.81841,2783.9610397815704
12:09:00,1,224,135 St,-73.94077,40.814229,2859.9999999999995
12:09:00,1,225,125 St,-73.945495,40.807754,2754.9999999999995
12:09:00,1,226,116 St,-73.949625,40.802098,2657.9999999999995
12:09:00,1,227,Central Park North (110 St),-73.951822,40.799075,2589.9999999999995
12:54:00,2,228,Park Place,-74.008811,40.713051,1887.3929870128632
12:14:00,2,229,Fulton St,-74.006571,40.709416,1778.3929870128632
13:24:00,2,230,Wall St,-74.0091,40.706821,1843.237803220749
12:34:00,1,231,Clark St,-73.993086,40.697466,1643.237803220749
12:34:00,1,232,Borough Hall,-73.989998,40.693219,1555.2378032207491
12:34:00,1,233,Hoyt St,-73.985065,40.690545,1464.2378032207491
12:34:00,1,234,Nevins St,-73.980492,40.688246,1337.7499988079073
12:34:00,1,235,Atlantic Av-Barclays Ctr,-73.977666,40.684359,1243.7499988079073
12:34:00,1,236,Bergen St,-73.975098,40.680829,1275.4634132385256
12:34:00,1,237,Grand Army Plaza,-73.971046,40.675235,1176.4634132385258
12:34:00,1,238,Eastern Pkwy-Brooklyn Museum,-73.964375,40.671987,1080.4634132385256
12:34:00,1,239,Franklin Av-Medgar Evers College,-73.958131,40.670682,940.7499988079072
12:34:00,1,241,President St-Medgar Evers College,-73.950683,40.667883,1135.249998807907
12:34:00,1,242,Sterling St,-73.95085,40.662742,1223.2499988079069
12:34:00,1,243,Winthrop St,-73.9502,40.656652,1310.2499988079069
12:34:00,1,244,Church Av,-73.949575,40.650843,1392.2499988079069
12:34:00,1,245,Beverly Rd,-73.948959,40.645098,1476.2499988079069
12:34:00,1,246,Newkirk Av-Little Haiti,-73.948411,40.639967,1562.2499988079069
12:34:00,1,247,Flatbush Av-Brooklyn College,-73.947642,40.632836,1682.2499988079069
12:34:00,1,248,Nostrand Av,-73.950466,40.669847,840.4634132385255
12:34:00,1,249,Kingston Av,-73.942161,40.669399,747.4634132385255
12:34:00,1,250,Crown Hts-Utica Av,-73.932942,40.668897,676.4634132385255
12:34:00,1,251,Sutter Av-Rutland Rd,-73.92261,40.664717,605.9999999999999
12:34:00,1,252,Saratoga Av,-73.916327,40.661453,499.99999999999994
12:34:00,1,253,Rockaway Av,-73.908946,40.662549,413.0
12:14:00,1,254,Junius St,-73.902447,40.663515,330.0
12:14:00,1,255,Pennsylvania Av,-73.894895,40.664635,428.0
12:14:00,1,256,Van Siclen Av,-73.889395,40.665449,503.9999999999999
12:14:00,1,257,New Lots Av,-73.884079,40.666235,571.9999999999999
12:09:00,1,301,Harlem-148 St,-73.93647,40.82388,3079.999999999999
12:09:00,1,302,145 St,-73.936245,40.820421,2978.9999999999995
12:04:00,1,401,Woodlawn,-73.878751,40.886037,3965.9610397815713
12:04:00,1,402,Mosholu Pkwy,-73.884655,40.87975,3844.9610397815713
12:04:00,1,405,Bedford Park Blvd-Lehman College,-73.890064,40.873412,3739.961039781571
12:04:00,1,406,Kingsbridge Rd,-73.897174,40.86776,3626.961039781571
12:04:00,1,407,Fordham Rd,-73.901034,40.862803,3531.961039781571
12:04:00,1,408,183 St,-73.903879,40.858407,3448.961039781571
12:04:00,1,409,Burnside Av,-73.907684,40.853453,3351.961039781571
12:04:00,1,410,176 St,-73.911794,40.84848,3276.961039781571
12:04:00,1,411,Mt Eden Av,-73.914685,40.844434,3199.961039781571
12:04:00,1,412,170 St,-73.917791,40.840075,3119.9610397815704
12:04:00,1,413,167 St,-73.9214,40.835537,3031.9610397815704
12:04:00,1,414,161 St-Yankee Stadium,-73.925831,40.827994,2902.9610397815704
12:04:00,1,415,149 St-Grand Concourse,-73.927351,40.818375,2760.9610397815704
12:24:00,1,416,138 St-Grand Concourse,-73.929849,40.813224,2613.9610397815704
12:14:00,2,418,Fulton St,-74.009509,40.710368,1784.066520690918
12:14:00,2,419,Wall St,-74.011862,40.707557,1797.7499988079073
12:14:00,2,420,Bowling Green,-74.014065,40.704817,1722.7499988079073
12:34:00,1,423,Borough Hall,-73.990151,40.692404,1472.7499988079073
13:44:00,1,501,Eastchester-Dyre Av,-73.830834,40.8883,4427.96103978157
13:44:00,1,502,Baychester Av,-73.838591,40.878663,4306.96103978157
13:44:00,1,503,Gun Hill Rd,-73.846384,40.869526,4181.96103978157
13:44:00,1,504,Pelham Pkwy,-73.855359,40.858985,4047.961039781571
13:44:00,1,505,Morris Park,-73.860495,40.854364,3961.9610397815704
12:09:00,1,601,Pelham Bay Park,-73.828121,40.852462,4139.6038982868195
12:09:00,1,602,Buhre Av,-73.832569,40.84681,4004.1038982868195
12:09:00,1,603,Middletown Rd,-73.836322,40.843863,3932.103898286819
13:24:00,1,604,Westchester Sq-E Tremont Av,-73.842952,40.839892,3829.1038982868195
12:09:00,1,606,Zerega Av,-73.847036,40.836488,3748.6038982868195
13:24:00,1,607,Castle Hill Av,-73.851222,40.834255,3680.6038982868195
12:44:00,1,608,Parkchester,-73.860816,40.833226,3523.6038982868195
12:44:00,1,609,St Lawrence Av,-73.867618,40.831509,3719.9482104778285
12:44:00,1,610,Morrison Av-Soundview,-73.874516,40.829521,3635.9482104778285
12:44:00,1,611,Elder Av,-73.879159,40.828584,3567.948210477829
12:44:00,1,612,Whitlock Av,-73.886283,40.826525,3469.948210477829
12:44:00,1,613,Hunts Point Av,-73.890549,40.820948,3252.1038982868195
12:04:00,1,614,Longwood Av,-73.896435,40.816104,3357.449413537979
12:04:00,1,615,E 149 St,-73.904098,40.812118,3257.4494135379796
12:04:00,1,616,E 143 St-St Mary's St,-73.907657,40.808719,3182.4494135379796
12:04:00,1,617,Cypress Av,-73.914042,40.805368,3065.449413537979
12:04:00,1,618,Brook Av,-73.91924,40.807566,2991.449413537979
12:04:00,1,619,3 Av-138 St,-73.926138,40.810476,2887.449413537979
12:24:00,1,621,125 St,-73.937594,40.804138,2469.9610397815704
12:24:00,1,622,116 St,-73.941617,40.798629,2764.1460123062134
12:04:00,1,623,110 St,-73.94425,40.79502,2686.1460123062134
12:04:00,1,624,103 St,-73.947478,40.7906,2608.1460123062134
12:04:00,1,625,96 St,-73.95107,40.785672,2520.1460123062134
12:24:00,1,626,86 St,-73.955589,40.779492,2179.9610397815704
12:04:00,1,627,77 St,-73.959874,40.77362,2360.96103978157
12:04:00,1,628,68 St-Hunter College,-73.96387,40.768141,2268.96103978157
12:24:00,1,629,59 St,-73.967967,40.762526,1986.9610397815702
12:04:00,1,630,51 St,-73.97192,40.757107,2069.9610397815704
12:24:00,1,631,Grand Central-42 St,-73.976848,40.751776,1825.9610397815702
12:14:00,1,632,33 St,-73.982076,40.746081,1832.9610397815702
12:14:00,1,633,28 St,-73.984264,40.74307,1762.9610397815702
12:14:00,1,634,23 St,-73.986599,40.739864,1687.9610397815702
12:09:00,1,635,14 St-Union Sq,-73.989951,40.734673,1584.9610397815702
12:09:00,1,636,Astor Pl,-73.99107,40.730054,1663.9610397815702
12:09:00,1,637,Bleecker St,-73.994659,40.725915,1756.4610397815704
12:09:00,1,638,Spring St,-73.997141,40.722301,1824.4610397815704
12:09:00,1,639,Canal St,-74.000193,40.718803,1905.4610397815704
13:24:00,2,640,Brooklyn Bridge-City Hall,-74.004131,40.713065,1840.9610397815702
12:04:00,2,701,Flushing-Main St,-73.83003,40.7596,2950.7708458900456
12:04:00,2,702,Mets-Willets Point,-73.845625,40.754622,2806.7708458900456
12:04:00,2,705,111 St,-73.855334,40.75173,2849.2454860210414
12:04:00,2,706,103 St-Corona Plaza,-73.8627,40.749865,2738.472972393036
12:04:00,2,707,Junction Blvd,-73.869527,40.749145,2596.7708458900456
12:04:00,2,708,90 St-Elmhurst Av,-73.876613,40.748408,2597.472972393036
12:04:00,2,709,82 St-Jackson Hts,-73.883697,40.747659,2527.4729723930363
12:04:00,2,710,74 St-Broadway,-73.891394,40.746848,2363.4729723930363
12:04:00,2,711,69 St,-73.896403,40.746325,2323.4729723930363
12:04:00,2,712,61 St-Woodside,-73.902984,40.74563,2251.472972393036
12:04:00,2,713,52 St,-73.912549,40.744149,2163.472972393036
12:04:00,2,714,46 St-Bliss St,-73.918435,40.743132,2108.4729723930363
12:04:00,2,715,40 St-Lowery St,-73.924016,40.743781,2050.472972393036
12:04:00,2,716,33 St-Rawson St,-73.930997,40.744587,1984.472972393036
12:04:00,2,718,Queensboro Plaza,-73.940202,40.750582,1878.472972393036
12:04:00,2,719,Court Sq,-73.945264,40.747023,1793.472972393036
12:04:00,2,720,Hunters Point Av,-73.948916,40.742216,1880.472972393036
12:24:00,2,721,Vernon Blvd-Jackson Av,-73.953581,40.742626,1901.472972393036
12:04:00,2,723,Grand Central-42 St,-73.976041,40.751431,1946.9610397815704
12:04:00,2,724,5 Av,-73.981963,40.753821,2000.9610397815704
12:04:00,2,725,Times Sq-42 St,-73.987691,40.755477,1956.5
12:04:00,2,726,34 St-Hudson Yards,-74.00191,40.755882,2086.5
12:04:00,2,901,Grand Central-42 St,-73.979189,40.752769,1886.9610397815704
12:04:00,2,902,Times Sq-42 St,-73.986229,40.755983,1896.5
13:14:00,1,A02,Inwood-207 St,-73.919899,40.868072,3462.5000000000005
12:29:00,1,A03,Dyckman St,-73.927271,40.865491,3367.5000000000005
12:29:00,1,A05,190 St,-73.93418,40.859022,3247.5000000000005
12:29:00,1,A06,181 St,-73.937969,40.851695,3130.5000000000005
12:29:00,1,A07,175 St,-73.939704,40.847391,3033.5
12:09:00,1,A09,168 St,-73.939561,40.840719,2913.5
13:14:00,1,A10,163 St-Amsterdam Av,-73.939892,40.836013,2950.657896280289
13:14:00,1,A11,155 St,-73.941514,40.830518,2875.657896280289
12:09:00,1,A12,145 St,-73.944216,40.824783,2675.5
13:14:00,1,A14,135 St,-73.947649,40.817894,2595.5
12:09:00,1,A15,125 St,-73.952343,40.811109,2475.5
12:09:00,1,A16,116 St,-73.954882,40.805085,2620.6578962802887
12:09:00,1,A17,Cathedral Pkwy (110 St),-73.958161,40.800603,2685.5000000000005
12:09:00,1,A18,103 St,-73.961454,40.796092,2611.0000000000005
12:09:00,1,A19,96 St,-73.964696,40.791642,2531.0
12:09:00,1,A20,86 St,-73.968916,40.785868,2421.5
12:09:00,1,A21,81 St-Museum of Natural History,-73.972143,40.781433,2316.5
12:09:00,1,A22,72 St,-73.97641,40.775594,2221.5
12:09:00,1,A24,59 St-Columbus Circle,-73.981736,40.768296,2003.5
12:09:00,1,A25,50 St,-73.985984,40.762456,1986.5
12:09:00,1,A27,42 St-Port Authority Bus Terminal,-73.989735,40.757308,1836.5
12:09:00,1,A28,34 St-Penn Station,-73.993391,40.752287,1731.5
12:09:00,1,A30,23 St,-73.998041,40.745906,1678.4999999999998
13:24:00,1,A31,14 St,-74.00169,40.740893,1598.5
12:54:00,1,A32,W 4 St-Wash Sq,-74.000495,40.732338,1718.5
12:54:00,1,A33,Spring St,-74.003739,40.726227,1828.4999999999998
12:54:00,1,A34,Canal St,-74.005229,40.720824,1794.1388883590698
12:54:00,1,A36,Chambers St,-74.008585,40.714111,1676.1388883590698
12:54:00,1,A38,Fulton St,-74.007691,40.710197,1561.1388883590698
12:54:00,1,A40,High St,-73.990531,40.699337,1381.1388883590698
12:54:00,1,A41,Jay St-MetroTech,-73.987342,40.692338,1259.1388883590696
12:54:00,1,A42,Hoyt-Schermerhorn Sts,-73.985001,40.688484,1141.1388883590698
12:54:00,1,A43,Lafayette Av,-73.973946,40.686113,1195.9809942245483
12:54:00,1,A44,Clinton-Washington Avs,-73.965838,40.683263,1120.9809942245483
12:54:00,1,A45,Franklin Av,-73.956848,40.68138,1005.9809942245483
12:54:00,1,A46,Nostrand Av,-73.950426,40.680438,831.1388883590698
12:54:00,1,A47,Kingston-Throop Avs,-73.940858,40.679921,825.9809942245483
12:54:00,1,A48,Utica Av,-73.930729,40.679364,664.1388883590698
12:14:00,1,A49,Ralph Av,-73.920786,40.678822,622.1388883590698
12:14:00,1,A50,Rockaway Av,-73.911946,40.67834,517.1388883590698
12:39:00,1,A51,Broadway Junction,-73.905316,40.678334,434.1388883590698
12:04:00,1,A52,Liberty Av,-73.896548,40.674542,561.1388883590698
12:04:00,1,A53,Van Siclen Av,-73.890358,40.67271,666.1388883590698
13:49:00,1,A54,Shepherd Av,-73.88075,40.67413,776.1388883590698
13:44:00,1,A55,Euclid Av,-73.872106,40.675377,733.1388883590698
13:44:00,1,A57,Grant Av,-73.86505,40.677044,853.1388883590698
13:44:00,1,A59,80 St,-73.858992,40.679371,953.1388883590698
13:44:00,1,A60,88 St,-73.85147,40.679843,1058.1388883590698
13:44:00,1,A61,Rockaway Blvd,-73.843853,40.680429,1143.1388883590698
12:54:00,1,A63,104 St,-73.837683,40.681711,1223.1388883590698
13:14:00,1,A64,111 St,-73.832163,40.684331,1298.1388883590698
13:14:00,1,A65,Ozone Park-Lefferts Blvd,-73.825798,40.685951,1403.1388883590698
12:04:00,1,B04,21 St-Queensbridge,-73.942836,40.754203,2551.569737672806
12:04:00,1,B06,Roosevelt Island,-73.95326,40.759145,2379.184049079755
12:19:00,1,B08,Lexington Av/63 St,-73.966113,40.764629,2218.9610397815704
12:09:00,1,B10,57 St,-73.97745,40.763972,2132.184049079755
12:25:30,2,B12,9 Av,-73.994324,40.646292,2243.3500020504002
12:25:30,2,B13,Fort Hamilton Pkwy,-73.994304,40.640914,2353.3500020504002
12:25:30,2,B14,50 St,-73.994791,40.63626,2423.3500020504002
12:25:30,2,B15,55 St,-73.995476,40.631435,2533.3500020504002
12:25:30,2,B16,62 St,-73.996895,40.626472,2593.3500020504002
12:25:30,2,B17,71 St,-73.998864,40.619589,2703.3500020504002
12:25:30,2,B18,79 St,-74.00061,40.613501,2813.3500020504007
12:25:30,2,B19,18 Av,-74.001736,40.607954,2888.3500020504007
12:25:30,2,B20,20 Av,-73.998168,40.604556,2963.3500020504007
12:25:30,2,B21,Bay Pkwy,-73.993728,40.601875,3028.3500020504007
12:25:30,2,B22,25 Av,-73.986829,40.597704,3063.3900005817413
12:25:30,2,B23,Bay 50 St,-73.983765,40.588841,2933.3900005817413
12:09:00,1,D01,Norwood-205 St,-73.878855,40.874811,3964.6352267265315
12:09:00,1,D03,Bedford Park Blvd,-73.887138,40.873244,3821.663266181946
12:09:00,1,D04,Kingsbridge Rd,-73.893509,40.866978,3717.815792560577
12:09:00,1,D05,Fordham Rd,-73.897749,40.861296,3612.815792560577
12:09:00,1,D06,182-183 Sts,-73.900741,40.856093,3522.815792560577
13:39:00,1,D07,Tremont Av,-73.905227,40.85041,3437.663266181946
13:39:00,1,D08,174-175 Sts,-73.910136,40.8459,3327.663266181946
13:39:00,1,D09,170 St,-73.9134,40.839306,3247.663266181946
13:39:00,1,D10,167 St,-73.91844,40.833771,3127.663266181946
13:39:00,1,D11,161 St-Yankee Stadium,-73.925651,40.827905,2990.663266181946
13:39:00,1,D12,155 St,-73.938209,40.830135,2865.663266181946
12:09:00,1,D13,145 St,-73.944216,40.824783,2745.663266181946
12:44:00,1,D14,7 Av,-73.981637,40.762862,2131.5000000000005
12:09:00,1,D15,47-50 Sts-Rockefeller Ctr,-73.981329,40.758663,2039.1818187236784
12:09:00,1,D16,42 St-Bryant Pk,-73.984569,40.754222,1939.1818187236786
12:09:00,1,D17,34 St-Herald Sq,-73.987823,40.749719,1868.0
12:09:00,1,D18,23 St,-73.992821,40.742878,1750.1818187236786
12:54:00,1,D19,14 St,-73.996209,40.738228,1681.0
12:54:00,1,D20,W 4 St-Wash Sq,-74.000495,40.732338,1781.0
12:54:00,1,D21,Broadway-Lafayette St,-73.996204,40.725297,1804.1388883590698
12:14:00,1,D22,Grand St,-73.993753,40.718267,2096.1896121501923
12:09:30,2,D24,Atlantic Av-Barclays Ctr,-73.97689,40.68446,1471.0119020938876
12:09:30,2,D25,7 Av,-73.972367,40.67705,1535.7499988079073
12:09:30,2,D26,Prospect Park,-73.962246,40.661614,1232.7499988079073
12:25:30,2,D27,Parkside Av,-73.961495,40.655292,1577.2738077640533
12:09:30,2,D28,Church Av,-73.962982,40.650527,1487.7499988079073
12:25:30,2,D29,Beverley Rd,-73.964492,40.644031,1591.4404764175417
12:25:30,2,D30,Cortelyou Rd,-73.963891,40.640927,1661.4404764175417
12:09:30,2,D31,Newkirk Plaza,-73.962793,40.635082,1660.749998807907
12:25:30,2,D32,Avenue H,-73.961639,40.62927,1767.0699996948242
12:25:30,2,D33,Avenue J,-73.960803,40.625039,1872.0699996948242
12:25:30,2,D34,Avenue M,-73.959399,40.617618,1987.0699996948244
12:09:30,2,D35,Kings Hwy,-73.957734,40.60867,1900.749998807907
12:09:30,2,D37,Avenue U,-73.955929,40.5993,2127.7603108882904
12:09:30,2,D38,Neck Rd,-73.955161,40.595246,2239.7603108882904
12:09:30,2,D39,Sheepshead Bay,-73.954155,40.586896,2135.749998807907
12:09:30,2,D40,Brighton Beach,-73.961376,40.577621,2267.7499988079076
12:09:30,2,D41,Ocean Pkwy,-73.968501,40.576312,2496.390000581742
12:09:30,2,D42,W 8 St-NY Aquarium,-73.975939,40.576127,2611.3900005817413
12:09:30,2,D43,Coney Island-Stillwell Av,-73.981233,40.577422,2683.390000581742
12:54:00,1,E01,World Trade Center,-74.009781,40.712582,1964.2460300922394
12:34:00,1,F01,Jamaica-179 St,-73.783817,40.712646,2642.1388883590703
12:34:00,1,F02,169 St,-73.793604,40.71047,2583.1388883590703
12:34:00,1,F03,Parsons Blvd,-73.803326,40.707564,2398.13888835907
12:34:00,1,F04,Sutphin Blvd,-73.810708,40.70546,2308.13888835907
12:34:00,1,F05,Briarwood,-73.820574,40.709179,2133.13888835907
13:04:00,1,F06,Kew Gardens-Union Tpke,-73.831008,40.714441,2243.13888835907
13:04:00,1,F07,75 Av,-73.837324,40.718331,2363.13888835907
12:04:00,2,F09,Court Sq-23 St,-73.946,40.747846,1793.472972393036
12:14:00,2,F11,Lexington Av/53 St,-73.969055,40.757552,1977.972972393036
12:24:00,2,F12,5 Av/53 St,-73.975224,40.760167,2042.9729723930361
12:54:00,1,F14,2 Av,-73.989938,40.723402,1846.4907414913177
12:54:00,1,F15,Delancey St-Essex St,-73.988114,40.718611,1727.1388883590698
12:54:00,1,F16,East Broadway,-73.990173,40.713715,1664.1388883590696
12:54:00,1,F18,York St,-73.986751,40.701397,1484.1388883590696
12:54:00,1,F20,Bergen St,-73.990862,40.686145,1493.2371006011963
12:54:00,1,F21,Carroll St,-73.995048,40.680303,1607.6304337978363
12:54:00,1,F22,Smith-9 Sts,-73.995959,40.67358,1733.2371006011963
12:54:00,1,F23,4 Av-9 St,-73.989779,40.670272,1818.6304337978363
12:54:00,1,F24,7 Av,-73.980305,40.666271,1814.1388883590696
12:54:00,1,F25,15 St-Prospect Park,-73.979493,40.660365,1977.3040273189545
12:54:00,1,F26,Fort Hamilton Pkwy,-73.975776,40.650782,2142.3040273189545
12:54:00,1,F27,Church Av,-73.979678,40.644041,2054.13888835907
13:54:00,1,F29,Ditmas Av,-73.978172,40.636119,2174.13888835907
13:54:00,1,F30,18 Av,-73.976971,40.629755,2294.13888835907
13:54:00,1,F31,Avenue I,-73.976127,40.625322,2354.13888835907
13:54:00,1,F32,Bay Pkwy,-73.975264,40.620769,2414.13888835907
13:54:00,1,F33,Avenue N,-73.974197,40.61514,2534.13888835907
13:54:00,1,F34,Avenue P,-73.973022,40.608944,2624.13888835907
13:54:00,1,F35,Kings Hwy,-73.972361,40.603217,2789.499138116837
13:24:00,1,F36,Avenue U,-73.973357,40.596063,2906.2332305908203
12:09:30,2,F38,Avenue X,-73.97425,40.58962,3008.2332305908203
12:09:30,2,F39,Neptune Av,-73.974574,40.581011,2923.390000581742
13:34:00,1,G05,Jamaica Center-Parsons/Archer,-73.801109,40.702147,1724.1388883590698
13:34:00,1,G06,Sutphin Blvd-Archer Av-JFK Airport,-73.807969,40.700486,1664.1388883590698
13:04:00,1,G07,Jamaica-Van Wyck,-73.816859,40.702566,2013.1388883590696
13:04:00,1,G08,Forest Hills-71 Av,-73.844521,40.721691,2433.13888835907
12:04:00,1,G09,67 Av,-73.852719,40.726523,2572.5781931877136
12:04:00,1,G10,63 Dr-Rego Park,-73.861604,40.729846,2687.5781931877136
12:04:00,1,G11,Woodhaven Blvd,-73.869229,40.733106,2626.472972393036
12:04:00,1,G12,Grand Av-Newtown,-73.877223,40.737015,2511.472972393036
12:04:00,1,G13,Elmhurst Av,-73.882017,40.742454,2406.472972393036
12:14:00,2,G14,Jackson Hts-Roosevelt Av,-73.891338,40.746644,2273.472972393036
12:04:00,1,G15,65 St,-73.898453,40.749669,2401.472972393036
12:04:00,2,G16,Northern Blvd,-73.906006,40.752885,2389.1556990919626
12:14:00,2,G18,46 St,-73.913333,40.756312,2299.1556990919626
12:14:00,2,G19,Steinway St,-73.92074,40.756879,2182.248482597118
12:14:00,2,G20,36 St,-73.928781,40.752039,2062.248482597118
12:14:00,2,G21,Queens Plaza,-73.937243,40.748973,1913.472972393036
12:14:00,1,G22,Court Sq,-73.943832,40.746554,1683.2142841815948
12:14:00,1,G24,21 St,-73.949724,40.744065,1618.2142841815948
12:14:00,1,G26,Greenpoint Av,-73.954449,40.731352,1438.2142841815948
12:14:00,1,G28,Nassau Av,-73.951277,40.724635,1333.2142841815948
12:09:00,1,G29,Metropolitan Av,-73.951418,40.712792,1203.2142841815948
12:09:00,1,G30,Broadway,-73.950308,40.706092,1318.2142841815948
12:09:00,1,G31,Flushing Av,-73.950234,40.700377,1403.214284181595
13:19:00,1,G32,Myrtle-Willoughby Avs,-73.949046,40.694568,1473.214284181595
13:19:00,1,G33,Bedford-Nostrand Avs,-73.953522,40.689627,1588.214284181595
13:19:00,1,G34,Classon Av,-73.96007,40.688873,1655.214284181595
13:19:00,1,G35,Clinton-Washington Avs,-73.966839,40.688089,1592.6304337978363
13:19:00,1,G36,Fulton St,-73.975375,40.687119,1493.2371006011963
13:04:00,1,H01,Aqueduct Racetrack,-73.834058,40.668234,1328.1388883590698
13:44:00,1,H02,Aqueduct-N Conduit Av,-73.834058,40.668234,1398.1388883590698
13:44:00,1,H03,Howard Beach-JFK Airport,-73.830301,40.660476,1503.1388883590698
13:44:00,1,H04,Broad Channel,-73.815925,40.608382,1933.1388883590698
13:44:00,1,H06,Beach 67 St,-73.796924,40.590927,2233.13888835907
13:44:00,1,H07,Beach 60 St,-73.788522,40.592374,2343.1388883590703
13:44:00,1,H08,Beach 44 St,-73.776013,40.592943,2458.13888835907
13:44:00,1,H09,Beach 36 St,-73.768175,40.595398,2568.1388883590703
13:44:00,1,H10,Beach 25 St,-73.761353,40.600066,2675.2391300201416
13:44:00,1,H11,Far Rockaway-Mott Av,-73.755405,40.603995,2740.2391300201416
12:24:00,1,H12,Beach 90 St,-73.813641,40.588034,2185.1388883590703
12:24:00,1,H13,Beach 98 St,-73.820558,40.585307,2276.63888835907
12:24:00,1,H14,Beach 105 St,-73.827559,40.583209,2350.6388883590703
12:24:00,1,H15,Rockaway Park-Beach 116 St,-73.835592,40.580903,2461.6388883590703
13:34:00,1,J12,121 St,-73.828294,40.700492,1424.1388883590698
13:34:00,1,J13,111 St,-73.836345,40.697418,1589.1388883590698
13:34:00,1,J14,104 St,-73.84433,40.695178,1244.1388883590698
13:34:00,1,J15,Woodhaven Blvd,-73.851576,40.693879,1154.1388883590698
13:34:00,1,J16,85 St-Forest Pkwy,-73.86001,40.692435,1150.1388883590698
13:34:00,1,J17,75 St-Elderts Ln,-73.867139,40.691324,974.1388883590698
13:34:00,1,J19,Cypress Hills,-73.87255,40.689941,970.1388883590699
13:34:00,1,J20,Crescent St,-73.873785,40.683194,824.1388883590698
13:34:00,1,J21,Norwood Av,-73.880039,40.68141,734.1388883590698
13:34:00,1,J22,Cleveland St,-73.884639,40.679947,706.1388883590698
13:34:00,1,J23,Van Siclen Av,-73.891688,40.678024,584.1388883590698
13:34:00,1,J24,Alabama Av,-73.898654,40.676992,524.1388883590698
12:44:00,1,J27,Broadway Junction,-73.904512,40.679498,434.1388883590698
12:14:00,1,J28,Chauncey St,-73.910456,40.682893,494.1388883590699
12:14:00,1,J29,Halsey St,-73.916559,40.68637,614.1388883590698
12:14:00,1,J30,Gates Av,-73.92227,40.68963,644.1388883590698
12:14:00,1,J31,Kosciuszko St,-73.928814,40.693342,794.1388883590698
12:04:00,0,L01,8 Av,-74.002578,40.739777,1538.5
12:04:00,0,L02,6 Av,-73.996786,40.737335,1456.0
12:04:00,0,L03,14 St-Union Sq,-73.99073,40.734789,1370.9999999999998
12:04:00,0,L05,3 Av,-73.986122,40.732849,1306.0
12:04:00,0,L06,1 Av,-73.981628,40.730953,1276.0
12:04:00,0,L08,Bedford Av,-73.956872,40.717304,1080.0
12:04:00,0,L10,Lorimer St,-73.950275,40.714063,990.0
12:04:00,0,L11,Graham Av,-73.944053,40.714565,954.0
12:04:00,0,L12,Grand St,-73.94067,40.711926,869.0
12:04:00,0,L13,Montrose Av,-73.93985,40.707739,821.0
12:04:00,0,L14,Morgan Av,-73.933147,40.706152,763.0
12:04:00,0,L15,Jefferson St,-73.922913,40.706607,671.5000000000001
12:04:00,0,L16,DeKalb Av,-73.918425,40.703811,605.5000000000001
12:04:00,0,L17,Myrtle-Wyckoff Avs,-73.911586,40.699814,531.0
12:04:00,0,L19,Halsey St,-73.904084,40.695602,485.5000000000001
12:04:00,0,L20,Wilson Av,-73.904046,40.688764,351.50000000000006
12:04:00,0,L21,Bushwick Av-Aberdeen St,-73.905249,40.682829,276.0
12:04:00,0,L22,Broadway Junction,-73.90324,40.678856,216.5
12:04:00,0,L24,Atlantic Av,-73.903097,40.675345,135.0
12:04:00,0,L25,Sutter Av,-73.901975,40.669367,63.0
12:05:30,0,L26,Livonia Av,-73.900571,40.664038,0.0
12:01:30,0,L27,New Lots Av,-73.899232,40.658733,47.0
12:01:30,0,L28,East 105 St,-73.899485,40.650573,152.0
12:01:30,0,L29,Canarsie-Rockaway Pkwy,-73.90185,40.646654,227.0
12:09:00,1,M01,Middle Village-Metropolitan Av,-73.889601,40.711396,1120.990384340286
12:09:00,1,M04,Fresh Pond Rd,-73.895877,40.706186,1045.0
12:09:00,1,M05,Forest Av,-73.903077,40.704423,941.9903843402861
12:09:00,1,M06,Seneca Av,-73.90774,40.702762,839.9903843402863
12:14:00,1,M08,Myrtle-Wyckoff Avs,-73.912385,40.69943,756.0
12:09:00,1,M09,Knickerbocker Av,-73.919711,40.698664,866.0
12:09:00,1,M10,Central Av,-73.927397,40.697857,970.9903843402863
12:14:00,1,M11,Myrtle Av,-73.935657,40.697207,824.1388883590698
12:14:00,1,M12,Flushing Av,-73.941126,40.70026,1011.5800628662109
12:14:00,1,M13,Lorimer St,-73.947408,40.703869,1097.1388883590698
12:14:00,1,M14,Hewes St,-73.953431,40.70687,1199.1388883590698
12:14:00,1,M16,Marcy Av,-73.957757,40.708359,1084.1388883590698
12:14:00,1,M18,Delancey St-Essex St,-73.987437,40.718315,1502.1388883590698
12:14:00,1,M19,Bowery,-73.993915,40.72028,1575.1388883590696
12:14:00,1,M20,Canal St,-73.999892,40.718092,1685.1388883590696
12:14:00,1,M21,Chambers St,-74.003401,40.713243,1800.1388883590696
12:14:00,1,M22,Fulton St,-74.007582,40.710374,1791.9641313552856
12:14:00,1,M23,Broad St,-74.011056,40.706476,1861.9641313552856
12:25:30,2,N02,8 Av,-74.011719,40.635064,2403.7499988079076
12:25:30,2,N03,Fort Hamilton Pkwy,-74.005351,40.631386,2501.3500020504
12:25:30,2,N04,New Utrecht Av,-73.996353,40.624842,2621.3500020504
12:25:30,2,N05,18 Av,-73.990414,40.620671,2723.3500020504002
12:25:30,2,N06,20 Av,-73.985026,40.61741,2803.3500020504002
12:25:30,2,N07,Bay Pkwy,-73.981848,40.611815,2903.3500020504002
12:25:30,2,N08,Kings Hwy,-73.980353,40.603923,3018.3500020504
12:25:30,2,N09,Avenue U,-73.979137,40.597473,3026.3900005817413
12:25:30,2,N10,86 St,-73.97823,40.592721,2956.3900005817413
12:24:00,1,Q01,Canal St,-74.00046,40.718383,1829.9610397815702
12:19:00,1,Q03,72 St,-73.958424,40.768799,2338.9610397815704
12:19:00,1,Q04,86 St,-73.951787,40.777891,2458.9610397815704
12:19:00,1,Q05,96 St,-73.947152,40.784318,2553.461039781571
12:04:00,2,R01,Astoria-Ditmars Blvd,-73.912034,40.775036,2565.472974061967
12:04:00,2,R03,Astoria Blvd,-73.917843,40.770258,2477.4729740619664
12:04:00,2,R04,30 Av,-73.921479,40.766779,2372.4729740619664
12:04:00,2,R05,Broadway,-73.925508,40.76182,2292.472974061966
12:04:00,2,R06,36 Av,-73.929575,40.756804,2187.472974061966
12:04:00,2,R08,39 Av-Dutch Kills,-73.932755,40.752882,2072.4729740619664
12:04:00,2,R09,Queensboro Plaza,-73.940202,40.750582,1937.4729740619662
12:49:00,1,R11,Lexington Av/59 St,-73.967258,40.76266,2172.472974061966
12:49:00,1,R13,5 Av/59 St,-73.973347,40.764811,2196.9610397815704
12:09:00,1,R14,57 St-7 Av,-73.980658,40.764664,2037.9610397815704
12:04:00,1,R15,49 St,-73.984139,40.759901,1979.9610397815702
12:04:00,1,R16,Times Sq-42 St,-73.986754,40.754672,1862.9610397815702
12:04:00,1,R17,34 St-Herald Sq,-73.98795,40.749567,1754.9610397815702
12:04:00,1,R18,28 St,-73.988691,40.745494,1739.9610397815702
12:04:00,1,R19,23 St,-73.989344,40.741303,1664.9610397815702
12:04:00,1,R20,14 St-Union Sq,-73.990568,40.735736,1584.9610397815702
12:04:00,1,R21,8 St-NYU,-73.992629,40.730328,1699.9610397815704
12:04:00,1,R22,Prince St,-73.997702,40.724329,1785.9999999999998
12:04:00,1,R23,Canal St,-74.001775,40.719527,1900.9999999999998
12:34:00,2,R24,City Hall,-74.006978,40.713282,2019.1388883590698
12:04:00,2,R25,Cortlandt St,-74.011029,40.710668,1899.1388883590698
12:34:00,2,R26,Rector St,-74.013342,40.70722,1794.1388883590698
12:34:00,2,R27,Whitehall St-South Ferry,-74.012994,40.703087,1712.6388883590696
12:34:00,2,R28,Court St,-73.991777,40.6941,1472.6388883590696
12:04:00,2,R29,Jay St-MetroTech,-73.985942,40.69218,1394.1388883590696
12:54:00,2,R30,DeKalb Av,-73.981824,40.690635,1497.3531725406647
12:04:00,2,R31,Atlantic Av-Barclays Ctr,-73.97881,40.683666,1475.9999999999998
12:09:30,2,R32,Union St,-73.98311,40.677316,1580.9999999999998
12:09:30,2,R33,4 Av-9 St,-73.988302,40.670847,1692.0
12:09:30,2,R34,Prospect Av,-73.992872,40.665414,1807.0
12:09:30,2,R35,25 St,-73.998091,40.660397,1882.9999999999998
12:25:30,2,R36,36 St,-74.003549,40.655144,1948.7499988079073
12:14:00,2,R39,45 St,-74.010006,40.648939,2119.3500020504
12:14:00,2,R40,53 St,-74.014034,40.645069,2219.3500020504
12:25:30,2,R41,59 St,-74.017881,40.641362,2233.749998807907
12:14:00,2,R42,Bay Ridge Av,-74.023377,40.634967,2396.290539026261
12:14:00,2,R43,77 St,-74.02551,40.629742,2468.290539026261
12:14:00,2,R44,86 St,-74.028398,40.622687,2633.290539026261
12:14:00,2,R45,Bay Ridge-95 St,-74.030876,40.616622,2699.290539026261
12:25:30,2,S01,Franklin Av,-73.955827,40.680596,1065.9809942245483
12:14:00,2,S03,Park Pl,-73.957624,40.674772,1185.9809942245483
12:14:00,2,S04,Botanic Garden,-73.959245,40.670343,1165.749998807907
