start_time,ntransfers,stop_id,stop_name,stop_lon,stop_lat,duration
12:27:30,1,101,Van Cortlandt Park-242 St,-73.898583,40.889248,4029.9891312122345
12:27:30,1,103,238 St,-73.90087,40.884667,3954.9891312122345
12:27:30,1,104,231 St,-73.904834,40.878856,3881.9891312122345
12:27:30,1,106,Marble Hill-225 St,-73.909831,40.874561,3794.989131212234
12:27:30,1,107,215 St,-73.915279,40.869444,3702.989131212234
12:27:30,1,108,207 St,-73.918822,40.864621,3614.989131212234
12:27:30,1,109,Dyckman St,-73.925536,40.860531,3514.989131212234
12:27:30,1,110,191 St,-73.929412,40.855225,3429.9891312122345
12:27:30,1,111,181 St,-73.933596,40.849505,3336.9891312122345
12:27:30,1,112,168 St-Washington Hts,-73.940133,40.840556,3219.9891312122345
12:27:30,1,113,157 St,-73.94489,40.834041,3202.89790725708
12:27:30,1,114,145 St,-73.95036,40.826551,3088.89790725708
12:27:30,1,115,137 St-City College,-73.953676,40.822008,2994.8979072570796
12:27:30,1,116,125 St,-73.958372,40.815581,2893.89790725708
12:27:30,1,117,116 St-Columbia University,-73.96411,40.807722,2787.89790725708
12:27:30,1,118,Cathedral Pkwy (110 St),-73.966847,40.803967,2710.89790725708
12:27:30,1,119,103 St,-73.968379,40.799446,2631.89790725708
12:07:30,1,120,96 St,-73.972323,40.793919,2387.0
12:07:30,1,121,86 St,-73.976218,40.788644,2430.39790725708
12:07:30,1,122,79 St,-73.979917,40.783934,2346.39790725708
12:07:30,1,123,72 St,-73.98197,40.778453,2216.0
12:47:30,1,124,66 St-Lincoln Center,-73.982209,40.77344,2322.961039781571
12:47:30,1,125,59 St-Columbus Circle,-73.981929,40.768247,2240.961039781571
12:47:30,1,126,50 St,-73.983849,40.761728,2138.9610397815704
12:07:30,1,127,Times Sq-42 St,-73.987495,40.75529,1982.0
12:07:30,1,128,34 St-Penn Station,-73.991057,40.750373,1880.0000000000002
12:22:30,1,129,28 St,-73.993365,40.747215,1922.9999999999998
12:22:30,1,130,23 St,-73.995657,40.744081,1854.0
12:22:30,1,131,18 St,-73.997871,40.74104,1786.0
12:22:30,1,132,14 St,-74.000201,40.737826,1713.0
12:07:30,1,133,Christopher St-Sheridan Sq,-74.002906,40.733422,1800.0
12:07:30,1,134,Houston St,-74.005367,40.728251,1881.0
12:07:30,1,135,Canal St,-74.006277,40.722854,1966.0
12:07:30,1,136,Franklin St,-74.006886,40.719318,2032.0
12:12:30,2,137,Chambers St,-74.009266,40.715478,1956.0
12:22:30,1,138,WTC Cortlandt,-74.012188,40.711835,2131.635130882263
12:22:30,1,139,Rector St,-74.013783,40.707513,2056.635130882263
12:22:30,1,142,South Ferry,-74.013664,40.702068,1964.6351308822634
13:42:30,1,201,Wakefield-241 St,-73.85062,40.903125,4810.96103978157
13:42:30,1,204,Nereid Av,-73.854376,40.898379,4599.961039781571
13:42:30,1,205,233 St,-73.857473,40.893193,4467.96103978157
13:42:30,1,206,225 St,-73.860341,40.888022,4371.961039781571
13:42:30,1,207,219 St,-73.862633,40.883895,4289.961039781571
13:42:30,1,208,Gun Hill Rd,-73.866256,40.87785,4181.461039781571
13:42:30,1,209,Burke Av,-73.867164,40.871356,4258.961039781571
13:42:30,1,210,Allerton Av,-73.867352,40.865462,4208.961039781571
13:42:30,1,211,Pelham Pkwy,-73.867615,40.857192,4100.961039781571
13:42:30,1,212,Bronx Park East,-73.868457,40.848828,3979.9610397815713
13:42:30,1,213,E 180 St,-73.873488,40.841894,3791.961039781571
12:22:30,1,214,West Farms Sq-E Tremont Av,-73.880049,40.840295,3682.961039781571
12:22:30,1,215,174 St,-73.887734,40.837288,3562.961039781571
12:22:30,1,216,Freeman St,-73.891865,40.829993,3448.9610397815713
12:22:30,1,217,Simpson St,-73.893064,40.824073,3338.961039781571
13:42:30,1,218,Intervale Av,-73.896736,40.822181,3265.961039781571
13:42:30,1,219,Prospect Av,-73.90177,40.819585,3185.961039781571
12:22:30,1,220,Jackson Av,-73.907807,40.81649,3089.961039781571
13:42:30,1,221,3 Av-149 St,-73.917757,40.816109,2954.961039781571
12:22:30,1,222,149 St-Grand Concourse,-73.926718,40.81841,2830.961039781571
12:07:30,1,224,135 St,-73.94077,40.814229,2906.9999999999995
12:07:30,1,225,125 St,-73.945495,40.807754,2801.9999999999995
12:07:30,1,226,116 St,-73.949625,40.802098,2704.9999999999995
12:07:30,1,227,Central Park North (110 St),-73.951822,40.799075,2636.9999999999995
12:52:30,2,228,Park Place,-74.008811,40.713051,1954.9932286739352
12:12:30,2,229,Fulton St,-74.006571,40.709416,1845.993228673935
13:22:30,2,230,Wall St,-74.0091,40.706821,1901.4878032207487
12:12:30,1,231,Clark St,-73.993086,40.697466,1701.487803220749
12:12:30,1,232,Borough Hall,-73.989998,40.693219,1613.487803220749
12:12:30,1,233,Hoyt St,-73.985065,40.690545,1522.487803220749
12:12:30,1,234,Nevins St,-73.980492,40.688246,1395.999998807907
12:12:30,1,235,Atlantic Av-Barclays Ctr,-73.977666,40.684359,1298.0
12:12:30,1,236,Bergen St,-73.975098,40.680829,1322.4634132385256
12:12:30,1,237,Grand Army Plaza,-73.971046,40.675235,1223.4634132385256
12:12:30,1,238,Eastern Pkwy-Brooklyn Museum,-73.964375,40.671987,1127.4634132385256
12:12:30,1,239,Franklin Av-Medgar Evers College,-73.958131,40.670682,998.9999988079071
12:12:30,1,241,President St-Medgar Evers College,-73.950683,40.667883,1203.4999999999998
12:12:30,1,242,Sterling St,-73.95085,40.662742,1291.4999999999998
12:12:30,1,243,Winthrop St,-73.9502,40.656652,1378.4999999999995
12:12:30,1,244,Church Av,-73.949575,40.650843,1460.4999999999998
12:12:30,1,245,Beverly Rd,-73.948959,40.645098,1544.4999999999995
12:12:30,1,246,Newkirk Av-Little Haiti,-73.948411,40.639967,1630.4999999999995
12:12:30,1,247,Flatbush Av-Brooklyn College,-73.947642,40.632836,1750.4999999999995
12:12:30,1,248,Nostrand Av,-73.950466,40.669847,887.4634132385254
12:12:30,1,249,Kingston Av,-73.942161,40.669399,794.4634132385254
12:12:30,1,250,Crown Hts-Utica Av,-73.932942,40.668897,723.4634132385254
12:12:30,1,251,Sutter Av-Rutland Rd,-73.92261,40.664717,653.0
12:12:30,1,252,Saratoga Av,-73.916327,40.661453,546.9999999999999
12:12:30,1,253,Rockaway Av,-73.908946,40.662549,459.99999999999994
12:12:30,1,254,Junius St,-73.902447,40.663515,377.0
12:32:30,1,255,Pennsylvania Av,-73.894895,40.664635,474.99999999999994
12:32:30,1,256,Van Siclen Av,-73.889395,40.665449,551.0
12:32:30,1,257,New Lots Av,-73.884079,40.666235,619.0
12:07:30,1,301,Harlem-148 St,-73.93647,40.82388,3126.9999999999995
12:07:30,1,302,145 St,-73.936245,40.820421,3026.0
12:02:30,1,401,Woodlawn,-73.878751,40.886037,4012.961039781571
12:02:30,1,402,Mosholu Pkwy,-73.884655,40.87975,3891.9610397815713
12:02:30,1,405,Bedford Park Blvd-Lehman College,-73.890064,40.873412,3786.961039781571
12:02:30,1,406,Kingsbridge Rd,-73.897174,40.86776,3673.961039781571
12:02:30,1,407,Fordham Rd,-73.901034,40.862803,3578.9610397815704
12:02:30,1,408,183 St,-73.903879,40.858407,3495.9610397815704
12:02:30,1,409,Burnside Av,-73.907684,40.853453,3398.9610397815704
12:02:30,1,410,176 St,-73.911794,40.84848,3323.9610397815704
12:02:30,1,411,Mt Eden Av,-73.914685,40.844434,3246.961039781571
12:02:30,1,412,170 St,-73.917791,40.840075,3166.9610397815704
12:02:30,1,413,167 St,-73.9214,40.835537,3078.9610397815704
12:02:30,1,414,161 St-Yankee Stadium,-73.925831,40.827994,2949.9610397815704
12:02:30,1,415,149 St-Grand Concourse,-73.927351,40.818375,2807.9610397815704
12:22:30,1,416,138 St-Grand Concourse,-73.929849,40.813224,2660.961039781571
12:12:30,1,418,Fulton St,-74.009509,40.710368,1851.6667623519897
12:12:30,2,419,Wall St,-74.011862,40.707557,1855.999998807907
12:12:30,1,420,Bowling Green,-74.014065,40.704817,1780.999998807907
12:12:30,1,423,Borough Hall,-73.990151,40.692404,1530.999998807907
13:42:30,1,501,Eastchester-Dyre Av,-73.830834,40.8883,4474.96103978157
13:42:30,1,502,Baychester Av,-73.838591,40.878663,4353.96103978157
13:42:30,1,503,Gun Hill Rd,-73.846384,40.869526,4228.96103978157
13:42:30,1,504,Pelham Pkwy,-73.855359,40.858985,4094.9610397815704
13:42:30,1,505,Morris Park,-73.860495,40.854364,4008.9610397815704
12:07:30,1,601,Pelham Bay Park,-73.828121,40.852462,4186.6038982868195
12:07:30,1,602,Buhre Av,-73.832569,40.84681,4051.103898286819
12:07:30,1,603,Middletown Rd,-73.836322,40.843863,3979.103898286819
13:22:30,1,604,Westchester Sq-E Tremont Av,-73.842952,40.839892,3876.103898286819
12:07:30,1,606,Zerega Av,-73.847036,40.836488,3795.603898286819
13:22:30,1,607,Castle Hill Av,-73.851222,40.834255,3727.6038982868195
12:42:30,1,608,Parkchester,-73.860816,40.833226,3570.603898286819
12:42:30,1,609,St Lawrence Av,-73.867618,40.831509,3766.9482104778285
12:42:30,1,610,Morrison Av-Soundview,-73.874516,40.829521,3682.9482104778285
12:42:30,1,611,Elder Av,-73.879159,40.828584,3614.9482104778285
12:42:30,1,612,Whitlock Av,-73.886283,40.826525,3516.9482104778285
12:42:30,1,613,Hunts Point Av,-73.890549,40.820948,3299.1038982868195
12:02:30,1,614,Longwood Av,-73.896435,40.816104,3404.449413537979
12:02:30,1,615,E 149 St,-73.904098,40.812118,3304.449413537979
12:02:30,1,616,E 143 St-St Mary's St,-73.907657,40.808719,3229.449413537979
12:02:30,1,617,Cypress Av,-73.914042,40.805368,3112.449413537979
12:02:30,1,618,Brook Av,-73.91924,40.807566,3038.449413537979
12:02:30,1,619,3 Av-138 St,-73.926138,40.810476,2934.449413537979
12:22:30,1,621,125 St,-73.937594,40.804138,2516.9610397815704
12:22:30,1,622,116 St,-73.941617,40.798629,2811.146012306213
12:02:30,1,623,110 St,-73.94425,40.79502,2733.1460123062134
12:02:30,1,624,103 St,-73.947478,40.7906,2655.1460123062134
12:02:30,1,625,96 St,-73.95107,40.785672,2567.1460123062134
12:22:30,1,626,86 St,-73.955589,40.779492,2226.9610397815704
12:02:30,1,627,77 St,-73.959874,40.77362,2407.96103978157
12:02:30,1,628,68 St-Hunter College,-73.96387,40.768141,2315.96103978157
12:22:30,1,629,59 St,-73.967967,40.762526,2033.9610397815702
12:02:30,1,630,51 St,-73.97192,40.757107,2116.96103978157
12:22:30,1,631,Grand Central-42 St,-73.976848,40.751776,1872.9610397815704
12:12:30,1,632,33 St,-73.982076,40.746081,1879.9610397815704
12:12:30,1,633,28 St,-73.984264,40.74307,1809.9610397815702
12:12:30,1,634,23 St,-73.986599,40.739864,1734.9610397815702
12:07:30,1,635,14 St-Union Sq,-73.989951,40.734673,1631.9610397815704
12:07:30,1,636,Astor Pl,-73.99107,40.730054,1710.9610397815704
12:07:30,1,637,Bleecker St,-73.994659,40.725915,1803.4610397815704
12:07:30,1,638,Spring St,-73.997141,40.722301,1871.4610397815704
12:07:30,1,639,Canal St,-74.000193,40.718803,1952.4610397815704
12:12:30,2,640,Brooklyn Bridge-City Hall,-74.004131,40.713065,1887.9610397815704
12:02:30,2,701,Flushing-Main St,-73.83003,40.7596,2997.770845890045
12:02:30,2,702,Mets-Willets Point,-73.845625,40.754622,2853.770845890045
12:02:30,2,705,111 St,-73.855334,40.75173,2896.245486021042
12:02:30,2,706,103 St-Corona Plaza,-73.8627,40.749865,2785.4729723930354
12:02:30,2,707,Junction Blvd,-73.869527,40.749145,2643.770845890045
12:02:30,2,708,90 St-Elmhurst Av,-73.876613,40.748408,2644.472972393036
12:02:30,2,709,82 St-Jackson Hts,-73.883697,40.747659,2574.472972393036
12:02:30,2,710,74 St-Broadway,-73.891394,40.746848,2410.472972393036
12:02:30,2,711,69 St,-73.896403,40.746325,2370.4729723930363
12:02:30,2,712,61 St-Woodside,-73.902984,40.74563,2298.472972393036
12:02:30,2,713,52 St,-73.912549,40.744149,2210.472972393036
12:02:30,2,714,46 St-Bliss St,-73.918435,40.743132,2155.472972393036
12:02:30,2,715,40 St-Lowery St,-73.924016,40.743781,2097.472972393036
12:02:30,2,716,33 St-Rawson St,-73.930997,40.744587,2031.472972393036
12:02:30,2,718,Queensboro Plaza,-73.940202,40.750582,1925.472972393036
12:02:30,2,719,Court Sq,-73.945264,40.747023,1840.4729723930361
12:02:30,2,720,Hunters Point Av,-73.948916,40.742216,1927.4729723930361
12:22:30,2,721,Vernon Blvd-Jackson Av,-73.953581,40.742626,1948.4729723930363
12:02:30,2,723,Grand Central-42 St,-73.976041,40.751431,1993.9610397815702
12:02:30,2,724,5 Av,-73.981963,40.753821,2047.9610397815702
12:02:30,2,725,Times Sq-42 St,-73.987691,40.755477,2029.9610397815704
12:02:30,2,726,34 St-Hudson Yards,-74.00191,40.755882,2159.9610397815704
12:02:30,2,901,Grand Central-42 St,-73.979189,40.752769,1933.9610397815702
12:02:30,2,902,Times Sq-42 St,-73.986229,40.755983,1969.9610397815704
13:12:30,1,A02,Inwood-207 St,-73.919899,40.868072,3543.5
12:27:30,1,A03,Dyckman St,-73.927271,40.865491,3448.5
12:27:30,1,A05,190 St,-73.93418,40.859022,3328.5
12:27:30,1,A06,181 St,-73.937969,40.851695,3211.5
12:27:30,1,A07,175 St,-73.939704,40.847391,3114.5
12:07:30,1,A09,168 St,-73.939561,40.840719,2994.5
13:12:30,1,A10,163 St-Amsterdam Av,-73.939892,40.836013,3031.6578962802887
13:12:30,1,A11,155 St,-73.941514,40.830518,2956.6578962802887
12:07:30,1,A12,145 St,-73.944216,40.824783,2756.5
13:12:30,1,A14,135 St,-73.947649,40.817894,2676.4999999999995
12:07:30,1,A15,125 St,-73.952343,40.811109,2556.4999999999995
12:07:30,1,A16,116 St,-73.954882,40.805085,2701.6578962802882
12:07:30,1,A17,Cathedral Pkwy (110 St),-73.958161,40.800603,2766.5000000000005
12:07:30,1,A18,103 St,-73.961454,40.796092,2692.0
12:07:30,1,A19,96 St,-73.964696,40.791642,2612.0
12:07:30,1,A20,86 St,-73.968916,40.785868,2502.4999999999995
12:07:30,1,A21,81 St-Museum of Natural History,-73.972143,40.781433,2397.4999999999995
12:07:30,1,A22,72 St,-73.97641,40.775594,2302.4999999999995
12:07:30,1,A24,59 St-Columbus Circle,-73.981736,40.768296,2084.4999999999995
12:07:30,1,A25,50 St,-73.985984,40.762456,2067.4999999999995
12:07:30,1,A27,42 St-Port Authority Bus Terminal,-73.989735,40.757308,1917.4999999999998
12:07:30,1,A28,34 St-Penn Station,-73.993391,40.752287,1812.4999999999998
12:07:30,1,A30,23 St,-73.998041,40.745906,1759.4999999999998
13:22:30,1,A31,14 St,-74.00169,40.740893,1679.4999999999998
12:52:30,1,A32,W 4 St-Wash Sq,-74.000495,40.732338,1799.4999999999998
12:52:30,1,A33,Spring St,-74.003739,40.726227,1909.4999999999998
12:52:30,1,A34,Canal St,-74.005229,40.720824,1854.7391300201416
12:52:30,1,A36,Chambers St,-74.008585,40.714111,1734.7391300201416
12:52:30,1,A38,Fulton St,-74.007691,40.710197,1628.7391300201416
12:52:30,1,A40,High St,-73.990531,40.699337,1448.7391300201416
12:52:30,1,A41,Jay St-MetroTech,-73.987342,40.692338,1323.7391300201416
12:52:30,1,A42,Hoyt-Schermerhorn Sts,-73.985001,40.688484,1208.7391300201416
12:52:30,1,A43,Lafayette Av,-73.973946,40.686113,1270.1604931354525
12:52:30,1,A44,Clinton-Washington Avs,-73.965838,40.683263,1195.1604931354525
12:52:30,1,A45,Franklin Av,-73.956848,40.68138,1080.1604931354525
12:52:30,1,A46,Nostrand Av,-73.950426,40.680438,905.3183872699738
12:52:30,1,A47,Kingston-Throop Avs,-73.940858,40.679921,891.7391300201416
12:52:30,1,A48,Utica Av,-73.930729,40.679364,738.3183872699738
12:12:30,1,A49,Ralph Av,-73.920786,40.678822,696.3183872699738
12:12:30,1,A50,Rockaway Av,-73.911946,40.67834,591.3183872699738
12:37:30,1,A51,Broadway Junction,-73.905316,40.678334,508.31838726997375
12:02:30,1,A52,Liberty Av,-73.896548,40.674542,635.3183872699738
12:02:30,1,A53,Van Siclen Av,-73.890358,40.67271,740.3183872699738
13:47:30,1,A54,Shepherd Av,-73.88075,40.67413,850.3183872699739
13:42:30,1,A55,Euclid Av,-73.872106,40.675377,807.3183872699738
13:42:30,1,A57,Grant Av,-73.86505,40.677044,927.3183872699738
13:42:30,1,A59,80 St,-73.858992,40.679371,1027.318387269974
13:42:30,1,A60,88 St,-73.85147,40.679843,1132.318387269974
13:42:30,1,A61,Rockaway Blvd,-73.843853,40.680429,1217.318387269974
12:52:30,1,A63,104 St,-73.837683,40.681711,1297.318387269974
13:12:30,1,A64,111 St,-73.832163,40.684331,1372.318387269974
13:12:30,1,A65,Ozone Park-Lefferts Blvd,-73.825798,40.685951,1477.318387269974
12:02:30,1,B04,21 St-Queensbridge,-73.942836,40.754203,2598.569737672806
12:02:30,1,B06,Roosevelt Island,-73.95326,40.759145,2426.184049079755
12:17:30,1,B08,Lexington Av/63 St,-73.966113,40.764629,2265.96103978157
12:07:30,1,B10,57 St,-73.97745,40.763972,2179.184049079755
12:17:30,2,B12,9 Av,-73.994324,40.646292,2299.261682510376
12:17:30,2,B13,Fort Hamilton Pkwy,-73.994304,40.640914,2411.6000020504002
12:17:30,2,B14,50 St,-73.994791,40.63626,2481.6000020504
12:17:30,2,B15,55 St,-73.995476,40.631435,2591.6000020504002
12:17:30,2,B16,62 St,-73.996895,40.626472,2651.6000020504002
12:17:30,2,B17,71 St,-73.998864,40.619589,2761.6000020504002
12:17:30,2,B18,79 St,-74.00061,40.613501,2871.6000020504002
12:17:30,2,B19,18 Av,-74.001736,40.607954,2946.6000020504002
12:17:30,2,B20,20 Av,-73.998168,40.604556,3021.6000020504002
12:17:30,2,B21,Bay Pkwy,-73.993728,40.601875,3086.6000020504007
13:37:30,2,B22,25 Av,-73.986829,40.597704,3121.6400005817413
13:37:30,2,B23,Bay 50 St,-73.983765,40.588841,2991.6400005817413
12:07:30,1,D01,Norwood-205 St,-73.878855,40.874811,4045.635226726532
12:07:30,1,D03,Bedford Park Blvd,-73.887138,40.873244,3902.663266181946
12:07:30,1,D04,Kingsbridge Rd,-73.893509,40.866978,3798.815792560577
12:07:30,1,D05,Fordham Rd,-73.897749,40.861296,3693.815792560577
12:07:30,1,D06,182-183 Sts,-73.900741,40.856093,3603.815792560577
13:37:30,1,D07,Tremont Av,-73.905227,40.85041,3518.663266181946
13:37:30,1,D08,174-175 Sts,-73.910136,40.8459,3408.6632661819453
13:37:30,1,D09,170 St,-73.9134,40.839306,3328.6632661819453
13:37:30,1,D10,167 St,-73.91844,40.833771,3208.6632661819453
13:37:30,1,D11,161 St-Yankee Stadium,-73.925651,40.827905,3071.6632661819453
13:37:30,1,D12,155 St,-73.938209,40.830135,2946.6632661819453
12:07:30,1,D13,145 St,-73.944216,40.824783,2826.6632661819453
12:42:30,1,D14,7 Av,-73.981637,40.762862,2209.9729723930363
12:07:30,1,D15,47-50 Sts-Rockefeller Ctr,-73.981329,40.758663,2086.1818187236786
12:07:30,1,D16,42 St-Bryant Pk,-73.984569,40.754222,1986.1818187236788
12:07:30,1,D17,34 St-Herald Sq,-73.987823,40.749719,1915.0
12:07:30,1,D18,23 St,-73.992821,40.742878,1797.1818187236788
12:52:30,1,D19,14 St,-73.996209,40.738228,1728.0
12:52:30,1,D20,W 4 St-Wash Sq,-74.000495,40.732338,1828.0
12:52:30,1,D21,Broadway-Lafayette St,-73.996204,40.725297,1865.0000000000002
12:12:30,1,D22,Grand St,-73.993753,40.718267,2143.1896121501923
12:12:30,2,D24,Atlantic Av-Barclays Ctr,-73.97689,40.68446,1525.2619032859802
12:12:30,2,D25,7 Av,-73.972367,40.67705,1593.999998807907
12:12:30,2,D26,Prospect Park,-73.962246,40.661614,1290.999998807907
12:12:30,2,D27,Parkside Av,-73.961495,40.655292,1635.5238077640533
12:12:30,2,D28,Church Av,-73.962982,40.650527,1545.999998807907
12:27:30,2,D29,Beverley Rd,-73.964492,40.644031,1649.6904764175415
12:27:30,2,D30,Cortelyou Rd,-73.963891,40.640927,1719.6904764175415
12:12:30,2,D31,Newkirk Plaza,-73.962793,40.635082,1718.999998807907
12:27:30,2,D32,Avenue H,-73.961639,40.62927,1825.3199996948242
12:27:30,2,D33,Avenue J,-73.960803,40.625039,1930.319999694824
12:27:30,2,D34,Avenue M,-73.959399,40.617618,2045.3199996948238
12:12:30,2,D35,Kings Hwy,-73.957734,40.60867,1958.9999988079069
12:12:30,2,D37,Avenue U,-73.955929,40.5993,2186.0103108882904
12:12:30,2,D38,Neck Rd,-73.955161,40.595246,2298.0103108882904
12:12:30,2,D39,Sheepshead Bay,-73.954155,40.586896,2193.9999988079066
12:12:30,2,D40,Brighton Beach,-73.961376,40.577621,2325.999998807907
12:12:30,2,D41,Ocean Pkwy,-73.968501,40.576312,2554.6400005817413
12:12:30,2,D42,W 8 St-NY Aquarium,-73.975939,40.576127,2669.6400005817413
12:12:30,2,D43,Coney Island-Stillwell Av,-73.981233,40.577422,2741.6400005817413
12:52:30,1,E01,World Trade Center,-74.009781,40.712582,2032.5310363769531
12:32:30,1,F01,Jamaica-179 St,-73.783817,40.712646,2716.318387269974
12:32:30,1,F02,169 St,-73.793604,40.71047,2657.3183872699738
12:32:30,1,F03,Parsons Blvd,-73.803326,40.707564,2472.3183872699738
12:32:30,1,F04,Sutphin Blvd,-73.810708,40.70546,2382.3183872699738
12:32:30,1,F05,Briarwood,-73.820574,40.709179,2207.3183872699738
13:02:30,1,F06,Kew Gardens-Union Tpke,-73.831008,40.714441,2317.318387269974
13:02:30,1,F07,75 Av,-73.837324,40.718331,2437.318387269974
12:02:30,2,F09,Court Sq-23 St,-73.946,40.747846,1840.4729723930361
12:12:30,2,F11,Lexington Av/53 St,-73.969055,40.757552,2024.9729723930361
12:22:30,2,F12,5 Av/53 St,-73.975224,40.760167,2089.9729723930363
12:52:30,1,F14,2 Av,-73.989938,40.723402,1907.351853132248
12:52:30,1,F15,Delancey St-Essex St,-73.988114,40.718611,1788.0
12:52:30,1,F16,East Broadway,-73.990173,40.713715,1728.7391300201416
12:52:30,1,F18,York St,-73.986751,40.701397,1548.7391300201416
12:52:30,1,F20,Bergen St,-73.990862,40.686145,1556.1304337978363
12:52:30,1,F21,Carroll St,-73.995048,40.680303,1661.1304337978363
12:52:30,1,F22,Smith-9 Sts,-73.995959,40.67358,1797.1304337978363
12:52:30,1,F23,4 Av-9 St,-73.989779,40.670272,1872.1304337978363
12:52:30,1,F24,7 Av,-73.980305,40.666271,1878.7391300201416
12:52:30,1,F25,15 St-Prospect Park,-73.979493,40.660365,2041.904268980026
12:52:30,1,F26,Fort Hamilton Pkwy,-73.975776,40.650782,2206.904268980026
12:52:30,1,F27,Church Av,-73.979678,40.644041,2118.7391300201416
13:52:30,1,F29,Ditmas Av,-73.978172,40.636119,2238.7391300201416
13:52:30,1,F30,18 Av,-73.976971,40.629755,2358.7391300201416
13:52:30,1,F31,Avenue I,-73.976127,40.625322,2418.7391300201416
13:52:30,1,F32,Bay Pkwy,-73.975264,40.620769,2478.7391300201416
13:52:30,1,F33,Avenue N,-73.974197,40.61514,2598.7391300201416
13:52:30,1,F34,Avenue P,-73.973022,40.608944,2688.7391300201416
13:52:30,1,F35,Kings Hwy,-73.972361,40.603217,2854.099379777909
12:12:30,2,F36,Avenue U,-73.973357,40.596063,2970.8334722518916
12:12:30,2,F38,Avenue X,-73.97425,40.58962,3072.833472251892
12:12:30,2,F39,Neptune Av,-73.974574,40.581011,2981.6400005817413
13:32:30,1,G05,Jamaica Center-Parsons/Archer,-73.801109,40.702147,1798.3183872699738
13:32:30,1,G06,Sutphin Blvd-Archer Av-JFK Airport,-73.807969,40.700486,1738.3183872699738
13:02:30,1,G07,Jamaica-Van Wyck,-73.816859,40.702566,2087.3183872699738
13:02:30,1,G08,Forest Hills-71 Av,-73.844521,40.721691,2507.3183872699738
12:02:30,1,G09,67 Av,-73.852719,40.726523,2646.757692098618
12:02:30,1,G10,63 Dr-Rego Park,-73.861604,40.729846,2761.7576920986176
12:02:30,1,G11,Woodhaven Blvd,-73.869229,40.733106,2673.4729723930354
12:02:30,1,G12,Grand Av-Newtown,-73.877223,40.737015,2558.472972393036
12:02:30,1,G13,Elmhurst Av,-73.882017,40.742454,2453.472972393036
12:12:30,2,G14,Jackson Hts-Roosevelt Av,-73.891338,40.746644,2320.472972393036
12:02:30,1,G15,65 St,-73.898453,40.749669,2448.472972393036
12:02:30,2,G16,Northern Blvd,-73.906006,40.752885,2436.155699091963
12:12:30,2,G18,46 St,-73.913333,40.756312,2346.155699091963
12:12:30,2,G19,Steinway St,-73.92074,40.756879,2229.248482597118
12:12:30,2,G20,36 St,-73.928781,40.752039,2109.248482597118
12:12:30,2,G21,Queens Plaza,-73.937243,40.748973,1960.4729723930361
12:12:30,1,G22,Court Sq,-73.943832,40.746554,1730.2142841815948
12:12:30,1,G24,21 St,-73.949724,40.744065,1665.214284181595
12:12:30,1,G26,Greenpoint Av,-73.954449,40.731352,1485.214284181595
12:12:30,1,G28,Nassau Av,-73.951277,40.724635,1380.214284181595
12:07:30,1,G29,Metropolitan Av,-73.951418,40.712792,1250.2142841815948
12:07:30,1,G30,Broadway,-73.950308,40.706092,1365.214284181595
12:07:30,1,G31,Flushing Av,-73.950234,40.700377,1450.214284181595
13:17:30,1,G32,Myrtle-Willoughby Avs,-73.949046,40.694568,1520.214284181595
13:17:30,1,G33,Bedford-Nostrand Avs,-73.953522,40.689627,1635.2142841815953
13:17:30,1,G34,Classon Av,-73.96007,40.688873,1702.2142841815953
13:17:30,1,G35,Clinton-Washington Avs,-73.966839,40.688089,1646.1304337978363
13:17:30,1,G36,Fulton St,-73.975375,40.687119,1551.1304337978363
13:02:30,1,H01,Aqueduct Racetrack,-73.834058,40.668234,1402.318387269974
13:42:30,1,H02,Aqueduct-N Conduit Av,-73.834058,40.668234,1467.7391300201416
13:42:30,1,H03,Howard Beach-JFK Airport,-73.830301,40.660476,1577.318387269974
13:42:30,1,H04,Broad Channel,-73.815925,40.608382,2007.3183872699738
13:42:30,1,H06,Beach 67 St,-73.796924,40.590927,2307.3183872699738
13:42:30,1,H07,Beach 60 St,-73.788522,40.592374,2417.3183872699738
13:42:30,1,H08,Beach 44 St,-73.776013,40.592943,2532.3183872699738
13:42:30,1,H09,Beach 36 St,-73.768175,40.595398,2638.739130020141
13:42:30,1,H10,Beach 25 St,-73.761353,40.600066,2728.739130020141
13:42:30,1,H11,Far Rockaway-Mott Av,-73.755405,40.603995,2793.7391300201416
12:22:30,1,H12,Beach 90 St,-73.813641,40.588034,2259.3183872699738
12:22:30,1,H13,Beach 98 St,-73.820558,40.585307,2350.8183872699738
12:22:30,1,H14,Beach 105 St,-73.827559,40.583209,2424.8183872699738
12:22:30,1,H15,Rockaway Park-Beach 116 St,-73.835592,40.580903,2535.818387269974
13:32:30,1,J12,121 St,-73.828294,40.700492,1498.3183872699738
13:32:30,1,J13,111 St,-73.836345,40.697418,1663.3183872699738
13:32:30,1,J14,104 St,-73.84433,40.695178,1318.3183872699738
13:32:30,1,J15,Woodhaven Blvd,-73.851576,40.693879,1228.3183872699738
13:32:30,1,J16,85 St-Forest Pkwy,-73.86001,40.692435,1224.3183872699738
13:32:30,1,J17,75 St-Elderts Ln,-73.867139,40.691324,1048.3183872699738
13:32:30,1,J19,Cypress Hills,-73.87255,40.689941,1044.3183872699738
13:32:30,1,J20,Crescent St,-73.873785,40.683194,898.3183872699738
13:32:30,1,J21,Norwood Av,-73.880039,40.68141,808.3183872699738
13:32:30,1,J22,Cleveland St,-73.884639,40.679947,787.1388883590698
13:32:30,1,J23,Van Siclen Av,-73.891688,40.678024,658.3183872699738
13:32:30,1,J24,Alabama Av,-73.898654,40.676992,598.3183872699738
12:42:30,1,J27,Broadway Junction,-73.904512,40.679498,495.0
12:12:30,1,J28,Chauncey St,-73.910456,40.682893,568.3183872699738
12:12:30,1,J29,Halsey St,-73.916559,40.68637,688.3183872699738
12:12:30,1,J30,Gates Av,-73.92227,40.68963,718.3183872699738
12:12:30,1,J31,Kosciuszko St,-73.928814,40.693342,868.3183872699738
12:02:30,0,L01,8 Av,-74.002578,40.739777,1619.4999999999998
12:02:30,0,L02,6 Av,-73.996786,40.737335,1503.0
12:02:30,0,L03,14 St-Union Sq,-73.99073,40.734789,1418.0
12:02:30,0,L05,3 Av,-73.986122,40.732849,1353.0
12:02:30,0,L06,1 Av,-73.981628,40.730953,1323.0
12:02:30,0,L08,Bedford Av,-73.956872,40.717304,1127.0
12:02:30,0,L10,Lorimer St,-73.950275,40.714063,1037.0
12:02:30,0,L11,Graham Av,-73.944053,40.714565,1001.0
12:02:30,0,L12,Grand St,-73.94067,40.711926,916.0
12:02:30,0,L13,Montrose Av,-73.93985,40.707739,867.9999999999999
12:02:30,0,L14,Morgan Av,-73.933147,40.706152,809.9999999999999
12:02:30,0,L15,Jefferson St,-73.922913,40.706607,723.9999999999999
12:02:30,0,L16,DeKalb Av,-73.918425,40.703811,653.9999999999999
12:02:30,0,L17,Myrtle-Wyckoff Avs,-73.911586,40.699814,578.0
12:02:30,0,L19,Halsey St,-73.904084,40.695602,541.0
12:02:30,0,L20,Wilson Av,-73.904046,40.688764,415.99999999999994
12:02:30,0,L21,Bushwick Av-Aberdeen St,-73.905249,40.682829,323.0
12:02:30,0,L22,Broadway Junction,-73.90324,40.678856,270.0
12:02:30,0,L24,Atlantic Av,-73.903097,40.675345,182.0
12:02:30,0,L25,Sutter Av,-73.901975,40.669367,110.00000000000001
12:02:30,0,L26,Livonia Av,-73.900571,40.664038,47.0
12:07:30,0,L27,New Lots Av,-73.899232,40.658733,0.0
12:03:00,0,L28,East 105 St,-73.899485,40.650573,105.0
12:03:00,0,L29,Canarsie-Rockaway Pkwy,-73.90185,40.646654,180.0
12:07:30,1,M01,Middle Village-Metropolitan Av,-73.889601,40.711396,1167.990384340286
12:07:30,1,M04,Fresh Pond Rd,-73.895877,40.706186,1092.0
12:07:30,1,M05,Forest Av,-73.903077,40.704423,988.9903843402863
12:07:30,1,M06,Seneca Av,-73.90774,40.702762,886.9903843402861
12:12:30,1,M08,Myrtle-Wyckoff Avs,-73.912385,40.69943,803.0
12:07:30,1,M09,Knickerbocker Av,-73.919711,40.698664,913.0
12:07:30,1,M10,Central Av,-73.927397,40.697857,1017.9903843402861
12:12:30,1,M11,Myrtle Av,-73.935657,40.697207,898.3183872699738
12:12:30,1,M12,Flushing Av,-73.941126,40.70026,1085.7595617771149
12:12:30,1,M13,Lorimer St,-73.947408,40.703869,1171.3183872699738
12:12:30,1,M14,Hewes St,-73.953431,40.70687,1273.3183872699738
12:12:30,1,M16,Marcy Av,-73.957757,40.708359,1158.3183872699738
12:12:30,1,M18,Delancey St-Essex St,-73.987437,40.718315,1563.0
12:12:30,1,M19,Bowery,-73.993915,40.72028,1636.0
12:12:30,1,M20,Canal St,-73.999892,40.718092,1745.9999999999998
12:12:30,1,M21,Chambers St,-74.003401,40.713243,1861.0
12:12:30,1,M22,Fulton St,-74.007582,40.710374,1853.7391300201416
12:12:30,1,M23,Broad St,-74.011056,40.706476,1918.7391300201416
12:27:30,2,N02,8 Av,-74.011719,40.635064,2458.0
12:27:30,2,N03,Fort Hamilton Pkwy,-74.005351,40.631386,2559.6000020504
12:27:30,2,N04,New Utrecht Av,-73.996353,40.624842,2679.6000020504
12:27:30,2,N05,18 Av,-73.990414,40.620671,2781.6000020504
12:27:30,2,N06,20 Av,-73.985026,40.61741,2861.6000020504002
12:27:30,2,N07,Bay Pkwy,-73.981848,40.611815,2961.6000020504
12:27:30,2,N08,Kings Hwy,-73.980353,40.603923,3076.6000020504
12:27:30,2,N09,Avenue U,-73.979137,40.597473,3084.6400005817413
12:27:30,2,N10,86 St,-73.97823,40.592721,3014.6400005817413
12:22:30,1,Q01,Canal St,-74.00046,40.718383,1876.9610397815704
12:17:30,1,Q03,72 St,-73.958424,40.768799,2385.96103978157
12:17:30,1,Q04,86 St,-73.951787,40.777891,2505.96103978157
12:17:30,1,Q05,96 St,-73.947152,40.784318,2600.4610397815704
12:02:30,2,R01,Astoria-Ditmars Blvd,-73.912034,40.775036,2612.472974061967
12:02:30,2,R03,Astoria Blvd,-73.917843,40.770258,2524.472974061966
12:02:30,2,R04,30 Av,-73.921479,40.766779,2419.472974061966
12:02:30,2,R05,Broadway,-73.925508,40.76182,2339.472974061966
12:02:30,2,R06,36 Av,-73.929575,40.756804,2234.472974061966
12:02:30,2,R08,39 Av-Dutch Kills,-73.932755,40.752882,2119.472974061966
12:02:30,2,R09,Queensboro Plaza,-73.940202,40.750582,1984.4729740619662
12:47:30,1,R11,Lexington Av/59 St,-73.967258,40.76266,2219.472974061966
12:47:30,1,R13,5 Av/59 St,-73.973347,40.764811,2243.9610397815704
12:07:30,1,R14,57 St-7 Av,-73.980658,40.764664,2084.9610397815704
12:02:30,1,R15,49 St,-73.984139,40.759901,2026.9610397815704
12:02:30,1,R16,Times Sq-42 St,-73.986754,40.754672,1909.9610397815704
12:02:30,1,R17,34 St-Herald Sq,-73.98795,40.749567,1801.9610397815704
12:02:30,1,R18,28 St,-73.988691,40.745494,1786.9610397815704
12:02:30,1,R19,23 St,-73.989344,40.741303,1711.9610397815704
12:02:30,1,R20,14 St-Union Sq,-73.990568,40.735736,1631.9610397815704
12:02:30,1,R21,8 St-NYU,-73.992629,40.730328,1746.9610397815704
12:02:30,1,R22,Prince St,-73.997702,40.724329,1832.9999999999998
12:02:30,1,R23,Canal St,-74.001775,40.719527,1947.9999999999998
12:32:30,2,R24,City Hall,-74.006978,40.713282,2079.96103978157
12:02:30,2,R25,Cortlandt St,-74.011029,40.710668,1963.7391300201418
12:32:30,2,R26,Rector St,-74.013342,40.70722,1858.7391300201418
12:32:30,2,R27,Whitehall St-South Ferry,-74.012994,40.703087,1777.2391300201416
12:32:30,2,R28,Court St,-73.991777,40.6941,1537.2391300201416
12:02:30,2,R29,Jay St-MetroTech,-73.985942,40.69218,1458.7391300201416
12:52:30,2,R30,DeKalb Av,-73.981824,40.690635,1571.5326714515686
13:32:30,2,R31,Atlantic Av-Barclays Ctr,-73.97881,40.683666,1523.0
12:12:30,2,R32,Union St,-73.98311,40.677316,1628.0
12:12:30,2,R33,4 Av-9 St,-73.988302,40.670847,1739.0
12:12:30,2,R34,Prospect Av,-73.992872,40.665414,1854.0000000000002
12:12:30,2,R35,25 St,-73.998091,40.660397,1930.0000000000002
12:27:30,2,R36,36 St,-74.003549,40.655144,2003.0
12:12:30,2,R39,45 St,-74.010006,40.648939,2177.6000020504
12:12:30,2,R40,53 St,-74.014034,40.645069,2277.6000020504
12:27:30,2,R41,59 St,-74.017881,40.641362,2288.0
12:12:30,2,R42,Bay Ridge Av,-74.023377,40.634967,2450.5405402183533
12:12:30,2,R43,77 St,-74.02551,40.629742,2522.5405402183537
12:12:30,2,R44,86 St,-74.028398,40.622687,2687.5405402183537
12:52:30,2,R45,Bay Ridge-95 St,-74.030876,40.616622,2753.5405402183537
12:17:30,2,S01,Franklin Av,-73.955827,40.680596,1140.1604931354525
12:17:30,2,S03,Park Pl,-73.957624,40.674772,1260.1604931354525
12:12:30,2,S04,Botanic Garden,-73.959245,40.670343,1223.999998807907
