start_time,ntransfers,stop_id,stop_name,stop_lon,stop_lat,duration
12:01:30,1,101,Van Cortlandt Park-242 St,-73.898583,40.889248,4463.489131212235
12:01:30,1,103,238 St,-73.90087,40.884667,4388.489131212235
12:01:30,1,104,231 St,-73.904834,40.878856,4315.489131212235
12:01:30,1,106,Marble Hill-225 St,-73.909831,40.874561,4228.489131212235
12:01:30,1,107,215 St,-73.915279,40.869444,4136.489131212235
12:01:30,1,108,207 St,-73.918822,40.864621,4048.4891312122354
12:01:30,1,109,Dyckman St,-73.925536,40.860531,3948.4891312122354
12:01:30,1,110,191 St,-73.929412,40.855225,3863.489131212235
12:01:30,1,111,181 St,-73.933596,40.849505,3770.489131212235
12:01:30,1,112,168 St-Washington Hts,-73.940133,40.840556,3653.489131212235
12:01:30,1,113,157 St,-73.94489,40.834041,3631.980919361114
12:01:30,1,114,145 St,-73.95036,40.826551,3517.9809193611145
12:01:30,1,115,137 St-City College,-73.953676,40.822008,3423.980919361114
12:01:30,1,116,125 St,-73.958372,40.815581,3322.9809193611145
12:01:30,1,117,116 St-Columbia University,-73.96411,40.807722,3216.9809193611145
12:01:30,1,118,Cathedral Pkwy (110 St),-73.966847,40.803967,3139.9809193611145
12:01:30,1,119,103 St,-73.968379,40.799446,3060.9809193611145
12:01:30,1,120,96 St,-73.972323,40.793919,2767.0
12:41:30,1,121,86 St,-73.976218,40.788644,2859.480919361114
12:41:30,1,122,79 St,-73.979917,40.783934,2775.4809193611145
12:01:30,1,123,72 St,-73.98197,40.778453,2585.0
12:21:30,1,124,66 St-Lincoln Center,-73.982209,40.77344,2644.0000000000005
12:21:30,1,125,59 St-Columbus Circle,-73.981929,40.768247,2562.0000000000005
12:21:30,1,126,50 St,-73.983849,40.761728,2460.0000000000005
12:01:30,1,127,Times Sq-42 St,-73.987495,40.75529,2351.0
12:01:30,1,128,34 St-Penn Station,-73.991057,40.750373,2450.0
12:01:30,1,129,28 St,-73.993365,40.747215,2527.0000000000005
12:21:30,1,130,23 St,-73.995657,40.744081,2576.961039781571
12:21:30,1,131,18 St,-73.997871,40.74104,2508.961039781571
13:51:00,1,132,14 St,-74.000201,40.737826,2325.5000000000005
13:51:00,1,133,Christopher St-Sheridan Sq,-74.002906,40.733422,2522.961039781571
13:51:00,1,134,Houston St,-74.005367,40.728251,2532.769229888916
13:51:00,1,135,Canal St,-74.006277,40.722854,2447.7692298889165
13:51:00,1,136,Franklin St,-74.006886,40.719318,2381.769229888916
13:51:00,1,137,Chambers St,-74.009266,40.715478,2096.5
12:41:30,1,138,WTC Cortlandt,-74.012188,40.711835,2240.5
12:41:30,1,139,Rector St,-74.013783,40.707513,2165.5
12:41:30,1,142,South Ferry,-74.013664,40.702068,2073.5
12:11:30,1,201,Wakefield-241 St,-73.85062,40.903125,5389.719626903534
12:11:30,1,204,Nereid Av,-73.854376,40.898379,5178.719626903534
12:11:30,1,205,233 St,-73.857473,40.893193,5046.719626903534
12:11:30,1,206,225 St,-73.860341,40.888022,4950.719626903534
12:11:30,1,207,219 St,-73.862633,40.883895,4868.719626903534
12:11:30,1,208,Gun Hill Rd,-73.866256,40.87785,4760.219626903534
12:11:30,1,209,Burke Av,-73.867164,40.871356,4837.719626903534
12:11:30,1,210,Allerton Av,-73.867352,40.865462,4787.719626903535
12:11:30,1,211,Pelham Pkwy,-73.867615,40.857192,4679.719626903535
12:11:30,1,212,Bronx Park East,-73.868457,40.848828,4558.719626903535
12:11:30,1,213,E 180 St,-73.873488,40.841894,4370.719626903535
12:11:30,1,214,West Farms Sq-E Tremont Av,-73.880049,40.840295,4261.719626903535
12:11:30,1,215,174 St,-73.887734,40.837288,4141.719626903535
12:11:30,1,216,Freeman St,-73.891865,40.829993,4027.7196269035344
12:11:30,1,217,Simpson St,-73.893064,40.824073,3917.719626903535
12:11:30,1,218,Intervale Av,-73.896736,40.822181,3844.7196269035344
12:11:30,1,219,Prospect Av,-73.90177,40.819585,3764.7196269035344
12:11:30,1,220,Jackson Av,-73.907807,40.81649,3668.7196269035344
12:11:30,1,221,3 Av-149 St,-73.917757,40.816109,3533.7196269035344
12:11:30,1,222,149 St-Grand Concourse,-73.926718,40.81841,3409.719626903534
12:01:30,1,224,135 St,-73.94077,40.814229,3292.5
12:01:30,1,225,125 St,-73.945495,40.807754,3187.5
12:01:30,1,226,116 St,-73.949625,40.802098,3087.5
12:01:30,1,227,Central Park North (110 St),-73.951822,40.799075,3014.0
13:51:00,1,228,Park Place,-74.008811,40.713051,2008.5
13:51:00,1,229,Fulton St,-74.006571,40.709416,1898.5000000000002
13:51:00,1,230,Wall St,-74.0091,40.706821,1824.5
13:51:00,1,231,Clark St,-73.993086,40.697466,1637.5
13:51:00,1,232,Borough Hall,-73.989998,40.693219,1523.0
13:51:00,1,233,Hoyt St,-73.985065,40.690545,1436.0
13:51:00,1,234,Nevins St,-73.980492,40.688246,1343.0
12:31:30,1,235,Atlantic Av-Barclays Ctr,-73.977666,40.684359,1261.0
12:31:30,1,236,Bergen St,-73.975098,40.680829,1337.0
12:31:30,1,237,Grand Army Plaza,-73.971046,40.675235,1449.9999999999998
12:31:30,1,238,Eastern Pkwy-Brooklyn Museum,-73.964375,40.671987,1559.9999999999998
13:51:00,1,239,Franklin Av-Medgar Evers College,-73.958131,40.670682,1651.0000000000002
13:51:00,1,241,President St-Medgar Evers College,-73.950683,40.667883,1829.9999999999998
13:51:00,1,242,Sterling St,-73.95085,40.662742,1918.9999999999998
13:51:00,1,243,Winthrop St,-73.9502,40.656652,2005.9999999999998
13:51:00,1,244,Church Av,-73.949575,40.650843,2088.0
13:51:00,1,245,Beverly Rd,-73.948959,40.645098,2172.9999999999995
13:51:00,1,246,Newkirk Av-Little Haiti,-73.948411,40.639967,2257.9999999999995
13:51:00,1,247,Flatbush Av-Brooklyn College,-73.947642,40.632836,2360.9999999999995
13:51:00,1,248,Nostrand Av,-73.950466,40.669847,1780.0000000000002
13:51:00,1,249,Kingston Av,-73.942161,40.669399,1872.0000000000005
12:01:30,1,250,Crown Hts-Utica Av,-73.932942,40.668897,1874.6000032424927
13:51:00,1,251,Sutter Av-Rutland Rd,-73.92261,40.664717,2012.6000032424927
13:51:00,1,252,Saratoga Av,-73.916327,40.661453,2115.6000032424927
13:51:00,1,253,Rockaway Av,-73.908946,40.662549,2200.6000032424927
13:51:00,1,254,Junius St,-73.902447,40.663515,2282.6000032424927
13:51:00,1,255,Pennsylvania Av,-73.894895,40.664635,2381.6000032424927
13:51:00,1,256,Van Siclen Av,-73.889395,40.665449,2459.6000032424927
13:51:00,1,257,New Lots Av,-73.884079,40.666235,2532.6000032424927
12:21:30,1,301,Harlem-148 St,-73.93647,40.82388,3534.0
12:21:30,1,302,145 St,-73.936245,40.820421,3427.0
12:31:30,1,401,Woodlawn,-73.878751,40.886037,4591.719626903535
12:31:30,1,402,Mosholu Pkwy,-73.884655,40.87975,4470.719626903535
12:31:30,1,405,Bedford Park Blvd-Lehman College,-73.890064,40.873412,4365.719626903535
12:31:30,1,406,Kingsbridge Rd,-73.897174,40.86776,4252.719626903534
12:31:30,1,407,Fordham Rd,-73.901034,40.862803,4157.719626903535
12:31:30,1,408,183 St,-73.903879,40.858407,4074.7196269035344
12:31:30,1,409,Burnside Av,-73.907684,40.853453,3977.719626903535
12:31:30,1,410,176 St,-73.911794,40.84848,3902.719626903535
12:31:30,1,411,Mt Eden Av,-73.914685,40.844434,3825.7196269035344
12:31:30,1,412,170 St,-73.917791,40.840075,3745.719626903534
12:31:30,1,413,167 St,-73.9214,40.835537,3657.719626903534
12:31:30,1,414,161 St-Yankee Stadium,-73.925831,40.827994,3528.719626903534
12:31:30,1,415,149 St-Grand Concourse,-73.927351,40.818375,3381.843132019044
12:11:30,1,416,138 St-Grand Concourse,-73.929849,40.813224,3239.719626903534
12:01:30,1,418,Fulton St,-74.009509,40.710368,1925.2290070056918
12:01:30,1,419,Wall St,-74.011862,40.707557,1848.2290070056915
12:01:30,1,420,Bowling Green,-74.014065,40.704817,1773.2290070056915
12:01:30,1,423,Borough Hall,-73.990151,40.692404,1508.2290070056915
13:31:30,1,501,Eastchester-Dyre Av,-73.830834,40.8883,5053.719626903534
12:11:30,1,502,Baychester Av,-73.838591,40.878663,4932.719626903534
12:11:30,1,503,Gun Hill Rd,-73.846384,40.869526,4807.719626903534
12:11:30,1,504,Pelham Pkwy,-73.855359,40.858985,4673.719626903534
12:11:30,1,505,Morris Park,-73.860495,40.854364,4587.719626903534
13:11:30,1,601,Pelham Bay Park,-73.828121,40.852462,4765.362485408784
13:11:30,1,602,Buhre Av,-73.832569,40.84681,4629.862485408784
13:11:30,1,603,Middletown Rd,-73.836322,40.843863,4557.862485408784
13:11:30,1,604,Westchester Sq-E Tremont Av,-73.842952,40.839892,4454.862485408783
13:11:30,1,606,Zerega Av,-73.847036,40.836488,4374.362485408783
13:11:30,1,607,Castle Hill Av,-73.851222,40.834255,4306.362485408783
12:31:30,1,608,Parkchester,-73.860816,40.833226,4149.362485408783
12:31:30,1,609,St Lawrence Av,-73.867618,40.831509,4345.706797599794
12:31:30,1,610,Morrison Av-Soundview,-73.874516,40.829521,4261.706797599793
12:31:30,1,611,Elder Av,-73.879159,40.828584,4193.706797599793
12:31:30,1,612,Whitlock Av,-73.886283,40.826525,4095.7067975997925
12:31:30,1,613,Hunts Point Av,-73.890549,40.820948,3877.862485408783
12:11:30,1,614,Longwood Av,-73.896435,40.816104,3983.208000659943
12:11:30,1,615,E 149 St,-73.904098,40.812118,3883.208000659943
12:11:30,1,616,E 143 St-St Mary's St,-73.907657,40.808719,3808.208000659943
12:11:30,1,617,Cypress Av,-73.914042,40.805368,3691.2080006599426
12:11:30,1,618,Brook Av,-73.91924,40.807566,3617.2080006599426
12:11:30,1,619,3 Av-138 St,-73.926138,40.810476,3513.2080006599426
12:11:30,1,621,125 St,-73.937594,40.804138,3095.719626903534
12:11:30,1,622,116 St,-73.941617,40.798629,3358.9999999999995
12:11:30,1,623,110 St,-73.94425,40.79502,3281.0
12:11:30,1,624,103 St,-73.947478,40.7906,3203.0
12:11:30,1,625,96 St,-73.95107,40.785672,3115.0
12:11:30,1,626,86 St,-73.955589,40.779492,2805.719626903534
12:11:30,1,627,77 St,-73.959874,40.77362,2914.9999999999995
12:11:30,1,628,68 St-Hunter College,-73.96387,40.768141,2823.0
12:11:30,1,629,59 St,-73.967967,40.762526,2612.719626903534
12:11:30,1,630,51 St,-73.97192,40.757107,2624.0
12:11:30,1,631,Grand Central-42 St,-73.976848,40.751776,2451.719626903534
12:01:30,1,632,33 St,-73.982076,40.746081,2393.3809540271764
12:01:30,1,633,28 St,-73.984264,40.74307,2325.3809540271764
12:01:30,1,634,23 St,-73.986599,40.739864,2252.3809540271764
12:01:30,1,635,14 St-Union Sq,-73.989951,40.734673,2154.3809540271764
12:01:30,1,636,Astor Pl,-73.99107,40.730054,2082.7893185615544
12:11:30,1,637,Bleecker St,-73.994659,40.725915,1988.789318561554
12:11:30,1,638,Spring St,-73.997141,40.722301,2002.0000000000005
12:01:30,1,639,Canal St,-74.000193,40.718803,1922.0000000000002
12:01:30,1,640,Brooklyn Bridge-City Hall,-74.004131,40.713065,2005.0000000000002
13:51:00,1,701,Flushing-Main St,-73.83003,40.7596,4035.0231511592865
13:41:30,1,702,Mets-Willets Point,-73.845625,40.754622,3891.023151159286
13:41:30,1,705,111 St,-73.855334,40.75173,3906.5
13:41:30,1,706,103 St-Corona Plaza,-73.8627,40.749865,3822.7252776622768
13:41:30,1,707,Junction Blvd,-73.869527,40.749145,3681.0231511592865
13:41:30,1,708,90 St-Elmhurst Av,-73.876613,40.748408,3681.725277662277
13:41:30,1,709,82 St-Jackson Hts,-73.883697,40.747659,3611.725277662277
13:41:30,1,710,74 St-Broadway,-73.891394,40.746848,3447.725277662277
13:41:30,1,711,69 St,-73.896403,40.746325,3407.725277662277
13:41:30,1,712,61 St-Woodside,-73.902984,40.74563,3335.725277662277
13:41:30,1,713,52 St,-73.912549,40.744149,3238.4999999999995
13:41:30,1,714,46 St-Bliss St,-73.918435,40.743132,3182.5
13:41:30,1,715,40 St-Lowery St,-73.924016,40.743781,3128.5
13:41:30,1,716,33 St-Rawson St,-73.930997,40.744587,3059.5
12:01:30,1,718,Queensboro Plaza,-73.940202,40.750582,2911.032969474792
12:01:30,1,719,Court Sq,-73.945264,40.747023,2818.5329694747925
12:01:30,1,720,Hunters Point Av,-73.948916,40.742216,2731.532969474792
12:01:30,1,721,Vernon Blvd-Jackson Av,-73.953581,40.742626,2691.0
12:01:30,1,723,Grand Central-42 St,-73.976041,40.751431,2480.0
12:01:30,1,724,5 Av,-73.981963,40.753821,2414.0
12:01:30,2,725,Times Sq-42 St,-73.987691,40.755477,2351.0
12:01:30,1,726,34 St-Hudson Yards,-74.00191,40.755882,2481.0
12:01:30,1,901,Grand Central-42 St,-73.979189,40.752769,2381.0
12:01:30,1,902,Times Sq-42 St,-73.986229,40.755983,2291.0
13:01:30,0,A02,Inwood-207 St,-73.919899,40.868072,3977.000000000001
12:01:30,1,A03,Dyckman St,-73.927271,40.865491,3882.000000000001
12:01:30,1,A05,190 St,-73.93418,40.859022,3762.0000000000005
12:01:30,1,A06,181 St,-73.937969,40.851695,3645.0000000000005
12:01:30,1,A07,175 St,-73.939704,40.847391,3548.0000000000005
12:01:30,1,A09,168 St,-73.939561,40.840719,3428.0000000000005
12:01:30,1,A10,163 St-Amsterdam Av,-73.939892,40.836013,3449.5000000000005
12:11:30,0,A11,155 St,-73.941514,40.830518,3346.0000000000005
12:01:30,1,A12,145 St,-73.944216,40.824783,3190.0000000000005
12:21:30,0,A14,135 St,-73.947649,40.817894,3110.0
12:51:30,0,A15,125 St,-73.952343,40.811109,2990.0
12:01:30,1,A16,116 St,-73.954882,40.805085,3135.1578962802887
12:01:30,1,A17,Cathedral Pkwy (110 St),-73.958161,40.800603,3137.0
12:01:30,1,A18,103 St,-73.961454,40.796092,3068.000000000001
12:01:30,1,A19,96 St,-73.964696,40.791642,2988.000000000001
12:01:30,1,A20,86 St,-73.968916,40.785868,2878.0000000000005
12:01:30,1,A21,81 St-Museum of Natural History,-73.972143,40.781433,2789.0
12:01:30,1,A22,72 St,-73.97641,40.775594,2694.0
13:01:30,1,A24,59 St-Columbus Circle,-73.981736,40.768296,2518.0
12:01:30,1,A25,50 St,-73.985984,40.762456,2459.0
12:01:30,2,A27,42 St-Port Authority Bus Terminal,-73.989735,40.757308,2351.0
13:41:30,1,A28,34 St-Penn Station,-73.993391,40.752287,2402.560746192932
12:01:30,2,A30,23 St,-73.998041,40.745906,2361.192325592041
13:11:30,1,A31,14 St,-74.00169,40.740893,2269.560746192932
13:11:30,1,A32,W 4 St-Wash Sq,-74.000495,40.732338,2149.560746192932
13:01:30,1,A33,Spring St,-74.003739,40.726227,2263.5607461929317
13:11:30,1,A34,Canal St,-74.005229,40.720824,2170.908730745315
13:11:30,1,A36,Chambers St,-74.008585,40.714111,2042.3506953716276
13:11:30,1,A38,Fulton St,-74.007691,40.710197,1935.3506953716278
13:11:30,1,A40,High St,-73.990531,40.699337,1755.3506953716278
13:21:30,1,A41,Jay St-MetroTech,-73.987342,40.692338,1632.6944465637207
13:31:30,1,A42,Hoyt-Schermerhorn Sts,-73.985001,40.688484,1628.0
12:11:30,1,A43,Lafayette Av,-73.973946,40.686113,1883.9087307453153
13:21:30,1,A44,Clinton-Washington Avs,-73.965838,40.683263,1953.9087307453153
13:21:30,1,A45,Franklin Av,-73.956848,40.68138,2088.6418170928955
13:31:30,1,A46,Nostrand Av,-73.950426,40.680438,2008.4553141593933
12:11:30,1,A47,Kingston-Throop Avs,-73.940858,40.679921,2118.4553141593933
13:31:30,1,A48,Utica Av,-73.930729,40.679364,2185.4553141593933
13:31:30,1,A49,Ralph Av,-73.920786,40.678822,2300.4553141593933
13:31:30,1,A50,Rockaway Av,-73.911946,40.67834,2405.4553141593933
13:31:30,1,A51,Broadway Junction,-73.905316,40.678334,2415.4553141593933
13:21:30,1,A52,Liberty Av,-73.896548,40.674542,2535.4553141593933
13:21:30,1,A53,Van Siclen Av,-73.890358,40.67271,2612.4553141593933
13:21:30,1,A54,Shepherd Av,-73.88075,40.67413,2722.4553141593933
13:31:30,1,A55,Euclid Av,-73.872106,40.675377,2727.4553141593938
13:31:30,1,A57,Grant Av,-73.86505,40.677044,2837.4553141593938
13:31:30,1,A59,80 St,-73.858992,40.679371,2949.4553141593938
13:31:30,1,A60,88 St,-73.85147,40.679843,3031.4553141593938
13:31:30,1,A61,Rockaway Blvd,-73.843853,40.680429,3146.4553141593938
13:31:30,1,A63,104 St,-73.837683,40.681711,3231.4553141593938
13:31:30,1,A64,111 St,-73.832163,40.684331,3324.9087307453156
13:31:30,1,A65,Ozone Park-Lefferts Blvd,-73.825798,40.685951,3392.4553141593938
12:01:30,0,B04,21 St-Queensbridge,-73.942836,40.754203,3026.0
12:01:30,0,B06,Roosevelt Island,-73.95326,40.759145,2847.1840490797554
12:01:30,0,B08,Lexington Av/63 St,-73.966113,40.764629,2606.0
12:01:30,1,B10,57 St,-73.97745,40.763972,2600.1840490797554
12:01:30,0,B12,9 Av,-73.994324,40.646292,575.0
12:03:30,1,B13,Fort Hamilton Pkwy,-73.994304,40.640914,465.0
12:03:30,1,B14,50 St,-73.994791,40.63626,395.0
12:03:30,1,B15,55 St,-73.995476,40.631435,285.0
12:03:30,1,B16,62 St,-73.996895,40.626472,225.0
12:03:30,1,B17,71 St,-73.998864,40.619589,335.0
12:03:30,1,B18,79 St,-74.00061,40.613501,429.99999999999994
12:03:30,1,B19,18 Av,-74.001736,40.607954,520.0
12:03:30,1,B20,20 Av,-73.998168,40.604556,595.0
12:03:30,1,B21,Bay Pkwy,-73.993728,40.601875,660.0
12:03:30,1,B22,25 Av,-73.986829,40.597704,780.0
12:03:30,0,B23,Bay 50 St,-73.983765,40.588841,939.9999999999999
12:01:30,0,D01,Norwood-205 St,-73.878855,40.874811,4477.060746192933
12:01:30,0,D03,Bedford Park Blvd,-73.887138,40.873244,4336.163266181945
12:01:30,0,D04,Kingsbridge Rd,-73.893509,40.866978,4228.060746192933
12:01:30,0,D05,Fordham Rd,-73.897749,40.861296,4110.060746192932
12:01:30,0,D06,182-183 Sts,-73.900741,40.856093,4037.3157925605774
12:51:30,0,D07,Tremont Av,-73.905227,40.85041,3930.0607461929326
12:51:30,0,D08,174-175 Sts,-73.910136,40.8459,3838.0607461929317
12:51:30,0,D09,170 St,-73.9134,40.839306,3760.060746192932
12:51:30,0,D10,167 St,-73.91844,40.833771,3640.060746192932
12:51:30,0,D11,161 St-Yankee Stadium,-73.925651,40.827905,3504.060746192932
12:51:30,0,D12,155 St,-73.938209,40.830135,3380.163266181946
12:51:30,0,D13,145 St,-73.944216,40.824783,3260.163266181946
12:51:30,0,D14,7 Av,-73.981637,40.762862,2421.560746192932
12:01:30,1,D15,47-50 Sts-Rockefeller Ctr,-73.981329,40.758663,2311.560746192932
12:01:30,1,D16,42 St-Bryant Pk,-73.984569,40.754222,2201.560746192932
12:01:30,0,D17,34 St-Herald Sq,-73.987823,40.749719,2126.560746192932
12:01:30,2,D18,23 St,-73.992821,40.742878,2332.5001411437984
13:01:30,0,D19,14 St,-73.996209,40.738228,2253.485976696014
12:01:30,0,D20,W 4 St-Wash Sq,-74.000495,40.732338,1909.560746192932
12:01:30,0,D21,Broadway-Lafayette St,-73.996204,40.725297,1776.560746192932
12:01:30,0,D22,Grand St,-73.993753,40.718267,1651.5607461929321
12:01:30,1,D24,Atlantic Av-Barclays Ctr,-73.97689,40.68446,1383.2619032859802
12:01:30,1,D25,7 Av,-73.972367,40.67705,1510.7619032859802
12:01:30,1,D26,Prospect Park,-73.962246,40.661614,1690.7619032859802
12:11:30,1,D27,Parkside Av,-73.961495,40.655292,1790.7619032859802
12:01:30,1,D28,Church Av,-73.962982,40.650527,1907.7619032859802
12:11:30,1,D29,Beverley Rd,-73.964492,40.644031,1941.1666650772095
12:33:30,0,D30,Cortelyou Rd,-73.963891,40.640927,1881.1666650772095
12:01:30,1,D31,Newkirk Plaza,-73.962793,40.635082,1775.9999999999998
12:33:30,0,D32,Avenue H,-73.961639,40.62927,1881.9999999999998
12:33:30,0,D33,Avenue J,-73.960803,40.625039,1821.9999999999998
12:33:30,0,D34,Avenue M,-73.959399,40.617618,1701.9999999999998
13:53:30,0,D35,Kings Hwy,-73.957734,40.60867,1535.0
12:33:30,0,D37,Avenue U,-73.955929,40.5993,1476.9999999999998
12:33:30,0,D38,Neck Rd,-73.955161,40.595246,1364.9999999999998
13:53:30,0,D39,Sheepshead Bay,-73.954155,40.586896,1239.9999999999998
12:33:30,0,D40,Brighton Beach,-73.961376,40.577621,1112.9999999999998
12:33:30,0,D41,Ocean Pkwy,-73.968501,40.576312,1033.0
12:23:30,0,D42,W 8 St-NY Aquarium,-73.975939,40.576127,910.9999999999999
12:03:30,0,D43,Coney Island-Stillwell Av,-73.981233,40.577422,785.9999999999999
13:41:30,1,E01,World Trade Center,-74.009781,40.712582,2159.9160315990443
13:21:30,0,F01,Jamaica-179 St,-73.783817,40.712646,4471.0
12:01:30,0,F02,169 St,-73.793604,40.71047,4406.0
12:01:30,0,F03,Parsons Blvd,-73.803326,40.707564,4278.0
12:01:30,0,F04,Sutphin Blvd,-73.810708,40.70546,4208.0
12:01:30,0,F05,Briarwood,-73.820574,40.709179,4043.9999999999995
12:01:30,0,F06,Kew Gardens-Union Tpke,-73.831008,40.714441,3920.9999999999995
12:01:30,0,F07,75 Av,-73.837324,40.718331,3847.9999999999995
12:11:30,0,F09,Court Sq-23 St,-73.946,40.747846,2888.9999999999995
12:11:30,0,F11,Lexington Av/53 St,-73.969055,40.757552,2728.0000000000005
12:11:30,0,F12,5 Av/53 St,-73.975224,40.760167,2648.0000000000005
13:41:30,0,F14,2 Av,-73.989938,40.723402,2111.560746192932
12:21:30,1,F15,Delancey St-Essex St,-73.988114,40.718611,1992.6944465637207
12:21:30,1,F16,East Broadway,-73.990173,40.713715,1902.6944465637207
12:21:30,1,F18,York St,-73.986751,40.701397,1722.6944465637207
13:31:30,1,F20,Bergen St,-73.990862,40.686145,1508.0
13:31:30,1,F21,Carroll St,-73.995048,40.680303,1400.0
13:31:30,1,F22,Smith-9 Sts,-73.995959,40.67358,1265.0
13:21:30,1,F23,4 Av-9 St,-73.989779,40.670272,1192.0
12:41:30,1,F24,7 Av,-73.980305,40.666271,1307.0
12:41:30,1,F25,15 St-Prospect Park,-73.979493,40.660365,1422.0000000000002
12:01:30,1,F26,Fort Hamilton Pkwy,-73.975776,40.650782,1562.0
12:01:30,1,F27,Church Av,-73.979678,40.644041,1595.1651389598846
12:23:30,0,F29,Ditmas Av,-73.978172,40.636119,1715.1651389598846
12:23:30,0,F30,18 Av,-73.976971,40.629755,1835.1651389598846
12:23:30,0,F31,Avenue I,-73.976127,40.625322,1768.9999999999998
12:23:30,0,F32,Bay Pkwy,-73.975264,40.620769,1690.9999999999998
12:23:30,0,F33,Avenue N,-73.974197,40.61514,1585.9999999999998
12:23:30,0,F34,Avenue P,-73.973022,40.608944,1510.9999999999998
12:23:30,0,F35,Kings Hwy,-73.972361,40.603217,1408.0
12:23:30,0,F36,Avenue U,-73.973357,40.596063,1292.9999999999998
12:23:30,0,F38,Avenue X,-73.97425,40.58962,1160.9999999999998
12:23:30,0,F39,Neptune Av,-73.974574,40.581011,1025.9999999999998
12:01:30,0,G05,Jamaica Center-Parsons/Archer,-73.801109,40.702147,3992.194444179535
12:01:30,0,G06,Sutphin Blvd-Archer Av-JFK Airport,-73.807969,40.700486,3932.194444179535
12:01:30,0,G07,Jamaica-Van Wyck,-73.816859,40.702566,4150.999999999999
12:01:30,0,G08,Forest Hills-71 Av,-73.844521,40.721691,3730.9999999999995
12:01:30,0,G09,67 Av,-73.852719,40.726523,3870.439304828643
12:41:30,0,G10,63 Dr-Rego Park,-73.861604,40.729846,3829.999999999999
12:41:30,0,G11,Woodhaven Blvd,-73.869229,40.733106,3721.999999999999
12:41:30,0,G12,Grand Av-Newtown,-73.877223,40.737015,3606.999999999999
12:41:30,0,G13,Elmhurst Av,-73.882017,40.742454,3501.999999999999
12:01:30,0,G14,Jackson Hts-Roosevelt Av,-73.891338,40.746644,3368.9999999999995
12:01:30,0,G15,65 St,-73.898453,40.749669,3496.9999999999995
12:11:30,0,G16,Northern Blvd,-73.906006,40.752885,3484.6827266989267
12:11:30,0,G18,46 St,-73.913333,40.756312,3394.6827266989267
12:11:30,0,G19,Steinway St,-73.92074,40.756879,3277.7755102040815
12:11:30,0,G20,36 St,-73.928781,40.752039,3157.7755102040815
12:11:30,0,G21,Queens Plaza,-73.937243,40.748973,3008.9999999999995
13:31:30,1,G22,Court Sq,-73.943832,40.746554,2828.9999999999995
13:31:30,1,G24,21 St,-73.949724,40.744065,2733.4999999999995
13:31:30,1,G26,Greenpoint Av,-73.954449,40.731352,2603.4999999999995
13:31:30,1,G28,Nassau Av,-73.951277,40.724635,2488.4999999999995
13:31:30,1,G29,Metropolitan Av,-73.951418,40.712792,2353.4999999999995
13:31:30,1,G30,Broadway,-73.950308,40.706092,2254.9999999999995
13:31:30,1,G31,Flushing Av,-73.950234,40.700377,2170.0
13:31:30,1,G32,Myrtle-Willoughby Avs,-73.949046,40.694568,2098.9999999999995
13:31:30,1,G33,Bedford-Nostrand Avs,-73.953522,40.689627,1985.0000000000002
13:31:30,1,G34,Classon Av,-73.96007,40.688873,1910.9999999999998
13:31:30,1,G35,Clinton-Washington Avs,-73.966839,40.688089,1838.0
13:31:30,1,G36,Fulton St,-73.975375,40.687119,1742.0
12:21:30,1,H01,Aqueduct Racetrack,-73.834058,40.668234,3354.9087307453156
13:21:30,1,H02,Aqueduct-N Conduit Av,-73.834058,40.668234,3326.4553141593938
13:21:30,1,H03,Howard Beach-JFK Airport,-73.830301,40.660476,3456.4553141593938
13:21:30,1,H04,Broad Channel,-73.815925,40.608382,3878.4553141593933
13:21:30,1,H06,Beach 67 St,-73.796924,40.590927,4168.455314159393
13:21:30,1,H07,Beach 60 St,-73.788522,40.592374,4281.455314159393
13:21:30,1,H08,Beach 44 St,-73.776013,40.592943,4396.455314159394
13:21:30,1,H09,Beach 36 St,-73.768175,40.595398,4497.455314159394
13:21:30,1,H10,Beach 25 St,-73.761353,40.600066,4587.455314159394
13:21:30,1,H11,Far Rockaway-Mott Av,-73.755405,40.603995,4652.455314159394
13:51:00,1,H12,Beach 90 St,-73.813641,40.588034,4211.908730745316
13:51:00,1,H13,Beach 98 St,-73.820558,40.585307,4303.408730745316
13:51:00,1,H14,Beach 105 St,-73.827559,40.583209,4377.4087307453165
13:51:00,1,H15,Rockaway Park-Beach 116 St,-73.835592,40.580903,4488.408730745316
12:01:30,1,J12,121 St,-73.828294,40.700492,3692.194444179535
12:01:30,1,J13,111 St,-73.836345,40.697418,3857.194444179535
12:01:30,1,J14,104 St,-73.84433,40.695178,3512.194444179535
12:01:30,1,J15,Woodhaven Blvd,-73.851576,40.693879,3422.194444179535
12:01:30,1,J16,85 St-Forest Pkwy,-73.86001,40.692435,3418.194444179535
12:01:30,1,J17,75 St-Elderts Ln,-73.867139,40.691324,3242.194444179535
12:01:30,1,J19,Cypress Hills,-73.87255,40.689941,3238.194444179535
12:01:30,1,J20,Crescent St,-73.873785,40.683194,3092.194444179535
12:01:30,1,J21,Norwood Av,-73.880039,40.68141,3002.194444179535
12:01:30,1,J22,Cleveland St,-73.884639,40.679947,2974.194444179535
12:01:30,1,J23,Van Siclen Av,-73.891688,40.678024,2852.194444179535
13:31:30,2,J24,Alabama Av,-73.898654,40.676992,2792.194444179535
12:01:30,1,J27,Broadway Junction,-73.904512,40.679498,2685.9087307453156
13:11:30,2,J28,Chauncey St,-73.910456,40.682893,2762.194444179535
12:01:30,1,J29,Halsey St,-73.916559,40.68637,2882.194444179535
12:01:30,1,J30,Gates Av,-73.92227,40.68963,2897.4999988079076
12:01:30,1,J31,Kosciuszko St,-73.928814,40.693342,2880.721153020859
12:01:30,1,L01,8 Av,-74.002578,40.739777,2329.560746192932
12:01:30,1,L02,6 Av,-73.996786,40.737335,2225.961039781571
12:01:30,1,L03,14 St-Union Sq,-73.99073,40.734789,2140.961039781571
12:01:30,1,L05,3 Av,-73.986122,40.732849,2205.961039781571
12:01:30,1,L06,1 Av,-73.981628,40.730953,2235.961039781571
12:01:30,1,L08,Bedford Av,-73.956872,40.717304,2431.961039781571
12:01:30,1,L10,Lorimer St,-73.950275,40.714063,2521.961039781571
12:01:30,1,L11,Graham Av,-73.944053,40.714565,2557.961039781571
12:01:30,1,L12,Grand St,-73.94067,40.711926,2642.961039781571
12:01:30,1,L13,Montrose Av,-73.93985,40.707739,2690.961039781571
12:01:30,1,L14,Morgan Av,-73.933147,40.706152,2748.961039781571
12:01:30,1,L15,Jefferson St,-73.922913,40.706607,2834.9610397815704
12:01:30,1,L16,DeKalb Av,-73.918425,40.703811,2904.9610397815704
12:01:30,1,L17,Myrtle-Wyckoff Avs,-73.911586,40.699814,2980.9610397815704
12:01:30,1,L19,Halsey St,-73.904084,40.695602,2947.5476191043854
12:01:30,2,L20,Wilson Av,-73.904046,40.688764,2813.5476191043854
13:21:30,2,L21,Bushwick Av-Aberdeen St,-73.905249,40.682829,2744.5476191043854
12:01:30,2,L22,Broadway Junction,-73.90324,40.678856,2678.5476191043854
13:21:30,2,L24,Atlantic Av,-73.903097,40.675345,2749.547619104385
12:21:30,2,L25,Sutter Av,-73.901975,40.669367,2687.3500020504
12:21:30,2,L26,Livonia Av,-73.900571,40.664038,2621.3500020504
12:21:30,2,L27,New Lots Av,-73.899232,40.658733,2679.6000020504
12:21:30,2,L28,East 105 St,-73.899485,40.650573,2784.6000020504
12:21:30,2,L29,Canarsie-Rockaway Pkwy,-73.90185,40.646654,2859.6000020504
13:01:30,0,M01,Middle Village-Metropolitan Av,-73.889601,40.711396,3437.412620306016
12:41:30,0,M04,Fresh Pond Rd,-73.895877,40.706186,3368.412620306016
13:01:30,0,M05,Forest Av,-73.903077,40.704423,3258.412620306016
12:41:30,0,M06,Seneca Av,-73.90774,40.702762,3156.4126203060155
12:41:30,0,M08,Myrtle-Wyckoff Avs,-73.912385,40.69943,3086.4126203060155
12:11:30,0,M09,Knickerbocker Av,-73.919711,40.698664,2965.412620306016
12:41:30,0,M10,Central Av,-73.927397,40.697857,2885.4126203060155
12:01:30,1,M11,Myrtle Av,-73.935657,40.697207,2717.4999988079076
12:01:30,1,M12,Flushing Av,-73.941126,40.70026,2740.721153020859
12:01:30,1,M13,Lorimer St,-73.947408,40.703869,2655.721153020859
12:01:30,1,M14,Hewes St,-73.953431,40.70687,2553.721153020859
12:01:30,1,M16,Marcy Av,-73.957757,40.708359,2448.721153020859
12:01:30,1,M18,Delancey St-Essex St,-73.987437,40.718315,2088.721153020859
12:01:30,1,M19,Bowery,-73.993915,40.72028,2017.7211530208592
12:11:30,1,M20,Canal St,-73.999892,40.718092,1907.721153020859
12:11:30,1,M21,Chambers St,-74.003401,40.713243,2021.721153020859
12:11:30,1,M22,Fulton St,-74.007582,40.710374,2096.7211530208588
12:11:30,1,M23,Broad St,-74.011056,40.706476,2161.721153020859
12:01:30,0,N02,8 Av,-74.011719,40.635064,194.5
12:01:30,0,N03,Fort Hamilton Pkwy,-74.005351,40.631386,120.0
13:43:30,0,N04,New Utrecht Av,-73.996353,40.624842,0.0
12:03:30,0,N05,18 Av,-73.990414,40.620671,100.0
12:03:30,0,N06,20 Av,-73.985026,40.61741,172.5
12:03:30,0,N07,Bay Pkwy,-73.981848,40.611815,272.0
12:03:30,0,N08,Kings Hwy,-73.980353,40.603923,392.0
12:03:30,0,N09,Avenue U,-73.979137,40.597473,497.0
12:03:30,0,N10,86 St,-73.97823,40.592721,570.0
12:01:30,0,Q01,Canal St,-74.00046,40.718383,1682.0000000000002
12:01:30,0,Q03,72 St,-73.958424,40.768799,2729.0
12:01:30,0,Q04,86 St,-73.951787,40.777891,2852.0
12:01:30,0,Q05,96 St,-73.947152,40.784318,2952.4999999999995
12:01:30,0,R01,Astoria-Ditmars Blvd,-73.912034,40.775036,3566.0
12:01:30,0,R03,Astoria Blvd,-73.917843,40.770258,3458.0
12:01:30,0,R04,30 Av,-73.921479,40.766779,3353.0
12:01:30,0,R05,Broadway,-73.925508,40.76182,3273.0
12:01:30,0,R06,36 Av,-73.929575,40.756804,3168.0
12:01:30,0,R08,39 Av-Dutch Kills,-73.932755,40.752882,3053.0
12:01:30,0,R09,Queensboro Plaza,-73.940202,40.750582,2918.0
12:01:30,0,R11,Lexington Av/59 St,-73.967258,40.76266,2668.0
12:01:30,0,R13,5 Av/59 St,-73.973347,40.764811,2553.0000000000005
12:01:30,0,R14,57 St-7 Av,-73.980658,40.764664,2421.0
12:01:30,0,R15,49 St,-73.984139,40.759901,2336.0
12:01:30,0,R16,Times Sq-42 St,-73.986754,40.754672,2231.0
12:01:30,0,R17,34 St-Herald Sq,-73.98795,40.749567,2111.0
12:01:30,0,R18,28 St,-73.988691,40.745494,2321.6808493137364
12:01:30,0,R19,23 St,-73.989344,40.741303,2246.6808493137364
12:01:30,0,R20,14 St-Union Sq,-73.990568,40.735736,1927.0000000000005
12:01:30,0,R21,8 St-NYU,-73.992629,40.730328,2146.5824189186096
12:41:30,1,R22,Prince St,-73.997702,40.724329,2044.7096738815312
12:01:30,1,R23,Canal St,-74.001775,40.719527,1925.709673881531
12:01:30,1,R24,City Hall,-74.006978,40.713282,2090.709673881531
12:01:30,1,R25,Cortlandt St,-74.011029,40.710668,2053.6944465637207
12:31:30,0,R26,Rector St,-74.013342,40.70722,1945.6944465637207
12:31:30,0,R27,Whitehall St-South Ferry,-74.012994,40.703087,1847.6944465637205
12:31:30,0,R28,Court St,-73.991777,40.6941,1607.6944465637205
12:31:30,0,R29,Jay St-MetroTech,-73.985942,40.69218,1497.6944465637207
13:51:00,1,R30,DeKalb Av,-73.981824,40.690635,1220.9999999999998
12:01:30,0,R31,Atlantic Av-Barclays Ctr,-73.97881,40.683666,1036.0
12:01:30,0,R32,Union St,-73.98311,40.677316,1077.6944465637207
12:31:30,0,R33,4 Av-9 St,-73.988302,40.670847,960.6944465637206
12:31:30,0,R34,Prospect Av,-73.992872,40.665414,861.0
12:31:30,0,R35,25 St,-73.998091,40.660397,746.0
12:01:30,0,R36,36 St,-74.003549,40.655144,621.0
12:31:30,0,R39,45 St,-74.010006,40.648939,608.0
12:31:30,0,R40,53 St,-74.014034,40.645069,507.00000000000006
12:01:30,0,R41,59 St,-74.017881,40.641362,374.5
12:01:30,0,R42,Bay Ridge Av,-74.023377,40.634967,537.0405402183533
12:01:30,0,R43,77 St,-74.02551,40.629742,609.0405402183533
12:01:30,0,R44,86 St,-74.028398,40.622687,774.0405402183533
12:01:30,0,R45,Bay Ridge-95 St,-74.030876,40.616622,840.0405402183532
12:01:30,1,S01,Franklin Av,-73.955827,40.680596,2132.0000000000005
12:01:30,1,S03,Park Pl,-73.957624,40.674772,2012.0000000000002
12:01:30,1,S04,Botanic Garden,-73.959245,40.670343,1879.0000000000002
