start_time,ntransfers,stop_id,stop_name,stop_lon,stop_lat,duration
12:18:30,1,101,Van Cortlandt Park-242 St,-73.898583,40.889248,3288.989132881165
12:18:30,1,103,238 St,-73.90087,40.884667,3213.989132881165
12:18:30,1,104,231 St,-73.904834,40.878856,3140.9891328811646
12:18:30,1,106,Marble Hill-225 St,-73.909831,40.874561,3053.9891328811646
12:18:30,1,107,215 St,-73.915279,40.869444,2961.9891328811646
12:18:30,1,108,207 St,-73.918822,40.864621,2873.9891328811646
12:18:30,1,109,Dyckman St,-73.925536,40.860531,2773.9891328811646
12:18:30,1,110,191 St,-73.929412,40.855225,2688.989132881165
12:18:30,1,111,181 St,-73.933596,40.849505,2595.989132881165
12:18:30,1,112,168 St-Washington Hts,-73.940133,40.840556,2478.989132881165
12:18:30,1,113,157 St,-73.94489,40.834041,2457.480921030044
12:18:30,1,114,145 St,-73.95036,40.826551,2343.4809210300446
12:18:30,1,115,137 St-City College,-73.953676,40.822008,2249.480921030044
12:18:30,1,116,125 St,-73.958372,40.815581,2148.4809210300446
12:18:30,1,117,116 St-Columbia University,-73.96411,40.807722,2042.4809210300443
12:18:30,1,118,Cathedral Pkwy (110 St),-73.966847,40.803967,1965.4809210300446
12:18:30,1,119,103 St,-73.968379,40.799446,1886.4809210300446
12:18:30,1,120,96 St,-73.972323,40.793919,1592.50000166893
12:58:30,1,121,86 St,-73.976218,40.788644,1684.9809210300446
12:58:30,1,122,79 St,-73.979917,40.783934,1600.9809210300446
12:18:30,1,123,72 St,-73.98197,40.778453,1410.5000016689298
12:03:30,1,124,66 St-Lincoln Center,-73.982209,40.77344,1469.50000166893
12:03:30,1,125,59 St-Columbus Circle,-73.981929,40.768247,1387.50000166893
12:03:30,1,126,50 St,-73.983849,40.761728,1285.50000166893
12:18:30,1,127,Times Sq-42 St,-73.987495,40.75529,1176.50000166893
12:13:30,1,128,34 St-Penn Station,-73.991057,40.750373,1275.5000016689298
12:13:30,1,129,28 St,-73.993365,40.747215,1352.5000016689298
12:13:30,1,130,23 St,-73.995657,40.744081,1421.5000016689298
12:13:30,1,131,18 St,-73.997871,40.74104,1489.5000016689296
12:13:30,1,132,14 St,-74.000201,40.737826,1430.5000016689298
13:38:30,1,133,Christopher St-Sheridan Sq,-74.002906,40.733422,1649.5000016689296
13:38:30,1,134,Houston St,-74.005367,40.728251,1730.5000016689296
13:38:30,1,135,Canal St,-74.006277,40.722854,1815.5000016689296
12:53:30,1,136,Franklin St,-74.006886,40.719318,1881.5000016689298
12:13:30,1,137,Chambers St,-74.009266,40.715478,1658.5000016689298
12:53:30,1,138,WTC Cortlandt,-74.012188,40.711835,1947.7541003227232
12:53:30,1,139,Rector St,-74.013783,40.707513,2022.7541003227232
12:53:30,1,142,South Ferry,-74.013664,40.702068,2114.754100322723
12:13:30,1,201,Wakefield-241 St,-73.85062,40.903125,3684.5145618915562
12:13:30,1,204,Nereid Av,-73.854376,40.898379,3473.5145618915562
12:13:30,1,205,233 St,-73.857473,40.893193,3341.5145618915562
12:13:30,1,206,225 St,-73.860341,40.888022,3245.5145618915562
12:13:30,1,207,219 St,-73.862633,40.883895,3163.5145618915562
12:13:30,1,208,Gun Hill Rd,-73.866256,40.87785,3055.0145618915562
12:13:30,1,209,Burke Av,-73.867164,40.871356,3132.5145618915562
12:13:30,1,210,Allerton Av,-73.867352,40.865462,3149.4705848693843
12:13:30,1,211,Pelham Pkwy,-73.867615,40.857192,3041.4705848693843
12:13:30,1,212,Bronx Park East,-73.868457,40.848828,2920.4705848693843
12:13:30,1,213,E 180 St,-73.873488,40.841894,2697.5145618915562
12:13:30,1,214,West Farms Sq-E Tremont Av,-73.880049,40.840295,2556.5145618915562
12:13:30,1,215,174 St,-73.887734,40.837288,2436.5145618915562
12:13:30,1,216,Freeman St,-73.891865,40.829993,2322.5145618915562
12:13:30,1,217,Simpson St,-73.893064,40.824073,2212.5145618915562
12:13:30,1,218,Intervale Av,-73.896736,40.822181,2139.514561891556
12:13:30,1,219,Prospect Av,-73.90177,40.819585,2059.514561891556
12:13:30,1,220,Jackson Av,-73.907807,40.81649,1965.5145618915556
12:13:30,1,221,3 Av-149 St,-73.917757,40.816109,1840.5145618915556
12:13:30,1,222,149 St-Grand Concourse,-73.926718,40.81841,1722.5145618915558
12:13:30,1,224,135 St,-73.94077,40.814229,2118.00000166893
12:18:30,1,225,125 St,-73.945495,40.807754,2013.00000166893
12:18:30,1,226,116 St,-73.949625,40.802098,1913.00000166893
12:18:30,1,227,Central Park North (110 St),-73.951822,40.799075,1839.50000166893
12:13:30,1,228,Park Place,-74.008811,40.713051,1744.5000016689298
12:13:30,1,229,Fulton St,-74.006571,40.709416,1853.5000016689298
12:23:30,2,230,Wall St,-74.0091,40.706821,1927.5000016689298
12:03:30,2,231,Clark St,-73.993086,40.697466,2110.5000016689296
12:18:30,1,232,Borough Hall,-73.989998,40.693219,2224.5000016689296
12:18:30,1,233,Hoyt St,-73.985065,40.690545,2311.5000016689296
12:03:30,1,234,Nevins St,-73.980492,40.688246,2188.50000166893
12:03:30,1,235,Atlantic Av-Barclays Ctr,-73.977666,40.684359,2282.50000166893
12:18:30,1,236,Bergen St,-73.975098,40.680829,2384.4878060817714
12:18:30,1,237,Grand Army Plaza,-73.971046,40.675235,2483.4878060817714
12:18:30,1,238,Eastern Pkwy-Brooklyn Museum,-73.964375,40.671987,2579.4878060817714
12:18:30,1,239,Franklin Av-Medgar Evers College,-73.958131,40.670682,2583.3770492076874
12:03:30,1,241,President St-Medgar Evers College,-73.950683,40.667883,2749.5145618915562
12:03:30,1,242,Sterling St,-73.95085,40.662742,2837.5145618915562
12:03:30,1,243,Winthrop St,-73.9502,40.656652,2924.5145618915567
12:03:30,1,244,Church Av,-73.949575,40.650843,3006.5145618915567
12:03:30,1,245,Beverly Rd,-73.948959,40.645098,3090.5145618915562
12:03:30,1,246,Newkirk Av-Little Haiti,-73.948411,40.639967,3176.5145618915562
12:03:30,1,247,Flatbush Av-Brooklyn College,-73.947642,40.632836,3296.5145618915562
12:03:30,1,248,Nostrand Av,-73.950466,40.669847,2691.5000016689296
12:03:30,1,249,Kingston Av,-73.942161,40.669399,2781.5000016689296
12:18:30,1,250,Crown Hts-Utica Av,-73.932942,40.668897,2779.50000166893
12:03:30,1,251,Sutter Av-Rutland Rd,-73.92261,40.664717,2917.5000016689296
12:03:30,1,252,Saratoga Av,-73.916327,40.661453,2872.4729740619664
12:03:30,1,253,Rockaway Av,-73.908946,40.662549,2785.4729740619664
12:08:30,4,254,Junius St,-73.902447,40.663515,2702.4729740619664
12:08:30,4,255,Pennsylvania Av,-73.894895,40.664635,2800.4729740619664
12:08:30,4,256,Van Siclen Av,-73.889395,40.665449,2876.472974061966
12:08:30,4,257,New Lots Av,-73.884079,40.666235,2944.472974061966
12:38:30,1,301,Harlem-148 St,-73.93647,40.82388,2359.50000166893
12:38:30,1,302,145 St,-73.936245,40.820421,2252.50000166893
12:18:30,1,401,Woodlawn,-73.878751,40.886037,2905.5065808296204
12:18:30,1,402,Mosholu Pkwy,-73.884655,40.87975,2784.5065808296204
12:18:30,1,405,Bedford Park Blvd-Lehman College,-73.890064,40.873412,2679.5065808296204
12:18:30,1,406,Kingsbridge Rd,-73.897174,40.86776,2566.5065808296204
12:18:30,1,407,Fordham Rd,-73.901034,40.862803,2471.50658082962
12:18:30,1,408,183 St,-73.903879,40.858407,2388.5065808296204
12:18:30,1,409,Burnside Av,-73.907684,40.853453,2291.50658082962
12:18:30,1,410,176 St,-73.911794,40.84848,2216.50658082962
12:18:30,1,411,Mt Eden Av,-73.914685,40.844434,2139.5065808296204
12:18:30,1,412,170 St,-73.917791,40.840075,2059.50658082962
12:18:30,1,413,167 St,-73.9214,40.835537,1971.50658082962
12:18:30,1,414,161 St-Yankee Stadium,-73.925831,40.827994,1842.5065808296201
12:18:30,1,415,149 St-Grand Concourse,-73.927351,40.818375,1670.0561785697935
12:18:30,1,416,138 St-Grand Concourse,-73.929849,40.813224,1546.0561785697935
12:03:30,1,418,Fulton St,-74.009509,40.710368,1651.5000016689298
12:03:30,1,419,Wall St,-74.011862,40.707557,1728.50000166893
12:03:30,1,420,Bowling Green,-74.014065,40.704817,1803.50000166893
12:03:30,1,423,Borough Hall,-73.990151,40.692404,2053.50000166893
12:13:30,1,501,Eastchester-Dyre Av,-73.830834,40.8883,3394.514561891556
12:13:30,1,502,Baychester Av,-73.838591,40.878663,3266.514561891556
12:13:30,1,503,Gun Hill Rd,-73.846384,40.869526,3151.514561891556
12:13:30,1,504,Pelham Pkwy,-73.855359,40.858985,3017.514561891556
12:13:30,1,505,Morris Park,-73.860495,40.854364,2924.5145618915562
13:38:30,1,601,Pelham Bay Park,-73.828121,40.852462,3060.157420396805
13:38:30,1,602,Buhre Av,-73.832569,40.84681,2924.6574203968053
13:38:30,1,603,Middletown Rd,-73.836322,40.843863,2852.657420396805
13:38:30,1,604,Westchester Sq-E Tremont Av,-73.842952,40.839892,2749.657420396805
13:38:30,1,606,Zerega Av,-73.847036,40.836488,2669.157420396805
13:38:30,1,607,Castle Hill Av,-73.851222,40.834255,2601.157420396805
12:58:30,1,608,Parkchester,-73.860816,40.833226,2444.157420396805
12:58:30,1,609,St Lawrence Av,-73.867618,40.831509,2640.501732587814
12:58:30,1,610,Morrison Av-Soundview,-73.874516,40.829521,2556.501732587814
12:58:30,1,611,Elder Av,-73.879159,40.828584,2488.5017325878143
12:58:30,1,612,Whitlock Av,-73.886283,40.826525,2390.5017325878143
12:58:30,1,613,Hunts Point Av,-73.890549,40.820948,2172.657420396805
12:18:30,1,614,Longwood Av,-73.896435,40.816104,2278.002935647964
12:18:30,1,615,E 149 St,-73.904098,40.812118,2178.0029356479645
12:18:30,1,616,E 143 St-St Mary's St,-73.907657,40.808719,2103.0029356479645
12:18:30,1,617,Cypress Av,-73.914042,40.805368,1986.0029356479643
12:18:30,1,618,Brook Av,-73.91924,40.807566,1912.0029356479643
12:18:30,1,619,3 Av-138 St,-73.926138,40.810476,1808.0029356479643
12:18:30,1,621,125 St,-73.937594,40.804138,1390.5145618915556
12:13:30,1,622,116 St,-73.941617,40.798629,1541.0
12:03:30,1,623,110 St,-73.94425,40.79502,1464.0
12:03:30,1,624,103 St,-73.947478,40.7906,1384.0
12:03:30,1,625,96 St,-73.95107,40.785672,1295.0
12:18:30,1,626,86 St,-73.955589,40.779492,1100.5145618915558
12:03:30,1,627,77 St,-73.959874,40.77362,1093.9999999999998
12:03:30,1,628,68 St-Hunter College,-73.96387,40.768141,999.4126996994017
12:03:30,1,629,59 St,-73.967967,40.762526,902.9999999999999
12:03:30,1,630,51 St,-73.97192,40.757107,999.9999999999999
12:03:30,1,631,Grand Central-42 St,-73.976848,40.751776,1037.50000166893
12:03:30,1,632,33 St,-73.982076,40.746081,1151.50000166893
12:03:30,1,633,28 St,-73.984264,40.74307,1219.5000016689298
12:03:30,1,634,23 St,-73.986599,40.739864,1289.50000166893
12:03:30,1,635,14 St-Union Sq,-73.989951,40.734673,1279.5000016689298
12:03:30,1,636,Astor Pl,-73.99107,40.730054,1499.50000166893
12:03:30,1,637,Bleecker St,-73.994659,40.725915,1593.50000166893
12:03:30,1,638,Spring St,-73.997141,40.722301,1660.50000166893
12:03:30,1,639,Canal St,-74.000193,40.718803,1708.5145618915556
12:03:30,1,640,Brooklyn Bridge-City Hall,-74.004131,40.713065,1539.5000016689298
12:03:30,1,701,Flushing-Main St,-73.83003,40.7596,1585.2390480041502
12:03:30,1,702,Mets-Willets Point,-73.845625,40.754622,1441.2390480041502
12:03:30,1,705,111 St,-73.855334,40.75173,1463.0000016689303
12:03:30,1,706,103 St-Corona Plaza,-73.8627,40.749865,1372.9411745071413
12:03:30,1,707,Junction Blvd,-73.869527,40.749145,1231.2390480041502
12:03:30,1,708,90 St-Elmhurst Av,-73.876613,40.748408,1231.941174507141
12:03:30,1,709,82 St-Jackson Hts,-73.883697,40.747659,1161.941174507141
12:03:30,1,710,74 St-Broadway,-73.891394,40.746848,997.941174507141
12:03:30,1,711,69 St,-73.896403,40.746325,957.941174507141
12:03:30,1,712,61 St-Woodside,-73.902984,40.74563,885.941174507141
12:03:30,1,713,52 St,-73.912549,40.744149,795.0000016689302
12:03:30,1,714,46 St-Bliss St,-73.918435,40.743132,739.0000016689302
12:03:30,1,715,40 St-Lowery St,-73.924016,40.743781,684.941174507141
12:03:30,1,716,33 St-Rawson St,-73.930997,40.744587,616.00000166893
12:03:30,1,718,Queensboro Plaza,-73.940202,40.750582,482.00000166893005
12:03:30,1,719,Court Sq,-73.945264,40.747023,579.00000166893
12:03:30,1,720,Hunters Point Av,-73.948916,40.742216,666.1923081874846
12:03:30,1,721,Vernon Blvd-Jackson Av,-73.953581,40.742626,687.1923081874846
12:03:30,1,723,Grand Central-42 St,-73.976041,40.751431,890.6923081874846
12:03:30,1,724,5 Av,-73.981963,40.753821,967.6923081874847
12:03:30,1,725,Times Sq-42 St,-73.987691,40.755477,1021.6923081874846
12:03:30,1,726,34 St-Hudson Yards,-74.00191,40.755882,1151.6923081874847
12:03:30,1,901,Grand Central-42 St,-73.979189,40.752769,977.50000166893
12:03:30,2,902,Times Sq-42 St,-73.986229,40.755983,1071.50000166893
12:28:30,1,A02,Inwood-207 St,-73.919899,40.868072,2802.500001668931
12:28:30,1,A03,Dyckman St,-73.927271,40.865491,2707.5000016689305
12:28:30,1,A05,190 St,-73.93418,40.859022,2587.5000016689305
12:28:30,1,A06,181 St,-73.937969,40.851695,2470.5000016689305
12:28:30,1,A07,175 St,-73.939704,40.847391,2373.5000016689305
12:08:30,1,A09,168 St,-73.939561,40.840719,2253.5000016689305
12:33:30,0,A10,163 St-Amsterdam Av,-73.939892,40.836013,2275.00000166893
12:33:30,0,A11,155 St,-73.941514,40.830518,2171.50000166893
12:08:30,1,A12,145 St,-73.944216,40.824783,2015.5000016689303
12:08:30,1,A14,135 St,-73.947649,40.817894,1935.50000166893
12:33:30,0,A15,125 St,-73.952343,40.811109,1815.50000166893
12:28:30,1,A16,116 St,-73.954882,40.805085,1960.6578979492188
12:28:30,1,A17,Cathedral Pkwy (110 St),-73.958161,40.800603,1962.5000016689303
12:28:30,1,A18,103 St,-73.961454,40.796092,1893.5000016689298
12:28:30,1,A19,96 St,-73.964696,40.791642,1813.5000016689298
12:28:30,1,A20,86 St,-73.968916,40.785868,1703.5000016689298
12:28:30,1,A21,81 St-Museum of Natural History,-73.972143,40.781433,1614.50000166893
12:28:30,1,A22,72 St,-73.97641,40.775594,1519.50000166893
12:28:30,1,A24,59 St-Columbus Circle,-73.981736,40.768296,1343.50000166893
12:28:30,1,A25,50 St,-73.985984,40.762456,1151.0000016689303
13:23:30,1,A27,42 St-Port Authority Bus Terminal,-73.989735,40.757308,1176.50000166893
12:03:30,1,A28,34 St-Penn Station,-73.993391,40.752287,1281.50000166893
12:03:30,1,A30,23 St,-73.998041,40.745906,1376.50000166893
13:33:30,1,A31,14 St,-74.00169,40.740893,1414.5000016689298
13:33:30,1,A32,W 4 St-Wash Sq,-74.000495,40.732338,1534.5000016689298
13:33:30,1,A33,Spring St,-74.003739,40.726227,1701.50000166893
13:33:30,1,A34,Canal St,-74.005229,40.720824,1709.50000166893
12:18:30,2,A36,Chambers St,-74.008585,40.714111,1829.50000166893
13:33:30,1,A38,Fulton St,-74.007691,40.710197,1874.427634000778
13:03:30,2,A40,High St,-73.990531,40.699337,2054.4276340007777
12:03:30,2,A41,Jay St-MetroTech,-73.987342,40.692338,2174.4276340007777
12:08:30,2,A42,Hoyt-Schermerhorn Sts,-73.985001,40.688484,1840.00000166893
12:08:30,2,A43,Lafayette Av,-73.973946,40.686113,2196.595747947693
12:08:30,2,A44,Clinton-Washington Avs,-73.965838,40.683263,2271.595747947693
12:08:30,2,A45,Franklin Av,-73.956848,40.68138,2386.5957479476924
12:03:30,2,A46,Nostrand Av,-73.950426,40.680438,2312.3913054466248
12:08:30,2,A47,Kingston-Throop Avs,-73.940858,40.679921,2422.391305446625
12:03:30,2,A48,Utica Av,-73.930729,40.679364,2489.391305446625
12:08:30,2,A49,Ralph Av,-73.920786,40.678822,2575.7913613319397
12:08:30,2,A50,Rockaway Av,-73.911946,40.67834,2470.7913613319397
12:03:30,2,A51,Broadway Junction,-73.905316,40.678334,2387.7913613319397
12:03:30,2,A52,Liberty Av,-73.896548,40.674542,2514.7913613319397
12:03:30,2,A53,Van Siclen Av,-73.890358,40.67271,2619.7913613319397
12:03:30,2,A54,Shepherd Av,-73.88075,40.67413,2729.79136133194
12:03:30,2,A55,Euclid Av,-73.872106,40.675377,2686.7913613319397
12:03:30,2,A57,Grant Av,-73.86505,40.677044,2806.7913613319397
12:03:30,2,A59,80 St,-73.858992,40.679371,2906.7913613319397
12:03:30,2,A60,88 St,-73.85147,40.679843,3011.7913613319397
12:03:30,2,A61,Rockaway Blvd,-73.843853,40.680429,3096.7913613319397
12:28:30,1,A63,104 St,-73.837683,40.681711,3176.7913613319397
12:28:30,1,A64,111 St,-73.832163,40.684331,3251.7913613319397
12:28:30,1,A65,Ozone Park-Lefferts Blvd,-73.825798,40.685951,3356.7913613319397
12:08:30,1,B04,21 St-Queensbridge,-73.942836,40.754203,1217.5145618915556
12:48:30,1,B06,Roosevelt Island,-73.95326,40.759145,1130.092589855194
12:08:30,0,B08,Lexington Av/63 St,-73.966113,40.764629,857.9999999999999
12:13:30,1,B10,57 St,-73.97745,40.763972,1202.9999999999998
12:08:30,0,B12,9 Av,-73.994324,40.646292,2951.164531469345
12:08:30,0,B13,Fort Hamilton Pkwy,-73.994304,40.640914,3091.692308187485
12:08:30,0,B14,50 St,-73.994791,40.63626,3161.6923081874847
12:08:30,0,B15,55 St,-73.995476,40.631435,3268.164531469345
12:08:30,0,B16,62 St,-73.996895,40.626472,3331.692308187485
12:08:30,0,B17,71 St,-73.998864,40.619589,3441.692308187485
12:08:30,0,B18,79 St,-74.00061,40.613501,3551.692308187485
12:08:30,0,B19,18 Av,-74.001736,40.607954,3626.692308187485
12:08:30,0,B20,20 Av,-73.998168,40.604556,3701.692308187485
12:08:30,0,B21,Bay Pkwy,-73.993728,40.601875,3766.6923081874857
13:28:30,0,B22,25 Av,-73.986829,40.597704,3886.6923081874857
13:28:30,0,B23,Bay 50 St,-73.983765,40.588841,4061.692308187486
12:08:30,2,D01,Norwood-205 St,-73.878855,40.874811,3053.314528465271
12:08:30,2,D03,Bedford Park Blvd,-73.887138,40.873244,2917.314528465271
12:08:30,2,D04,Kingsbridge Rd,-73.893509,40.866978,2800.3145284652705
12:08:30,2,D05,Fordham Rd,-73.897749,40.861296,2695.3145284652705
12:08:30,2,D06,182-183 Sts,-73.900741,40.856093,2605.3145284652705
13:28:30,2,D07,Tremont Av,-73.905227,40.85041,2526.0561785697932
13:28:30,2,D08,174-175 Sts,-73.910136,40.8459,2426.0561785697932
13:28:30,2,D09,170 St,-73.9134,40.839306,2330.3145284652705
13:28:30,2,D10,167 St,-73.91844,40.833771,2215.3145284652705
13:28:30,2,D11,161 St-Yankee Stadium,-73.925651,40.827905,2092.0561785697937
12:33:30,2,D12,155 St,-73.938209,40.830135,2205.663267850876
12:33:30,0,D13,145 St,-73.944216,40.824783,2085.663267850876
12:28:30,1,D14,7 Av,-73.981637,40.762862,1068.50000166893
12:13:30,1,D15,47-50 Sts-Rockefeller Ctr,-73.981329,40.758663,1153.2857159546445
12:13:30,1,D16,42 St-Bryant Pk,-73.984569,40.754222,1192.6923081874847
12:13:30,1,D17,34 St-Herald Sq,-73.987823,40.749719,1262.6923081874847
12:13:30,1,D18,23 St,-73.992821,40.742878,1381.6923081874845
12:13:30,1,D19,14 St,-73.996209,40.738228,1447.692308187485
12:13:30,1,D20,W 4 St-Wash Sq,-74.000495,40.732338,1447.6923081874847
12:13:30,1,D21,Broadway-Lafayette St,-73.996204,40.725297,1587.6923081874845
12:33:30,0,D22,Grand St,-73.993753,40.718267,1717.6923081874847
12:18:30,0,D24,Atlantic Av-Barclays Ctr,-73.97689,40.68446,2350.6923081874847
12:18:30,0,D25,7 Av,-73.972367,40.67705,2480.6923081874843
12:18:30,0,D26,Prospect Park,-73.962246,40.661614,2683.6923081874843
12:18:30,0,D27,Parkside Av,-73.961495,40.655292,2811.00000166893
12:18:30,0,D28,Church Av,-73.962982,40.650527,2818.6923081874843
12:18:30,0,D29,Beverley Rd,-73.964492,40.644031,2922.3827857971187
12:18:30,0,D30,Cortelyou Rd,-73.963891,40.640927,2992.3827857971187
12:18:30,0,D31,Newkirk Plaza,-73.962793,40.635082,2991.6923081874843
12:18:30,0,D32,Avenue H,-73.961639,40.62927,3098.0123090744014
12:18:30,0,D33,Avenue J,-73.960803,40.625039,3203.0123090744014
12:18:30,0,D34,Avenue M,-73.959399,40.617618,3318.0123090744014
12:18:30,0,D35,Kings Hwy,-73.957734,40.60867,3231.6923081874843
12:18:30,0,D37,Avenue U,-73.955929,40.5993,3458.7026202678676
12:18:30,0,D38,Neck Rd,-73.955161,40.595246,3570.7026202678676
12:18:30,0,D39,Sheepshead Bay,-73.954155,40.586896,3466.6923081874843
12:18:30,0,D40,Brighton Beach,-73.961376,40.577621,3598.6923081874843
12:18:30,0,D41,Ocean Pkwy,-73.968501,40.576312,3757.6923081874843
12:18:30,0,D42,W 8 St-NY Aquarium,-73.975939,40.576127,3855.1651406288142
12:18:30,0,D43,Coney Island-Stillwell Av,-73.981233,40.577422,3944.6923081874843
13:48:30,1,E01,World Trade Center,-74.009781,40.712582,1848.5000016689303
12:33:30,0,F01,Jamaica-179 St,-73.783817,40.712646,2281.00000166893
12:28:30,0,F02,169 St,-73.793604,40.71047,2216.00000166893
12:03:30,2,F03,Parsons Blvd,-73.803326,40.707564,2088.00000166893
12:03:30,2,F04,Sutphin Blvd,-73.810708,40.70546,2018.00000166893
12:03:30,2,F05,Briarwood,-73.820574,40.709179,1854.00000166893
12:03:30,2,F06,Kew Gardens-Union Tpke,-73.831008,40.714441,1731.00000166893
12:03:30,2,F07,75 Av,-73.837324,40.718331,1658.0000016689298
12:08:30,2,F09,Court Sq-23 St,-73.946,40.747846,699.00000166893
12:08:30,2,F11,Lexington Av/53 St,-73.969055,40.757552,883.50000166893
12:08:30,2,F12,5 Av/53 St,-73.975224,40.760167,948.50000166893
12:13:30,1,F14,2 Av,-73.989938,40.723402,1793.6923081874847
12:13:30,1,F15,Delancey St-Essex St,-73.988114,40.718611,1898.6923081874847
12:13:30,1,F16,East Broadway,-73.990173,40.713715,1972.6923081874847
12:18:30,1,F18,York St,-73.986751,40.701397,2137.6923081874847
12:08:30,2,F20,Bergen St,-73.990862,40.686145,1960.00000166893
12:08:30,2,F21,Carroll St,-73.995048,40.680303,2065.00000166893
12:08:30,2,F22,Smith-9 Sts,-73.995959,40.67358,2201.00000166893
12:08:30,2,F23,4 Av-9 St,-73.989779,40.670272,2276.00000166893
12:08:30,2,F24,7 Av,-73.980305,40.666271,2391.00000166893
12:08:30,2,F25,15 St-Prospect Park,-73.979493,40.660365,2506.0000016689296
12:08:30,2,F26,Fort Hamilton Pkwy,-73.975776,40.650782,2671.0000016689296
12:08:30,2,F27,Church Av,-73.979678,40.644041,2679.1651406288147
12:18:30,1,F29,Ditmas Av,-73.978172,40.636119,2799.1651406288147
12:18:30,1,F30,18 Av,-73.976971,40.629755,2919.1651406288147
12:18:30,1,F31,Avenue I,-73.976127,40.625322,2979.1651406288147
12:18:30,1,F32,Bay Pkwy,-73.975264,40.620769,3039.1651406288147
12:18:30,1,F33,Avenue N,-73.974197,40.61514,3159.1651406288147
12:18:30,1,F34,Avenue P,-73.973022,40.608944,3249.1651406288147
12:18:30,1,F35,Kings Hwy,-73.972361,40.603217,3397.6651406288142
12:18:30,1,F36,Avenue U,-73.973357,40.596063,3512.665140628814
12:18:30,0,F38,Avenue X,-73.97425,40.58962,3623.1651406288142
12:18:30,0,F39,Neptune Av,-73.974574,40.581011,3743.1651406288142
12:03:30,2,G05,Jamaica Center-Parsons/Archer,-73.801109,40.702147,2190.00000166893
12:03:30,2,G06,Sutphin Blvd-Archer Av-JFK Airport,-73.807969,40.700486,2081.00000166893
12:03:30,2,G07,Jamaica-Van Wyck,-73.816859,40.702566,1961.00000166893
12:03:30,2,G08,Forest Hills-71 Av,-73.844521,40.721691,1541.00000166893
12:03:30,2,G09,67 Av,-73.852719,40.726523,1680.4393064975739
12:03:30,2,G10,63 Dr-Rego Park,-73.861604,40.729846,1628.8986229896545
12:03:30,2,G11,Woodhaven Blvd,-73.869229,40.733106,1532.0000016689303
12:03:30,2,G12,Grand Av-Newtown,-73.877223,40.737015,1417.0000016689303
12:03:30,2,G13,Elmhurst Av,-73.882017,40.742454,1312.0000016689303
12:03:30,2,G14,Jackson Hts-Roosevelt Av,-73.891338,40.746644,1179.00000166893
12:08:30,2,G15,65 St,-73.898453,40.749669,1286.8986229896545
12:08:30,2,G16,Northern Blvd,-73.906006,40.752885,1294.6827283678572
12:08:30,2,G18,46 St,-73.913333,40.756312,1204.6827283678572
12:08:30,2,G19,Steinway St,-73.92074,40.756879,1087.7755118730117
12:08:30,2,G20,36 St,-73.928781,40.752039,967.7755118730117
12:13:30,2,G21,Queens Plaza,-73.937243,40.748973,819.00000166893
12:28:30,2,G22,Court Sq,-73.943832,40.746554,639.00000166893
12:08:30,2,G24,21 St,-73.949724,40.744065,734.50000166893
12:08:30,2,G26,Greenpoint Av,-73.954449,40.731352,864.50000166893
12:08:30,2,G28,Nassau Av,-73.951277,40.724635,979.5000016689302
12:08:30,2,G29,Metropolitan Av,-73.951418,40.712792,1114.50000166893
12:08:30,2,G30,Broadway,-73.950308,40.706092,1196.50000166893
12:08:30,2,G31,Flushing Av,-73.950234,40.700377,1294.00000166893
12:08:30,2,G32,Myrtle-Willoughby Avs,-73.949046,40.694568,1369.00000166893
12:08:30,2,G33,Bedford-Nostrand Avs,-73.953522,40.689627,1482.00000166893
12:08:30,2,G34,Classon Av,-73.96007,40.688873,1557.00000166893
12:08:30,2,G35,Clinton-Washington Avs,-73.966839,40.688089,1630.00000166893
12:08:30,2,G36,Fulton St,-73.975375,40.687119,1725.00000166893
12:18:30,1,H01,Aqueduct Racetrack,-73.834058,40.668234,3281.7913613319397
12:03:30,2,H02,Aqueduct-N Conduit Av,-73.834058,40.668234,3347.212104082108
12:03:30,2,H03,Howard Beach-JFK Airport,-73.830301,40.660476,3456.7913613319397
12:03:30,2,H04,Broad Channel,-73.815925,40.608382,3886.7913613319397
12:03:30,2,H06,Beach 67 St,-73.796924,40.590927,4186.79136133194
12:03:30,2,H07,Beach 60 St,-73.788522,40.592374,4296.79136133194
12:03:30,2,H08,Beach 44 St,-73.776013,40.592943,4411.79136133194
12:03:30,2,H09,Beach 36 St,-73.768175,40.595398,4518.212104082108
12:03:30,2,H10,Beach 25 St,-73.761353,40.600066,4608.212104082108
12:03:30,2,H11,Far Rockaway-Mott Av,-73.755405,40.603995,4673.212104082108
12:03:30,2,H12,Beach 90 St,-73.813641,40.588034,4138.79136133194
12:03:30,2,H13,Beach 98 St,-73.820558,40.585307,4230.291361331941
12:03:30,2,H14,Beach 105 St,-73.827559,40.583209,4304.291361331941
12:03:30,2,H15,Rockaway Park-Beach 116 St,-73.835592,40.580903,4415.29136133194
12:08:30,0,J12,121 St,-73.828294,40.700492,2425.5000016689305
12:08:30,0,J13,111 St,-73.836345,40.697418,2427.0000016689305
12:08:30,0,J14,104 St,-73.84433,40.695178,2547.0000016689305
12:08:30,0,J15,Woodhaven Blvd,-73.851576,40.693879,2637.0000016689305
12:08:30,0,J16,85 St-Forest Pkwy,-73.86001,40.692435,2925.181820392609
12:08:30,0,J17,75 St-Elderts Ln,-73.867139,40.691324,2927.7913613319397
12:08:30,0,J19,Cypress Hills,-73.87255,40.689941,2923.7913613319397
12:08:30,0,J20,Crescent St,-73.873785,40.683194,2777.7913613319397
12:08:30,2,J21,Norwood Av,-73.880039,40.68141,2687.7913613319397
12:08:30,2,J22,Cleveland St,-73.884639,40.679947,2671.6671493053436
12:48:30,2,J23,Van Siclen Av,-73.891688,40.678024,2537.7913613319397
12:48:30,2,J24,Alabama Av,-73.898654,40.676992,2477.7913613319397
12:03:30,1,J27,Broadway Junction,-73.904512,40.679498,2374.472974061966
12:03:30,1,J28,Chauncey St,-73.910456,40.682893,2447.7913613319397
12:03:30,1,J29,Halsey St,-73.916559,40.68637,2567.7913613319397
12:03:30,1,J30,Gates Av,-73.92227,40.68963,2597.7913613319397
12:03:30,1,J31,Kosciuszko St,-73.928814,40.693342,2567.3759799003606
12:03:30,1,L01,8 Av,-74.002578,40.739777,1474.5000016689298
12:03:30,1,L02,6 Av,-73.996786,40.737335,1549.5000016689298
12:03:30,1,L03,14 St-Union Sq,-73.99073,40.734789,1493.4610414505003
12:08:30,1,L05,3 Av,-73.986122,40.732849,1558.1304364204407
12:08:30,1,L06,1 Av,-73.981628,40.730953,1588.4610414505003
12:08:30,1,L08,Bedford Av,-73.956872,40.717304,1454.472974061966
12:08:30,3,L10,Lorimer St,-73.950275,40.714063,1382.472974061966
12:08:30,3,L11,Graham Av,-73.944053,40.714565,1418.4729740619662
12:08:30,3,L12,Grand St,-73.94067,40.711926,1503.4729740619662
12:08:30,3,L13,Montrose Av,-73.93985,40.707739,1547.472974061966
12:08:30,3,L14,Morgan Av,-73.933147,40.706152,1609.4729740619662
12:08:30,3,L15,Jefferson St,-73.922913,40.706607,1695.4729740619662
12:08:30,3,L16,DeKalb Av,-73.918425,40.703811,1765.4729740619662
12:08:30,3,L17,Myrtle-Wyckoff Avs,-73.911586,40.699814,1841.4729740619662
12:08:30,3,L19,Halsey St,-73.904084,40.695602,1878.4729740619662
12:08:30,3,L20,Wilson Av,-73.904046,40.688764,2003.4729740619664
12:08:30,3,L21,Bushwick Av-Aberdeen St,-73.905249,40.682829,2096.472974061966
12:08:30,3,L22,Broadway Junction,-73.90324,40.678856,2149.472974061966
12:08:30,3,L24,Atlantic Av,-73.903097,40.675345,2237.4729740619664
12:08:30,3,L25,Sutter Av,-73.901975,40.669367,2309.4729740619664
12:08:30,3,L26,Livonia Av,-73.900571,40.664038,2372.4729740619664
12:08:30,3,L27,New Lots Av,-73.899232,40.658733,2419.472974061966
12:08:30,3,L28,East 105 St,-73.899485,40.650573,2524.472974061966
12:08:30,3,L29,Canarsie-Rockaway Pkwy,-73.90185,40.646654,2599.472974061966
12:18:30,2,M01,Middle Village-Metropolitan Av,-73.889601,40.711396,2431.4633584022527
12:18:30,2,M04,Fresh Pond Rd,-73.895877,40.706186,2355.472974061966
12:18:30,2,M05,Forest Av,-73.903077,40.704423,2252.463358402252
12:18:30,2,M06,Seneca Av,-73.90774,40.702762,2150.463358402252
13:38:30,0,M08,Myrtle-Wyckoff Avs,-73.912385,40.69943,2066.472974061966
12:08:30,4,M09,Knickerbocker Av,-73.919711,40.698664,2176.4729740619664
12:08:30,4,M10,Central Av,-73.927397,40.697857,2281.4633584022527
12:18:30,1,M11,Myrtle Av,-73.935657,40.697207,2401.4633584022527
12:18:30,1,M12,Flushing Av,-73.941126,40.70026,2526.4633584022527
12:18:30,1,M13,Lorimer St,-73.947408,40.703869,2440.6923081874847
12:18:30,1,M14,Hewes St,-73.953431,40.70687,2345.6923081874847
12:18:30,1,M16,Marcy Av,-73.957757,40.708359,2277.6923081874847
12:18:30,1,M18,Delancey St-Essex St,-73.987437,40.718315,1917.6923081874847
12:03:30,1,M19,Bowery,-73.993915,40.72028,1905.5145618915556
12:03:30,2,M20,Canal St,-73.999892,40.718092,1785.5145618915556
12:08:30,1,M21,Chambers St,-74.003401,40.713243,1685.5145618915556
12:13:30,2,M22,Fulton St,-74.007582,40.710374,1760.5145618915556
12:13:30,2,M23,Broad St,-74.011056,40.706476,1825.5145618915553
12:08:30,0,N02,8 Av,-74.011719,40.635064,3153.0
12:08:30,0,N03,Fort Hamilton Pkwy,-74.005351,40.631386,3233.0
12:08:30,0,N04,New Utrecht Av,-73.996353,40.624842,3353.0
12:08:30,0,N05,18 Av,-73.990414,40.620671,3455.0
12:08:30,0,N06,20 Av,-73.985026,40.61741,3535.0000000000005
12:08:30,0,N07,Bay Pkwy,-73.981848,40.611815,3635.0
12:08:30,0,N08,Kings Hwy,-73.980353,40.603923,3750.0
12:08:30,0,N09,Avenue U,-73.979137,40.597473,3855.0
12:08:30,0,N10,86 St,-73.97823,40.592721,3970.0000000000005
12:08:30,0,Q01,Canal St,-74.00046,40.718383,1657.0
12:23:30,1,Q03,72 St,-73.958424,40.768799,980.9999999999999
12:08:30,0,Q04,86 St,-73.951787,40.777891,1104.0
12:08:30,0,Q05,96 St,-73.947152,40.784318,1204.5
12:01:00,0,R01,Astoria-Ditmars Blvd,-73.912034,40.775036,184.99999999999997
12:01:00,0,R03,Astoria Blvd,-73.917843,40.770258,105.0
13:11:30,0,R04,30 Av,-73.921479,40.766779,0.0
12:03:30,0,R05,Broadway,-73.925508,40.76182,80.0
12:03:30,0,R06,36 Av,-73.929575,40.756804,184.99999999999997
12:03:30,0,R08,39 Av-Dutch Kills,-73.932755,40.752882,258.0
12:03:30,0,R09,Queensboro Plaza,-73.940202,40.750582,435.0
12:03:30,0,R11,Lexington Av/59 St,-73.967258,40.76266,677.9999999999999
12:03:30,0,R13,5 Av/59 St,-73.973347,40.764811,777.9999999999999
12:03:30,0,R14,57 St-7 Av,-73.980658,40.764664,899.9999999999999
12:03:30,0,R15,49 St,-73.984139,40.759901,1020.0
12:03:30,0,R16,Times Sq-42 St,-73.986754,40.754672,1122.0000000000002
12:03:30,0,R17,34 St-Herald Sq,-73.98795,40.749567,1242.0000000000002
12:03:30,0,R18,28 St,-73.988691,40.745494,1347.5000000000002
12:03:30,0,R19,23 St,-73.989344,40.741303,1422.5000000000002
12:08:30,0,R20,14 St-Union Sq,-73.990568,40.735736,1412.0
12:03:30,0,R21,8 St-NYU,-73.992629,40.730328,1619.50000166893
12:03:30,0,R22,Prince St,-73.997702,40.724329,1694.5000016689298
12:03:30,0,R23,Canal St,-74.001775,40.719527,1809.5000016689298
12:03:30,0,R24,City Hall,-74.006978,40.713282,1952.50000166893
12:03:30,0,R25,Cortlandt St,-74.011029,40.710668,1908.5000016689303
12:03:30,0,R26,Rector St,-74.013342,40.70722,2026.50000166893
12:18:30,0,R27,Whitehall St-South Ferry,-74.012994,40.703087,2106.50000166893
12:18:30,0,R28,Court St,-73.991777,40.6941,2293.003313779831
12:18:30,0,R29,Jay St-MetroTech,-73.985942,40.69218,2309.4276340007777
12:18:30,0,R30,DeKalb Av,-73.981824,40.690635,2161.164531469345
12:08:30,0,R31,Atlantic Av-Barclays Ctr,-73.97881,40.683666,2296.164531469345
12:08:30,0,R32,Union St,-73.98311,40.677316,2429.0
12:08:30,0,R33,4 Av-9 St,-73.988302,40.670847,2501.00000166893
12:08:30,0,R34,Prospect Av,-73.992872,40.665414,2593.1785736083984
12:08:30,0,R35,25 St,-73.998091,40.660397,2663.1785736083984
12:08:30,0,R36,36 St,-74.003549,40.655144,2656.164531469345
12:08:30,0,R39,45 St,-74.010006,40.648939,2851.0
12:28:30,0,R40,53 St,-74.014034,40.645069,2951.0
12:08:30,0,R41,59 St,-74.017881,40.641362,2973.0
12:08:30,0,R42,Bay Ridge Av,-74.023377,40.634967,3135.5405402183533
12:08:30,0,R43,77 St,-74.02551,40.629742,3207.5405402183533
12:08:30,0,R44,86 St,-74.028398,40.622687,3372.5405402183533
12:08:30,0,R45,Bay Ridge-95 St,-74.030876,40.616622,3438.5405402183537
12:18:30,0,S01,Franklin Av,-73.955827,40.680596,2446.5957479476924
12:18:30,0,S03,Park Pl,-73.957624,40.674772,2566.5957479476924
12:18:30,0,S04,Botanic Garden,-73.959245,40.670343,2696.5957479476924
