start_time,ntransfers,stop_id,stop_name,stop_lon,stop_lat,duration
12:00:00,0,101,Van Cortlandt Park-242 St,-73.898583,40.889248,1045.5398724757724
12:00:00,0,103,238 St,-73.90087,40.884667,940.7535821531919
12:00:00,0,104,231 St,-73.904834,40.878856,848.1551265547363
12:00:00,0,106,Marble Hill-225 St,-73.909831,40.874561,762.4281892853636
12:00:00,0,107,215 St,-73.915279,40.869444,670.6901819052898
12:00:00,0,108,207 St,-73.918822,40.864621,596.2864782015861
12:00:00,0,109,Dyckman St,-73.925536,40.860531,507.1526492053036
12:00:00,0,110,191 St,-73.929412,40.855225,421.4834476843911
12:00:00,0,111,181 St,-73.933596,40.849505,328.2796740994855
12:00:00,0,112,168 St-Washington Hts,-73.940133,40.840556,208.1963407661521
12:00:00,0,113,157 St,-73.94489,40.834041,113.16603773584906
12:16:00,0,114,145 St,-73.95036,40.826551,0.0
12:02:30,0,115,137 St-City College,-73.953676,40.822008,84.15849056603774
12:02:30,0,116,125 St,-73.958372,40.815581,196.20106837606838
12:02:30,0,117,116 St-Columbia University,-73.96411,40.807722,310.43023504273503
12:02:30,0,118,Cathedral Pkwy (110 St),-73.966847,40.803967,389.3847804972805
12:02:30,0,119,103 St,-73.968379,40.799446,468.91346902187064
12:02:30,0,120,96 St,-73.972323,40.793919,570.2864198415427
12:02:30,0,121,86 St,-73.976218,40.788644,679.3151083661329
12:02:30,0,122,79 St,-73.979917,40.783934,756.1890921059703
12:02:30,0,123,72 St,-73.98197,40.778453,850.2421533304602
12:02:30,0,124,66 St-Lincoln Center,-73.982209,40.77344,931.246201913456
12:02:30,0,125,59 St-Columbus Circle,-73.981929,40.768247,1026.5673401248382
12:02:30,0,126,50 St,-73.983849,40.761728,1124.1219959952837
12:02:30,0,127,Times Sq-42 St,-73.987495,40.75529,1110.0242413785006
12:02:30,0,128,34 St-Penn Station,-73.991057,40.750373,1211.383215737475
12:02:30,0,129,28 St,-73.993365,40.747215,1431.081365732296
12:02:30,0,130,23 St,-73.995657,40.744081,1500.655662921051
12:02:30,0,131,18 St,-73.997871,40.74104,1566.1098461879835
12:02:30,0,132,14 St,-74.000201,40.737826,1366.6993447697332
12:02:30,0,133,Christopher St-Sheridan Sq,-74.002906,40.733422,1668.3590669919552
12:02:30,0,134,Houston St,-74.005367,40.728251,1754.2400193729077
12:02:30,0,135,Canal St,-74.006277,40.722854,1848.163373880314
12:02:30,0,136,Franklin St,-74.006886,40.719318,1912.3562872661407
12:02:30,0,137,Chambers St,-74.009266,40.715478,1625.6863577567462
12:02:30,0,138,WTC Cortlandt,-74.012188,40.711835,1949.6945074643004
12:02:30,0,139,Rector St,-74.013783,40.707513,2042.6478148572965
12:02:30,0,142,South Ferry,-74.013664,40.702068,2182.515519137452
12:20:30,0,201,Wakefield-241 St,-73.85062,40.903125,3643.5556655584933
12:20:30,0,204,Nereid Av,-73.854376,40.898379,3545.9944410686976
12:20:30,0,205,233 St,-73.857473,40.893193,3454.7511978254543
12:20:30,0,206,225 St,-73.860341,40.888022,3368.3851263968827
12:20:30,0,207,219 St,-73.862633,40.883895,3289.860462719753
12:20:30,0,208,Gun Hill Rd,-73.866256,40.87785,3193.466778119409
12:20:30,0,209,Burke Av,-73.867164,40.871356,3097.190916050444
12:20:30,0,210,Allerton Av,-73.867352,40.865462,3002.547237889524
12:20:30,0,211,Pelham Pkwy,-73.867615,40.857192,2880.5070080044666
12:20:30,0,212,Bronx Park East,-73.868457,40.848828,2771.2700137848137
12:20:30,0,213,E 180 St,-73.873488,40.841894,2585.377968330268
12:20:30,0,214,West Farms Sq-E Tremont Av,-73.880049,40.840295,2426.4995152915935
12:20:30,0,215,174 St,-73.887734,40.837288,2302.724790016868
12:20:30,0,216,Freeman St,-73.891865,40.829993,2187.589654881733
12:20:30,0,217,Simpson St,-73.893064,40.824073,2081.5410062330843
12:20:30,0,218,Intervale Av,-73.896736,40.822181,2006.1592858029771
12:20:30,0,219,Prospect Av,-73.90177,40.819585,1927.6782047218962
12:20:30,0,220,Jackson Av,-73.907807,40.81649,1836.6727993164907
12:20:30,0,221,3 Av-149 St,-73.917757,40.816109,1713.1106371543285
12:20:30,0,222,149 St-Grand Concourse,-73.926718,40.81841,1594.797123640815
12:08:30,0,224,135 St,-73.94077,40.814229,1354.7386833538656
12:08:30,0,225,125 St,-73.945495,40.807754,1246.6586833538656
12:08:30,0,226,116 St,-73.949625,40.802098,1150.679091517131
12:08:30,0,227,Central Park North (110 St),-73.951822,40.799075,1082.3066425375391
12:02:30,0,228,Park Place,-74.008811,40.713051,1722.9151159266808
12:02:30,0,229,Fulton St,-74.006571,40.709416,1846.3985596352902
12:02:30,0,230,Wall St,-74.0091,40.706821,1929.0210761915814
12:02:30,0,231,Clark St,-73.993086,40.697466,2143.1944095249146
12:02:30,0,232,Borough Hall,-73.989998,40.693219,2238.2846350888244
12:02:30,0,233,Hoyt St,-73.985065,40.690545,2330.3718834109723
12:02:30,0,234,Nevins St,-73.980492,40.688246,2431.0363129411735
12:02:30,0,235,Atlantic Av-Barclays Ctr,-73.977666,40.684359,2520.7660426709035
12:02:30,0,236,Bergen St,-73.975098,40.680829,2602.2930696979306
12:02:30,0,237,Grand Army Plaza,-73.971046,40.675235,2707.909508054095
12:02:30,0,238,Eastern Pkwy-Brooklyn Museum,-73.964375,40.671987,2817.0396450403964
12:02:30,0,239,Franklin Av-Medgar Evers College,-73.958131,40.670682,2851.801617965437
12:02:30,0,241,President St-Medgar Evers College,-73.950683,40.667883,3023.1093102731293
12:02:30,0,242,Sterling St,-73.95085,40.662742,3113.580464119283
12:02:30,0,243,Winthrop St,-73.9502,40.656652,3198.732845071664
12:02:30,0,244,Church Av,-73.949575,40.650843,3280.5851177989366
12:02:30,0,245,Beverly Rd,-73.948959,40.645098,3362.0190800630876
12:02:30,0,246,Newkirk Av-Little Haiti,-73.948411,40.639967,3448.019080063087
12:02:30,0,247,Flatbush Av-Brooklyn College,-73.947642,40.632836,3565.3559221683504
12:14:30,0,248,Nostrand Av,-73.950466,40.669847,2979.9227138452434
12:14:30,0,249,Kingston Av,-73.942161,40.669399,3065.5477138452434
12:02:30,0,250,Crown Hts-Utica Av,-73.932942,40.668897,3094.0760456051366
12:14:30,0,251,Sutter Av-Rutland Rd,-73.92261,40.664717,3231.076045605136
12:14:30,0,252,Saratoga Av,-73.916327,40.661453,3327.60937893847
12:14:30,0,253,Rockaway Av,-73.908946,40.662549,3414.85937893847
12:14:30,0,254,Junius St,-73.902447,40.663515,3364.9318255933636
12:02:30,2,255,Pennsylvania Av,-73.894895,40.664635,3462.147511867873
12:02:30,2,256,Van Siclen Av,-73.889395,40.665449,3536.6573157894422
12:02:30,2,257,New Lots Av,-73.884079,40.666235,3607.4318255933636
12:08:30,0,301,Harlem-148 St,-73.93647,40.82388,1602.6278938801815
12:08:30,0,302,145 St,-73.936245,40.820421,1488.2436833538657
12:28:00,3,401,Woodlawn,-73.878751,40.886037,2505.28194809998
12:28:00,3,402,Mosholu Pkwy,-73.884655,40.87975,2383.7092608753105
12:28:00,3,405,Bedford Park Blvd-Lehman College,-73.890064,40.873412,2246.0670194960003
12:28:00,3,406,Kingsbridge Rd,-73.897174,40.86776,2134.577749109734
12:28:00,3,407,Fordham Rd,-73.901034,40.862803,2050.065454027767
12:28:00,3,408,183 St,-73.903879,40.858407,1970.2572907624606
12:28:00,3,409,Burnside Av,-73.907684,40.853453,1874.858950513498
12:28:00,3,410,176 St,-73.911794,40.84848,1786.3734733350748
12:28:00,3,411,Mt Eden Av,-73.914685,40.844434,1708.662729533422
12:28:00,3,412,170 St,-73.917791,40.840075,1629.1214072193723
12:28:00,3,413,167 St,-73.9214,40.835537,1541.2126935264264
12:28:00,3,414,161 St-Yankee Stadium,-73.925831,40.827994,1433.2168776268447
12:46:00,3,415,149 St-Grand Concourse,-73.927351,40.818375,1641.7357060787276
12:20:30,1,416,138 St-Grand Concourse,-73.929849,40.813224,1765.405976348998
12:02:30,2,418,Fulton St,-74.009509,40.710368,2189.326191967138
12:02:30,1,419,Wall St,-74.011862,40.707557,2266.5376457116317
12:02:30,1,420,Bowling Green,-74.014065,40.704817,2340.5284713997053
12:14:30,0,423,Borough Hall,-73.990151,40.692404,2579.1382940033905
13:56:30,0,501,Eastchester-Dyre Av,-73.830834,40.8883,3442.0176129004835
12:20:30,0,502,Baychester Av,-73.838591,40.878663,3292.0176129004835
12:20:30,0,503,Gun Hill Rd,-73.846384,40.869526,3142.0176129004835
12:20:30,0,504,Pelham Pkwy,-73.855359,40.858985,2992.0176129004835
12:20:30,0,505,Morris Park,-73.860495,40.854364,2902.0176129004835
13:32:30,0,601,Pelham Bay Park,-73.828121,40.852462,3719.5013361606366
13:32:30,0,602,Buhre Av,-73.832569,40.84681,3536.074385806027
13:32:30,0,603,Middletown Rd,-73.836322,40.843863,3427.241052472694
13:32:30,0,604,Westchester Sq-E Tremont Av,-73.842952,40.839892,3282.4910524726934
13:32:30,0,606,Zerega Av,-73.847036,40.836488,3184.4077191393603
13:32:30,0,607,Castle Hill Av,-73.851222,40.834255,3117.074385806027
12:20:30,0,608,Parkchester,-73.860816,40.833226,2961.074385806027
12:20:30,0,609,St Lawrence Av,-73.867618,40.831509,3199.011752290146
12:20:30,0,610,Morrison Av-Soundview,-73.874516,40.829521,3113.944023206481
12:20:30,0,611,Elder Av,-73.879159,40.828584,3048.7800232064806
12:20:30,0,612,Whitlock Av,-73.886283,40.826525,2942.4400232064804
12:20:30,0,613,Hunts Point Av,-73.890549,40.820948,2704.6897704214116
12:02:30,1,614,Longwood Av,-73.896435,40.816104,2786.981953658116
12:02:30,1,615,E 149 St,-73.904098,40.812118,2685.8736203247827
12:02:30,1,616,E 143 St-St Mary's St,-73.907657,40.808719,2611.0312966733304
12:02:30,1,617,Cypress Av,-73.914042,40.805368,2512.1107945812805
12:02:30,1,618,Brook Av,-73.91924,40.807566,2442.551971051869
12:02:30,1,619,3 Av-138 St,-73.926138,40.810476,2325.6128473444887
12:02:30,1,621,125 St,-73.937594,40.804138,1898.7557031249542
12:02:30,1,622,116 St,-73.941617,40.798629,2227.827133058774
12:02:30,2,623,110 St,-73.94425,40.79502,2308.2557044873456
12:02:30,2,624,103 St,-73.947478,40.7906,2314.6322107016526
12:02:30,2,625,96 St,-73.95107,40.785672,2228.1620352630557
12:38:30,2,626,86 St,-73.955589,40.779492,2016.387157049258
12:02:30,2,627,77 St,-73.959874,40.77362,2033.0164640178696
12:02:30,2,628,68 St-Hunter College,-73.96387,40.768141,1943.3914640178696
12:38:30,2,629,59 St,-73.967967,40.762526,1792.829959682806
12:02:30,2,630,51 St,-73.97192,40.757107,1750.469819822666
12:02:30,2,631,Grand Central-42 St,-73.976848,40.751776,1642.829959682806
12:02:30,2,632,33 St,-73.982076,40.746081,1750.8608875178577
12:02:30,2,633,28 St,-73.984264,40.74307,1817.7165576209504
12:02:30,2,634,23 St,-73.986599,40.739864,1880.9691173479127
12:38:30,2,635,14 St-Union Sq,-73.989951,40.734673,1858.4839450948014
12:02:30,2,636,Astor Pl,-73.99107,40.730054,1934.1746667442858
12:02:30,2,637,Bleecker St,-73.994659,40.725915,2024.8913902937738
12:02:30,2,638,Spring St,-73.997141,40.722301,2094.0410501577194
12:02:30,2,639,Canal St,-74.000193,40.718803,2152.73791289918
12:02:30,2,640,Brooklyn Bridge-City Hall,-74.004131,40.713065,2141.860619099364
12:02:30,1,701,Flushing-Main St,-73.83003,40.7596,3125.5538100931226
12:02:30,1,702,Mets-Willets Point,-73.845625,40.754622,2949.2442862835987
12:02:30,1,705,111 St,-73.855334,40.75173,2979.046514510656
12:02:30,1,706,103 St-Corona Plaza,-73.8627,40.749865,2885.420506032603
12:02:30,1,707,Junction Blvd,-73.869527,40.749145,2715.0871726992696
12:02:30,1,708,90 St-Elmhurst Av,-73.876613,40.748408,2765.7814663534027
12:08:30,2,709,82 St-Jackson Hts,-73.883697,40.747659,2686.401184663262
12:02:30,1,710,74 St-Broadway,-73.891394,40.746848,2544.1528853435343
12:02:30,1,711,69 St,-73.896403,40.746325,2496.741120637652
12:02:30,1,712,61 St-Woodside,-73.902984,40.74563,2424.8326699334266
12:02:30,1,713,52 St,-73.912549,40.744149,2304.906352994973
12:02:30,1,714,46 St-Bliss St,-73.918435,40.743132,2251.21275968021
12:02:30,1,715,40 St-Lowery St,-73.924016,40.743781,2199.8422861426056
12:02:30,1,716,33 St-Rawson St,-73.930997,40.744587,2131.5620313655354
12:02:30,1,718,Queensboro Plaza,-73.940202,40.750582,1989.0871710303397
12:02:30,1,719,Court Sq,-73.945264,40.747023,1877.9675129106818
12:02:30,1,720,Hunters Point Av,-73.948916,40.742216,1784.1713696599932
12:02:30,1,721,Vernon Blvd-Jackson Av,-73.953581,40.742626,1722.8621208549673
12:02:30,1,723,Grand Central-42 St,-73.976041,40.751431,1506.2507078823767
12:02:30,1,724,5 Av,-73.981963,40.753821,1436.755012920096
12:02:30,1,725,Times Sq-42 St,-73.987691,40.755477,1344.2550100590731
13:14:30,1,726,34 St-Hudson Yards,-74.00191,40.755882,1516.2550129200963
13:14:30,1,901,Grand Central-42 St,-73.979189,40.752769,1462.829959682806
13:14:30,1,902,Times Sq-42 St,-73.986229,40.755983,1368.389959682806
13:40:00,1,A02,Inwood-207 St,-73.919899,40.868072,993.1209265176444
13:40:00,1,A03,Dyckman St,-73.927271,40.865491,903.0479338169146
13:40:00,1,A05,190 St,-73.93418,40.859022,779.4555425125667
13:40:00,1,A06,181 St,-73.937969,40.851695,666.2202483949197
13:40:00,1,A07,175 St,-73.939704,40.847391,569.4998182873928
12:00:00,1,A09,168 St,-73.939561,40.840719,442.0613156135961
12:28:00,1,A10,163 St-Amsterdam Av,-73.939892,40.836013,507.9074694597499
12:28:00,1,A11,155 St,-73.941514,40.830518,622.9240607116353
12:28:00,1,A12,145 St,-73.944216,40.824783,686.9383209611896
12:28:00,1,A14,135 St,-73.947649,40.817894,798.1275101503788
12:28:00,1,A15,125 St,-73.952343,40.811109,912.561976875168
12:28:00,1,A16,116 St,-73.954882,40.805085,1036.39755910587
12:28:00,1,A17,Cathedral Pkwy (110 St),-73.958161,40.800603,1121.0726924350772
12:28:00,1,A18,103 St,-73.961454,40.796092,1205.5463194364484
12:28:00,1,A19,96 St,-73.964696,40.791642,1290.0545161577597
12:28:00,1,A20,86 St,-73.968916,40.785868,1389.6826153313136
12:28:00,1,A21,81 St-Museum of Natural History,-73.972143,40.781433,1464.1941757624984
12:38:30,1,A22,72 St,-73.97641,40.775594,1373.5854801103246
12:28:00,1,A24,59 St-Columbus Circle,-73.981736,40.768296,1255.278680552237
12:02:30,1,A25,50 St,-73.985984,40.762456,1383.1377614550609
12:56:30,1,A27,42 St-Port Authority Bus Terminal,-73.989735,40.757308,1431.6355707331857
12:08:30,1,A28,34 St-Penn Station,-73.993391,40.752287,1527.9258933138308
12:14:30,1,A30,23 St,-73.998041,40.745906,1680.087895421691
12:08:30,1,A31,14 St,-74.00169,40.740893,1670.0764309482392
12:08:30,1,A32,W 4 St-Wash Sq,-74.000495,40.732338,1794.4786048612827
12:08:30,1,A33,Spring St,-74.003739,40.726227,2004.7355714502685
12:08:30,1,A34,Canal St,-74.005229,40.720824,1972.902517904761
12:08:30,1,A36,Chambers St,-74.008585,40.714111,1951.2077992896413
13:14:30,1,A38,Fulton St,-74.007691,40.710197,2047.3629717034346
13:14:30,1,A40,High St,-73.990531,40.699337,2233.3112475655034
13:14:30,1,A41,Jay St-MetroTech,-73.987342,40.692338,2358.7460301741994
13:14:30,1,A42,Hoyt-Schermerhorn Sts,-73.985001,40.688484,2476.8677693046343
12:56:30,1,A43,Lafayette Av,-73.973946,40.686113,2609.5491852338378
12:56:30,1,A44,Clinton-Washington Avs,-73.965838,40.683263,2694.2128215974744
13:14:30,1,A45,Franklin Av,-73.956848,40.68138,2800.337821597474
13:14:30,1,A46,Nostrand Av,-73.950426,40.680438,2810.650397335697
12:08:30,1,A47,Kingston-Throop Avs,-73.940858,40.679921,2911.0045640023636
13:14:30,1,A48,Utica Av,-73.930729,40.679364,2981.4706220547982
12:08:30,1,A49,Ralph Av,-73.920786,40.678822,3092.188013359146
12:08:30,1,A50,Rockaway Av,-73.911946,40.67834,3121.1901270047665
13:14:30,1,A51,Broadway Junction,-73.905316,40.678334,3037.091766349029
13:14:30,1,A52,Liberty Av,-73.896548,40.674542,3171.0511159425246
13:14:30,1,A53,Van Siclen Av,-73.890358,40.67271,3266.2299777311423
13:14:30,1,A54,Shepherd Av,-73.88075,40.67413,3370.30314846285
13:14:30,1,A55,Euclid Av,-73.872106,40.675377,3337.4033942560054
13:14:30,1,A57,Grant Av,-73.86505,40.677044,3459.5859668701137
13:14:30,1,A59,80 St,-73.858992,40.679371,3556.9379668701135
13:14:30,1,A60,88 St,-73.85147,40.679843,3652.8981262326633
13:14:30,1,A61,Rockaway Blvd,-73.843853,40.680429,3743.243364327902
12:50:30,1,A63,104 St,-73.837683,40.681711,3826.915364327902
12:50:30,1,A64,111 St,-73.832163,40.684331,3913.046511868886
12:50:30,1,A65,Ozone Park-Lefferts Blvd,-73.825798,40.685951,4002.1098030081266
12:50:30,1,B04,21 St-Queensbridge,-73.942836,40.754203,2261.755012920096
12:50:30,1,B06,Roosevelt Island,-73.95326,40.759145,2141.755012920096
12:50:30,1,B08,Lexington Av/63 St,-73.966113,40.764629,1719.8383767948153
12:28:00,1,B10,57 St,-73.97745,40.763972,1841.755012920096
12:26:30,1,B12,9 Av,-73.994324,40.646292,3370.1688765956083
12:26:30,1,B13,Fort Hamilton Pkwy,-73.994304,40.640914,3471.2714406981727
12:26:30,1,B14,50 St,-73.994791,40.63626,3550.296918405179
12:26:30,1,B15,55 St,-73.995476,40.631435,3650.0548801886184
12:26:30,1,B16,62 St,-73.996895,40.626472,3716.0269081606466
12:26:30,1,B17,71 St,-73.998864,40.619589,3818.5173540205196
12:26:30,1,B18,79 St,-74.00061,40.613501,3925.077863574659
12:26:30,1,B19,18 Av,-74.001736,40.607954,4006.671411961756
12:26:30,1,B20,20 Av,-73.998168,40.604556,4088.6649184552625
12:26:30,1,B21,Bay Pkwy,-73.993728,40.601875,4166.2103730007175
12:26:30,1,B22,25 Av,-73.986829,40.597704,4285.320050420072
12:26:30,1,B23,Bay 50 St,-73.983765,40.588841,4483.891478991501
12:28:00,2,D01,Norwood-205 St,-73.878855,40.874811,2155.1550095391613
12:28:00,2,D03,Bedford Park Blvd,-73.887138,40.873244,1983.6685230526748
12:28:00,2,D04,Kingsbridge Rd,-73.893509,40.866978,1866.5122730526748
12:28:00,2,D05,Fordham Rd,-73.897749,40.861296,1771.9808045212064
12:28:00,2,D06,182-183 Sts,-73.900741,40.856093,1685.0468977200428
12:28:00,2,D07,Tremont Av,-73.905227,40.85041,1606.9318534722554
12:28:00,2,D08,174-175 Sts,-73.910136,40.8459,1528.0687715494737
12:28:00,2,D09,170 St,-73.9134,40.839306,1412.12937761008
12:28:00,2,D10,167 St,-73.91844,40.833771,1304.7051351858374
12:28:00,2,D11,161 St-Yankee Stadium,-73.925651,40.827905,1192.2051351858374
12:28:00,2,D12,155 St,-73.938209,40.830135,1071.2051351858374
13:10:00,1,D13,145 St,-73.944216,40.824783,915.9627109434131
12:02:30,1,D14,7 Av,-73.981637,40.762862,1357.5853472189037
12:02:30,1,D15,47-50 Sts-Rockefeller Ctr,-73.981329,40.758663,1461.1986805522372
12:02:30,1,D16,42 St-Bryant Pk,-73.984569,40.754222,1550.6311129846695
12:02:30,2,D17,34 St-Herald Sq,-73.987823,40.749719,1639.0230048765613
12:26:30,1,D18,23 St,-73.992821,40.742878,1787.4701023254486
12:02:30,1,D19,14 St,-73.996209,40.738228,1714.8474928295782
12:50:30,1,D20,W 4 St-Wash Sq,-74.000495,40.732338,1800.5326781030662
12:50:30,1,D21,Broadway-Lafayette St,-73.996204,40.725297,1953.675782654339
12:02:30,1,D22,Grand St,-73.993753,40.718267,2096.689671543228
12:14:30,1,D24,Atlantic Av-Barclays Ctr,-73.97689,40.68446,2552.9670931867004
12:14:30,1,D25,7 Av,-73.972367,40.67705,2683.4282330830733
12:14:30,1,D26,Prospect Park,-73.962246,40.661614,2864.56812945613
12:14:30,1,D27,Parkside Av,-73.961495,40.655292,2946.4489584716744
12:14:30,1,D28,Church Av,-73.962982,40.650527,3044.192413969057
12:14:30,1,D29,Beverley Rd,-73.964492,40.644031,3169.7479695246125
12:14:30,1,D30,Cortelyou Rd,-73.963891,40.640927,3229.8013028579458
12:14:30,1,D31,Newkirk Plaza,-73.962793,40.635082,3275.6352711119134
12:14:30,1,D32,Avenue H,-73.961639,40.62927,3392.4583775888927
12:14:30,1,D33,Avenue J,-73.960803,40.625039,3480.684145353582
12:14:30,1,D34,Avenue M,-73.959399,40.617618,3584.802094071531
12:14:30,1,D35,Kings Hwy,-73.957734,40.60867,3513.76762405309
12:14:30,1,D37,Avenue U,-73.955929,40.5993,3729.2473238885755
12:14:30,1,D38,Neck Rd,-73.955161,40.595246,3828.7834063628025
12:14:30,1,D39,Sheepshead Bay,-73.954155,40.586896,3751.7526986799558
12:14:30,1,D40,Brighton Beach,-73.961376,40.577621,3901.4799714072283
12:14:30,1,D41,Ocean Pkwy,-73.968501,40.576312,4055.271829496117
12:14:30,1,D42,W 8 St-NY Aquarium,-73.975939,40.576127,4169.723442399343
12:14:30,1,D43,Coney Island-Stillwell Av,-73.981233,40.577422,4249.6789979548985
12:08:30,1,E01,World Trade Center,-74.009781,40.712582,1951.2077992896413
13:38:30,1,F01,Jamaica-179 St,-73.783817,40.712646,3618.0651297036056
12:50:30,1,F02,169 St,-73.793604,40.71047,3625.7794154178914
12:50:30,1,F03,Parsons Blvd,-73.803326,40.707564,3450.9222725607483
12:50:30,1,F04,Sutphin Blvd,-73.810708,40.70546,3508.7794154178914
12:50:30,1,F05,Briarwood,-73.820574,40.709179,3351.7988328936194
12:38:30,1,F06,Kew Gardens-Union Tpke,-73.831008,40.714441,3223.7794154178914
12:50:30,1,F07,75 Av,-73.837324,40.718331,3120.509546054217
13:38:30,1,F09,Court Sq-23 St,-73.946,40.747846,2007.6155869676645
13:38:30,1,F11,Lexington Av/53 St,-73.969055,40.757552,1787.346719043136
13:38:30,1,F12,5 Av/53 St,-73.975224,40.760167,1694.662756778985
12:50:30,1,F14,2 Av,-73.989938,40.723402,2060.8660114363997
12:50:30,1,F15,Delancey St-Essex St,-73.988114,40.718611,2177.639645064978
12:50:30,1,F16,East Broadway,-73.990173,40.713715,2259.87469605876
13:14:30,1,F18,York St,-73.986751,40.701397,2413.9556484397126
13:14:30,1,F20,Bergen St,-73.990862,40.686145,2631.4605698366786
13:14:30,1,F21,Carroll St,-73.995048,40.680303,2740.0479333954336
13:14:30,1,F22,Smith-9 Sts,-73.995959,40.67358,2882.461394933895
13:14:30,1,F23,4 Av-9 St,-73.989779,40.670272,2965.927081208405
13:14:30,1,F24,7 Av,-73.980305,40.666271,2913.7460301741994
13:14:30,1,F25,15 St-Prospect Park,-73.979493,40.660365,3081.6556135785286
13:14:30,1,F26,Fort Hamilton Pkwy,-73.975776,40.650782,3243.314831455624
13:14:30,1,F27,Church Av,-73.979678,40.644041,3153.7460301741994
13:14:30,1,F29,Ditmas Av,-73.978172,40.636119,3273.7460301741994
13:14:30,1,F30,18 Av,-73.976971,40.629755,3393.7460301741994
13:14:30,1,F31,Avenue I,-73.976127,40.625322,3453.7460301741994
13:14:30,1,F32,Bay Pkwy,-73.975264,40.620769,3513.7460301741994
13:14:30,1,F33,Avenue N,-73.974197,40.61514,3633.7460301741994
13:14:30,1,F34,Avenue P,-73.973022,40.608944,3723.7460301741994
13:14:30,1,F35,Kings Hwy,-73.972361,40.603217,3897.4081521619923
13:14:30,1,F36,Avenue U,-73.973357,40.596063,4006.00921599178
13:14:30,1,F38,Avenue X,-73.97425,40.58962,4099.212424547929
12:14:30,1,F39,Neptune Av,-73.974574,40.581011,4213.684334660289
12:38:30,1,G05,Jamaica Center-Parsons/Archer,-73.801109,40.702147,3681.737450439186
13:38:30,1,G06,Sutphin Blvd-Archer Av-JFK Airport,-73.807969,40.700486,3590.452534238069
13:38:30,1,G07,Jamaica-Van Wyck,-73.816859,40.702566,3471.100682386217
12:38:30,1,G08,Forest Hills-71 Av,-73.844521,40.721691,3012.071450816122
13:08:30,1,G09,67 Av,-73.852719,40.726523,3160.841190427374
13:08:30,1,G10,63 Dr-Rego Park,-73.861604,40.729846,3061.3989796074734
13:08:30,1,G11,Woodhaven Blvd,-73.869229,40.733106,2957.768842621172
13:08:30,1,G12,Grand Av-Newtown,-73.877223,40.737015,2834.893842621172
13:08:30,1,G13,Elmhurst Av,-73.882017,40.742454,2735.35959604583
12:38:30,1,G14,Jackson Hts-Roosevelt Av,-73.891338,40.746644,2583.9732365304076
12:38:30,1,G15,65 St,-73.898453,40.749669,2728.463544762481
12:38:30,1,G16,Northern Blvd,-73.906006,40.752885,2632.548512082742
13:14:30,1,G18,46 St,-73.913333,40.756312,2542.402816718504
13:14:30,1,G19,Steinway St,-73.92074,40.756879,2436.4756644006234
13:14:30,1,G20,36 St,-73.928781,40.752039,2290.2889977339564
13:38:30,1,G21,Queens Plaza,-73.937243,40.748973,2132.755664400623
12:08:30,2,G22,Court Sq,-73.943832,40.746554,2057.967512910682
12:08:30,2,G24,21 St,-73.949724,40.744065,2147.2804900099186
12:08:30,2,G26,Greenpoint Av,-73.954449,40.731352,2288.6769397140606
12:02:30,2,G28,Nassau Av,-73.951277,40.724635,2391.0480793664797
12:08:30,2,G29,Metropolitan Av,-73.951418,40.712792,2258.966112153365
12:02:30,2,G30,Broadway,-73.950308,40.706092,2359.5476338924955
12:02:30,2,G31,Flushing Av,-73.950234,40.700377,2445.9422284870902
12:02:30,2,G32,Myrtle-Willoughby Avs,-73.949046,40.694568,2527.6665528114145
12:02:30,2,G33,Bedford-Nostrand Avs,-73.953522,40.689627,2639.5966603382963
13:38:30,1,G34,Classon Av,-73.96007,40.688873,2721.5241214781927
13:38:30,1,G35,Clinton-Washington Avs,-73.966839,40.688089,2805.3901008596363
13:38:30,1,G36,Fulton St,-73.975375,40.687119,2810.4580210779027
12:16:00,1,H01,Aqueduct Racetrack,-73.834058,40.668234,3949.2751103596474
13:14:30,1,H02,Aqueduct-N Conduit Av,-73.834058,40.668234,4022.344163299223
13:14:30,1,H03,Howard Beach-JFK Airport,-73.830301,40.660476,4120.463999248536
13:14:30,1,H04,Broad Channel,-73.815925,40.608382,4538.415612151763
13:14:30,1,H06,Beach 67 St,-73.796924,40.590927,4849.7050858359735
13:14:30,1,H07,Beach 60 St,-73.788522,40.592374,4953.152454257026
13:14:30,1,H08,Beach 44 St,-73.776013,40.592943,5056.634910397377
13:14:30,1,H09,Beach 36 St,-73.768175,40.595398,5153.880524432465
13:14:30,1,H10,Beach 25 St,-73.761353,40.600066,5254.2610554059165
13:14:30,1,H11,Far Rockaway-Mott Av,-73.755405,40.603995,5353.427722072583
12:38:30,1,H12,Beach 90 St,-73.813641,40.588034,4789.715612151763
12:38:30,1,H13,Beach 98 St,-73.820558,40.585307,4868.115612151762
12:38:30,1,H14,Beach 105 St,-73.827559,40.583209,4944.226723262874
12:38:30,1,H15,Rockaway Park-Beach 116 St,-73.835592,40.580903,5048.426723262874
12:08:30,1,J12,121 St,-73.828294,40.700492,3988.952534238069
12:08:30,1,J13,111 St,-73.836345,40.697418,4038.967689076631
12:08:30,1,J14,104 St,-73.84433,40.695178,3847.091766349029
12:08:30,1,J15,Woodhaven Blvd,-73.851576,40.693879,3757.091766349029
12:08:30,1,J16,85 St-Forest Pkwy,-73.86001,40.692435,3761.3229087089308
12:08:30,1,J17,75 St-Elderts Ln,-73.867139,40.691324,3577.091766349029
12:08:30,1,J19,Cypress Hills,-73.87255,40.689941,3559.072908708931
13:38:30,2,J20,Crescent St,-73.873785,40.683194,3427.091766349029
13:38:30,2,J21,Norwood Av,-73.880039,40.68141,3337.091766349029
13:38:30,2,J22,Cleveland St,-73.884639,40.679947,3342.2712867688483
13:38:30,2,J23,Van Siclen Av,-73.891688,40.678024,3187.091766349029
13:38:30,2,J24,Alabama Av,-73.898654,40.676992,3127.091766349029
12:02:30,2,J27,Broadway Junction,-73.904512,40.679498,3023.7733790790553
12:02:30,2,J28,Chauncey St,-73.910456,40.682893,3097.091766349029
12:02:30,2,J29,Halsey St,-73.916559,40.68637,3205.1163708904883
12:02:30,2,J30,Gates Av,-73.92227,40.68963,3058.677973165431
12:02:30,2,J31,Kosciuszko St,-73.928814,40.693342,3022.9666702916857
13:38:30,1,L01,8 Av,-74.002578,40.739777,1675.4162122396126
13:38:30,1,L02,6 Av,-73.996786,40.737335,1591.6993447697332
13:38:30,1,L03,14 St-Union Sq,-73.99073,40.734789,1667.9974814156958
13:38:30,1,L05,3 Av,-73.986122,40.732849,1714.5949557210488
13:38:30,1,L06,1 Av,-73.981628,40.730953,1762.1169682996651
13:38:30,1,L08,Bedford Av,-73.956872,40.717304,1971.083017682381
13:38:30,1,L10,Lorimer St,-73.950275,40.714063,2045.7518279717701
13:38:30,1,L11,Graham Av,-73.944053,40.714565,2080.5162724162146
13:38:30,1,L12,Grand St,-73.94067,40.711926,2160.261495346151
13:38:30,1,L13,Montrose Av,-73.93985,40.707739,2196.2835079247675
13:38:30,1,L14,Morgan Av,-73.933147,40.706152,2281.563382138604
13:38:30,1,L15,Jefferson St,-73.922913,40.706607,2366.765979352873
13:38:30,1,L16,DeKalb Av,-73.918425,40.703811,2432.4677865817885
13:38:30,1,L17,Myrtle-Wyckoff Avs,-73.911586,40.699814,2503.4768500258974
13:38:30,1,L19,Halsey St,-73.904084,40.695602,2547.54082308987
13:38:30,1,L20,Wilson Av,-73.904046,40.688764,2664.5192181515986
13:38:30,1,L21,Bushwick Av-Aberdeen St,-73.905249,40.682829,2748.8560237071542
13:38:30,1,L22,Broadway Junction,-73.90324,40.678856,2798.7733790790553
13:38:30,1,L24,Atlantic Av,-73.903097,40.675345,2906.8505395728826
13:38:30,1,L25,Sutter Av,-73.901975,40.669367,2977.22284726519
13:38:30,1,L26,Livonia Av,-73.900571,40.664038,3034.9318255933636
13:38:30,1,L27,New Lots Av,-73.899232,40.658733,3084.0318255933635
13:38:30,1,L28,East 105 St,-73.899485,40.650573,3180.758240687703
13:38:30,1,L29,Canarsie-Rockaway Pkwy,-73.90185,40.646654,3305.8224298768923
12:14:30,2,M01,Middle Village-Metropolitan Av,-73.889601,40.711396,3128.928411586761
12:14:30,2,M04,Fresh Pond Rd,-73.895877,40.706186,3011.645392718837
12:14:30,2,M05,Forest Av,-73.903077,40.704423,2919.059058983676
12:14:30,2,M06,Seneca Av,-73.90774,40.702762,2824.69482057308
13:08:30,1,M08,Myrtle-Wyckoff Avs,-73.912385,40.69943,2728.4768500258974
13:02:30,2,M09,Knickerbocker Av,-73.919711,40.698664,2823.675680435254
13:08:30,1,M10,Central Av,-73.927397,40.697857,2934.6639157293716
12:08:30,1,M11,Myrtle Av,-73.935657,40.697207,2891.511306498764
12:08:30,1,M12,Flushing Av,-73.941126,40.70026,2826.6112844601967
12:08:30,1,M13,Lorimer St,-73.947408,40.703869,2730.085472245088
12:08:30,1,M14,Hewes St,-73.953431,40.70687,2633.0966398320975
12:08:30,1,M16,Marcy Av,-73.957757,40.708359,2523.3446398320975
12:08:30,1,M18,Delancey St-Essex St,-73.987437,40.718315,2159.820049668163
12:02:30,2,M19,Bowery,-73.993915,40.72028,2236.4468707980877
13:38:30,1,M20,Canal St,-73.999892,40.718092,2138.459065920039
13:38:30,1,M21,Chambers St,-74.003401,40.713243,2245.8212450404208
13:38:30,1,M22,Fulton St,-74.007582,40.710374,2181.302406614431
12:50:30,1,M23,Broad St,-74.011056,40.706476,2247.997143456537
12:26:30,1,N02,8 Av,-74.011719,40.635064,3444.838827578356
12:26:30,1,N03,Fort Hamilton Pkwy,-74.005351,40.631386,3537.8615972043945
12:26:30,1,N04,New Utrecht Av,-73.996353,40.624842,3677.8615972043945
12:26:30,1,N05,18 Av,-73.990414,40.620671,3767.8615972043945
12:26:30,1,N06,20 Av,-73.985026,40.61741,3837.8615972043945
12:26:30,1,N07,Bay Pkwy,-73.981848,40.611815,3927.8615972043945
12:26:30,1,N08,Kings Hwy,-73.980353,40.603923,4047.8615972043945
12:26:30,1,N09,Avenue U,-73.979137,40.597473,4147.8615972043945
12:26:30,1,N10,86 St,-73.97823,40.592721,4207.8615972043945
12:26:30,1,Q01,Canal St,-74.00046,40.718383,1909.8615972043947
12:50:30,1,Q03,72 St,-73.958424,40.768799,1843.6433302712007
12:50:30,1,Q04,86 St,-73.951787,40.777891,1971.8074489597639
12:50:30,1,Q05,96 St,-73.947152,40.784318,2063.049873202188
12:50:30,1,R01,Astoria-Ditmars Blvd,-73.912034,40.775036,2670.3538371905515
12:50:30,1,R03,Astoria Blvd,-73.917843,40.770258,2569.1756193687693
12:50:30,1,R04,30 Av,-73.921479,40.766779,2469.322286035436
12:50:30,1,R05,Broadway,-73.925508,40.76182,2372.7898185029685
12:50:30,1,R06,36 Av,-73.929575,40.756804,2277.9477132398106
12:50:30,1,R08,39 Av-Dutch Kills,-73.932755,40.752882,2172.6277132398104
12:50:30,1,R09,Queensboro Plaza,-73.940202,40.750582,2036.0871726992698
12:50:30,1,R11,Lexington Av/59 St,-73.967258,40.76266,1800.7240266477359
12:50:30,1,R13,5 Av/59 St,-73.973347,40.764811,1698.1813437209066
12:50:30,1,R14,57 St-7 Av,-73.980658,40.764664,1541.6622109917064
13:14:30,1,R15,49 St,-73.984139,40.759901,1457.589959682806
12:26:30,1,R16,Times Sq-42 St,-73.986754,40.754672,1368.389959682806
12:26:30,1,R17,34 St-Herald Sq,-73.98795,40.749567,1461.983709682806
12:38:30,1,R18,28 St,-73.988691,40.745494,1561.9674244715384
12:38:30,1,R19,23 St,-73.989344,40.741303,1643.1505230630876
12:26:30,1,R20,14 St-Union Sq,-73.990568,40.735736,1635.0268017880692
12:38:30,1,R21,8 St-NYU,-73.992629,40.730328,1834.2491146123832
12:38:30,1,R22,Prince St,-73.997702,40.724329,1945.898321267816
12:38:30,1,R23,Canal St,-74.001775,40.719527,2045.6967708802192
12:38:30,1,R24,City Hall,-74.006978,40.713282,2191.1890785725273
12:38:30,1,R25,Cortlandt St,-74.011029,40.710668,2131.2077992896416
12:14:30,1,R26,Rector St,-74.013342,40.70722,2241.1859014794227
12:14:30,1,R27,Whitehall St-South Ferry,-74.012994,40.703087,2331.9012299465758
12:14:30,1,R28,Court St,-73.991777,40.6941,2459.1382940033905
12:14:30,1,R29,Jay St-MetroTech,-73.985942,40.69218,2493.7460301741994
12:14:30,1,R30,DeKalb Av,-73.981824,40.690635,2383.92966003162
12:26:30,1,R31,Atlantic Av-Barclays Ctr,-73.97881,40.683666,2600.4382865160674
13:38:30,1,R32,Union St,-73.98311,40.677316,2736.7799872872424
13:38:30,1,R33,4 Av-9 St,-73.988302,40.670847,2841.8276063348617
13:38:30,1,R34,Prospect Av,-73.992872,40.665414,2948.677606334862
13:38:30,1,R35,25 St,-73.998091,40.660397,3070.429545257326
12:26:30,1,R36,36 St,-74.003549,40.655144,2985.506468334249
13:38:30,1,R39,45 St,-74.010006,40.648939,3188.436920060352
12:26:30,1,R40,53 St,-74.014034,40.645069,3277.66140985627
12:26:30,1,R41,59 St,-74.017881,40.641362,3277.5629655093903
13:38:30,1,R42,Bay Ridge Av,-74.023377,40.634967,3438.3729668055876
13:38:30,1,R43,77 St,-74.02551,40.629742,3518.6456940783146
13:38:30,1,R44,86 St,-74.028398,40.622687,3694.996884554505
13:38:30,1,R45,Bay Ridge-95 St,-74.030876,40.616622,3772.012632586001
12:14:30,1,S01,Franklin Av,-73.955827,40.680596,2980.337821597474
12:14:30,1,S03,Park Pl,-73.957624,40.674772,3103.212821597474
12:14:30,1,S04,Botanic Garden,-73.959245,40.670343,3076.801617965437
