start_time,ntransfers,stop_id,stop_name,stop_lon,stop_lat,duration
13:59:30,0,101,Van Cortlandt Park-242 St,-73.898583,40.889248,4723.834188872025
12:07:30,0,103,238 St,-73.90087,40.884667,4598.023378061214
12:07:30,0,104,231 St,-73.904834,40.878856,4494.391091065699
12:07:30,0,106,Marble Hill-225 St,-73.909831,40.874561,4396.909109083716
12:07:30,0,107,215 St,-73.915279,40.869444,4308.116316290923
12:07:30,0,108,207 St,-73.918822,40.864621,4218.39337256798
12:07:30,0,109,Dyckman St,-73.925536,40.860531,4118.080597237584
12:07:30,0,110,191 St,-73.929412,40.855225,4034.2357696513764
12:07:30,0,111,181 St,-73.933596,40.849505,3943.2057267329214
12:07:30,0,112,168 St-Washington Hts,-73.940133,40.840556,3824.004009994724
12:07:30,0,113,157 St,-73.94489,40.834041,3724.6850444774827
12:07:30,0,114,145 St,-73.95036,40.826551,3607.4318255933626
12:07:30,0,115,137 St-City College,-73.953676,40.822008,3506.5557572172943
12:07:30,0,116,125 St,-73.958372,40.815581,3411.2307572172945
12:07:30,0,117,116 St-Columbia University,-73.96411,40.807722,3297.0015905506275
12:07:30,0,118,Cathedral Pkwy (110 St),-73.966847,40.803967,3218.0470450960825
12:07:30,0,119,103 St,-73.968379,40.799446,3138.518356571492
12:07:30,0,120,96 St,-73.972323,40.793919,2889.842785413986
12:23:30,0,121,86 St,-73.976218,40.788644,2928.11671722723
12:23:30,0,122,79 St,-73.979917,40.783934,2851.2427334873923
12:07:30,0,123,72 St,-73.98197,40.778453,2722.791765005823
12:15:30,0,124,66 St-Lincoln Center,-73.982209,40.77344,2838.193720845899
12:15:30,0,125,59 St-Columbus Circle,-73.981929,40.768247,2835.2295852986354
12:15:30,0,126,50 St,-73.983849,40.761728,2731.5604123663043
12:07:30,0,127,Times Sq-42 St,-73.987495,40.75529,2497.4075842148623
12:07:30,0,128,34 St-Penn Station,-73.991057,40.750373,2396.0486098558877
12:07:30,0,129,28 St,-73.993365,40.747215,2437.645672686917
12:07:30,0,130,23 St,-73.995657,40.744081,2368.497383713533
12:07:30,0,131,18 St,-73.997871,40.74104,2300.3193534105026
12:07:30,0,132,14 St,-74.000201,40.737826,2225.73248082363
12:23:30,0,133,Christopher St-Sheridan Sq,-74.002906,40.733422,2316.454703045852
12:23:30,0,134,Houston St,-74.005367,40.728251,2402.3356554268044
12:23:30,0,135,Canal St,-74.006277,40.722854,2434.5058470899
12:23:30,0,136,Franklin St,-74.006886,40.719318,2370.715333255908
12:07:30,0,137,Chambers St,-74.009266,40.715478,2089.9291430930007
12:15:30,0,138,WTC Cortlandt,-74.012188,40.711835,2220.802530887997
12:15:30,0,139,Rector St,-74.013783,40.707513,2144.2924094305067
12:15:30,0,142,South Ferry,-74.013664,40.702068,2041.2015003395977
13:35:30,0,201,Wakefield-241 St,-73.85062,40.903125,5470.979202061326
13:35:30,0,204,Nereid Av,-73.854376,40.898379,5173.9633886993615
13:35:30,0,205,233 St,-73.857473,40.893193,5083.9633886993615
13:35:30,0,206,225 St,-73.860341,40.888022,4993.9633886993615
13:35:30,0,207,219 St,-73.862633,40.883895,4903.9633886993615
13:35:30,0,208,Gun Hill Rd,-73.866256,40.87785,4798.9633886993615
13:35:30,0,209,Burke Av,-73.867164,40.871356,4789.80975873906
13:35:30,0,210,Allerton Av,-73.867352,40.865462,4697.679323956451
13:35:30,0,211,Pelham Pkwy,-73.867615,40.857192,4593.331497869495
13:35:30,0,212,Bronx Park East,-73.868457,40.848828,4468.505410912973
13:35:30,0,213,E 180 St,-73.873488,40.841894,4258.201063086886
12:07:30,0,214,West Farms Sq-E Tremont Av,-73.880049,40.840295,4205.329521778742
12:07:30,0,215,174 St,-73.887734,40.837288,4075.2433148821906
12:07:30,0,216,Freeman St,-73.891865,40.829993,3955.405708044584
12:07:30,0,217,Simpson St,-73.893064,40.824073,3845.024352112381
13:35:30,0,218,Intervale Av,-73.896736,40.822181,3772.100623298821
13:35:30,0,219,Prospect Av,-73.90177,40.819585,3686.219267366618
12:07:30,0,220,Jackson Av,-73.907807,40.81649,3594.1604438372065
13:35:30,0,221,3 Av-149 St,-73.917757,40.816109,3472.4521105038734
12:07:30,0,222,149 St-Grand Concourse,-73.926718,40.81841,3354.5870980345353
12:07:30,0,224,135 St,-73.94077,40.814229,3413.9789078629656
12:07:30,0,225,125 St,-73.945495,40.807754,3305.8989078629656
12:07:30,0,226,116 St,-73.949625,40.802098,3209.919316026231
12:07:30,0,227,Central Park North (110 St),-73.951822,40.799075,3141.5468670466394
12:07:30,0,228,Park Place,-74.008811,40.713051,2002.8091430930008
12:07:30,0,229,Fulton St,-74.006571,40.709416,1892.5970218808798
12:07:30,0,230,Wall St,-74.0091,40.706821,1819.3263451891503
12:07:30,0,231,Clark St,-73.993086,40.697466,1612.8119589036153
12:07:30,0,232,Borough Hall,-73.989998,40.693219,1516.0955409931676
12:07:30,0,233,Hoyt St,-73.985065,40.690545,1420.1386031941247
12:07:30,0,234,Nevins St,-73.980492,40.688246,1295.6246555238483
12:07:30,0,235,Atlantic Av-Barclays Ctr,-73.977666,40.684359,1204.6475225225224
12:07:30,0,236,Bergen St,-73.975098,40.680829,1280.5758457229047
12:07:30,0,237,Grand Army Plaza,-73.971046,40.675235,1184.3601594483948
12:07:30,0,238,Eastern Pkwy-Brooklyn Museum,-73.964375,40.671987,1081.379767291532
12:07:30,0,239,Franklin Av-Medgar Evers College,-73.958131,40.670682,891.6646555238483
12:07:30,0,241,President St-Medgar Evers College,-73.950683,40.667883,1096.4326923076924
12:07:30,0,242,Sterling St,-73.95085,40.662742,1186.9038461538462
12:07:30,0,243,Winthrop St,-73.9502,40.656652,1272.056227106227
12:07:30,0,244,Church Av,-73.949575,40.650843,1353.9084998334997
12:07:30,0,245,Beverly Rd,-73.948959,40.645098,1435.3424620976507
12:07:30,0,246,Newkirk Av-Little Haiti,-73.948411,40.639967,1521.3424620976507
12:07:30,0,247,Flatbush Av-Brooklyn College,-73.947642,40.632836,1638.679304202914
12:07:30,0,248,Nostrand Av,-73.950466,40.669847,844.6934927817281
12:07:30,0,249,Kingston Av,-73.942161,40.669399,720.0
12:07:30,0,250,Crown Hts-Utica Av,-73.932942,40.668897,625.5
12:07:30,0,251,Sutter Av-Rutland Rd,-73.92261,40.664717,481.00000000000006
12:07:30,0,252,Saratoga Av,-73.916327,40.661453,374.5
12:07:30,0,253,Rockaway Av,-73.908946,40.662549,293.50000000000006
12:07:30,0,254,Junius St,-73.902447,40.663515,212.50000000000003
12:07:30,0,255,Pennsylvania Av,-73.894895,40.664635,118.5
12:07:30,0,256,Van Siclen Av,-73.889395,40.665449,44.5
12:07:30,0,257,New Lots Av,-73.884079,40.666235,0.0
12:07:30,0,301,Harlem-148 St,-73.93647,40.82388,3661.868118389281
12:07:30,0,302,145 St,-73.936245,40.820421,3547.483907862965
13:35:30,0,401,Woodlawn,-73.878751,40.886037,4709.277219858828
13:35:30,0,402,Mosholu Pkwy,-73.884655,40.87975,4563.782374498003
12:07:30,0,405,Bedford Park Blvd-Lehman College,-73.890064,40.873412,4442.271884987514
12:07:30,0,406,Kingsbridge Rd,-73.897174,40.86776,4307.722865379671
12:07:30,0,407,Fordham Rd,-73.901034,40.862803,4216.376460150913
12:07:30,0,408,183 St,-73.903879,40.858407,4135.6771137456835
12:07:30,0,409,Burnside Av,-73.907684,40.853453,4042.5049825981428
12:07:30,0,410,176 St,-73.911794,40.84848,3968.154035988969
12:07:30,0,411,Mt Eden Av,-73.914685,40.844434,3892.4089379497536
12:07:30,0,412,170 St,-73.917791,40.840075,3814.8860621327603
12:07:30,0,413,167 St,-73.9214,40.835537,3734.3554498878625
12:07:30,0,414,161 St-Yankee Stadium,-73.925831,40.827994,3588.8408867810663
12:07:30,0,415,149 St-Grand Concourse,-73.927351,40.818375,3358.895886781066
12:07:30,0,416,138 St-Grand Concourse,-73.929849,40.813224,3189.5810739381495
12:07:30,0,418,Fulton St,-74.009509,40.710368,1835.4755836050638
12:07:30,0,419,Wall St,-74.011862,40.707557,1758.2641298605704
12:07:30,0,420,Bowling Green,-74.014065,40.704817,1684.273304172497
12:07:30,0,423,Borough Hall,-73.990151,40.692404,1416.0435744427673
13:35:30,0,501,Eastchester-Dyre Av,-73.830834,40.8883,5033.801103415888
13:35:30,0,502,Baychester Av,-73.838591,40.878663,4903.4384660532505
13:35:30,0,503,Gun Hill Rd,-73.846384,40.869526,4744.66964884895
13:35:30,0,504,Pelham Pkwy,-73.855359,40.858985,4587.310953196776
13:35:30,0,505,Morris Park,-73.860495,40.854364,4499.629634515458
13:59:30,0,601,Pelham Bay Park,-73.828121,40.852462,4852.618060951603
13:59:30,0,602,Buhre Av,-73.832569,40.84681,4669.191110596993
13:59:30,0,603,Middletown Rd,-73.836322,40.843863,4560.35777726366
13:59:30,0,604,Westchester Sq-E Tremont Av,-73.842952,40.839892,4415.60777726366
13:59:30,0,606,Zerega Av,-73.847036,40.836488,4317.524443930327
13:59:30,0,607,Castle Hill Av,-73.851222,40.834255,4250.191110596994
13:59:30,0,608,Parkchester,-73.860816,40.833226,4094.1911105969943
13:59:30,0,609,St Lawrence Av,-73.867618,40.831509,4332.1284770811135
13:59:30,0,610,Morrison Av-Soundview,-73.874516,40.829521,4247.060747997448
13:59:30,0,611,Elder Av,-73.879159,40.828584,4181.896747997448
13:59:30,0,612,Whitlock Av,-73.886283,40.826525,4075.5567479974475
12:07:30,0,613,Hunts Point Av,-73.890549,40.820948,3837.8064952123786
12:07:30,0,614,Longwood Av,-73.896435,40.816104,3920.0986784490833
12:07:30,0,615,E 149 St,-73.904098,40.812118,3818.9903451157497
12:07:30,0,616,E 143 St-St Mary's St,-73.907657,40.808719,3744.1480214642975
12:07:30,0,617,Cypress Av,-73.914042,40.805368,3645.227519372247
12:07:30,0,618,Brook Av,-73.91924,40.807566,3575.668695842836
12:07:30,0,619,3 Av-138 St,-73.926138,40.810476,3458.7295721354553
12:07:30,0,621,125 St,-73.937594,40.804138,3031.872427915921
12:07:30,0,622,116 St,-73.941617,40.798629,3358.2712835095317
12:07:30,0,623,110 St,-73.94425,40.79502,3278.320406316549
12:07:30,0,624,103 St,-73.947478,40.7906,3201.9484764919875
12:07:30,0,625,96 St,-73.95107,40.785672,3115.478301053391
12:07:30,0,626,86 St,-73.955589,40.779492,2747.4767444626837
12:07:30,0,627,77 St,-73.959874,40.77362,2920.332729808205
12:07:30,0,628,68 St-Hunter College,-73.96387,40.768141,2830.707729808205
12:07:30,0,629,59 St,-73.967967,40.762526,2550.327808292471
12:07:30,0,630,51 St,-73.97192,40.757107,2637.7860856130014
12:07:30,0,631,Grand Central-42 St,-73.976848,40.751776,2389.9235529733223
12:07:30,0,632,33 St,-73.982076,40.746081,2400.0090203228738
12:07:30,0,633,28 St,-73.984264,40.74307,2329.1112930501467
12:07:30,0,634,23 St,-73.986599,40.739864,2253.3385657774193
12:07:30,0,635,14 St-Union Sq,-73.989951,40.734673,2153.3953839592373
12:07:30,0,636,Astor Pl,-73.99107,40.730054,2229.086105608722
12:07:30,0,637,Bleecker St,-73.994659,40.725915,2319.80282915821
12:07:30,0,638,Spring St,-73.997141,40.722301,2309.6322987638614
12:07:30,0,639,Canal St,-74.000193,40.718803,2235.8552717368343
12:07:30,0,640,Brooklyn Bridge-City Hall,-74.004131,40.713065,1946.4315307416275
12:07:30,2,701,Flushing-Main St,-73.83003,40.7596,3660.8497619869545
12:07:30,2,702,Mets-Willets Point,-73.845625,40.754622,3484.5402381774306
12:07:30,2,705,111 St,-73.855334,40.75173,3504.495993053903
12:07:30,2,706,103 St-Corona Plaza,-73.8627,40.749865,3410.86998457585
12:07:30,2,707,Junction Blvd,-73.869527,40.749145,3240.5366512425167
12:07:30,2,708,90 St-Elmhurst Av,-73.876613,40.748408,3295.2849706242073
12:07:30,2,709,82 St-Jackson Hts,-73.883697,40.747659,3215.904688934066
12:15:30,1,710,74 St-Broadway,-73.891394,40.746848,3073.6563896143384
12:15:30,1,711,69 St,-73.896403,40.746325,3026.2446249084564
12:15:30,1,712,61 St-Woodside,-73.902984,40.74563,2954.3361742042307
12:15:30,1,713,52 St,-73.912549,40.744149,2865.1509890190455
12:15:30,1,714,46 St-Bliss St,-73.918435,40.743132,2807.3204805444693
12:15:30,1,715,40 St-Lowery St,-73.924016,40.743781,2752.00861613769
12:15:30,1,716,33 St-Rawson St,-73.930997,40.744587,2687.841380642809
12:15:30,1,718,Queensboro Plaza,-73.940202,40.750582,2561.5366512425167
12:15:30,1,719,Court Sq,-73.945264,40.747023,2472.536651242516
12:15:30,1,720,Hunters Point Av,-73.948916,40.742216,2558.536651242516
12:15:30,1,721,Vernon Blvd-Jackson Av,-73.953581,40.742626,2586.536651242516
12:31:30,1,723,Grand Central-42 St,-73.976041,40.751431,2625.5941417232125
12:31:30,1,724,5 Av,-73.981963,40.753821,2723.2653593691302
12:31:30,1,725,Times Sq-42 St,-73.987691,40.755477,2647.1252503183455
12:31:30,1,726,34 St-Hudson Yards,-74.00191,40.755882,2813.8628525211952
12:31:30,1,901,Grand Central-42 St,-73.979189,40.752769,2580.5941417232125
12:15:30,1,902,Times Sq-42 St,-73.986229,40.755983,2600.0322260645003
13:03:30,1,A02,Inwood-207 St,-73.919899,40.868072,4227.808701446303
13:03:30,1,A03,Dyckman St,-73.927271,40.865491,4137.735708745572
13:03:30,1,A05,190 St,-73.93418,40.859022,4014.143317441224
13:03:30,1,A06,181 St,-73.937969,40.851695,3900.908023323577
13:03:30,1,A07,175 St,-73.939704,40.847391,3804.18759321605
13:03:30,1,A09,168 St,-73.939561,40.840719,3676.7490905422533
13:43:30,1,A10,163 St-Amsterdam Av,-73.939892,40.836013,3697.702686381721
13:43:30,1,A11,155 St,-73.941514,40.830518,3615.8693530483874
13:03:30,1,A12,145 St,-73.944216,40.824783,3431.87208519466
13:03:30,1,A14,135 St,-73.947649,40.817894,3353.707888740141
13:59:30,1,A15,125 St,-73.952343,40.811109,3206.248429280681
12:23:30,1,A16,116 St,-73.954882,40.805085,3330.0840115113833
12:23:30,1,A17,Cathedral Pkwy (110 St),-73.958161,40.800603,3372.1682439290657
12:23:30,1,A18,103 St,-73.961454,40.796092,3288.449235664603
12:23:30,1,A19,96 St,-73.964696,40.791642,3203.9410389432915
12:23:30,1,A20,86 St,-73.968916,40.785868,3104.3129397697376
12:23:30,1,A21,81 St-Museum of Natural History,-73.972143,40.781433,3008.571273103071
12:23:30,1,A22,72 St,-73.97641,40.775594,2915.1712731030707
12:23:30,1,A24,59 St-Columbus Circle,-73.981736,40.768296,2693.4766901502467
13:59:30,1,A25,50 St,-73.985984,40.762456,2665.8442957019406
12:07:30,2,A27,42 St-Port Authority Bus Terminal,-73.989735,40.757308,2531.471284744841
12:07:30,2,A28,34 St-Penn Station,-73.993391,40.752287,2435.180962164196
12:07:30,2,A30,23 St,-73.998041,40.745906,2368.8941617353107
12:23:30,1,A31,14 St,-74.00169,40.740893,2280.0830582921467
12:23:30,1,A32,W 4 St-Wash Sq,-74.000495,40.732338,2392.2058653096906
12:15:30,1,A33,Spring St,-74.003739,40.726227,2393.8719641258426
12:23:30,1,A34,Canal St,-74.005229,40.720824,2276.168863332994
12:23:30,1,A36,Chambers St,-74.008585,40.714111,2155.842776376472
12:23:30,1,A38,Fulton St,-74.007691,40.710197,2058.4032159369117
12:23:30,2,A40,High St,-73.990531,40.699337,1942.0844666372438
13:43:30,2,A41,Jay St-MetroTech,-73.987342,40.692338,1814.8804865377413
13:43:30,2,A42,Hoyt-Schermerhorn Sts,-73.985001,40.688484,1694.6056050211537
13:43:30,2,A43,Lafayette Av,-73.973946,40.686113,1717.660063973883
13:43:30,2,A44,Clinton-Washington Avs,-73.965838,40.683263,1632.9964276102467
13:43:30,2,A45,Franklin Av,-73.956848,40.68138,1526.8714276102467
13:43:30,2,A46,Nostrand Av,-73.950426,40.680438,1361.6386238890782
13:43:30,2,A47,Kingston-Throop Avs,-73.940858,40.679921,1351.7405685610388
13:43:30,2,A48,Utica Av,-73.930729,40.679364,1199.5498388423493
12:23:30,2,A49,Ralph Av,-73.920786,40.678822,1158.8386665363344
12:23:30,2,A50,Rockaway Av,-73.911946,40.67834,1060.3923855445987
13:19:30,2,A51,Broadway Junction,-73.905316,40.678334,976.294024888861
12:23:30,2,A52,Liberty Av,-73.896548,40.674542,1110.2533744823568
12:23:30,2,A53,Van Siclen Av,-73.890358,40.67271,1205.4322362709747
12:23:30,2,A54,Shepherd Av,-73.88075,40.67413,1309.5054070026822
13:03:30,2,A55,Euclid Av,-73.872106,40.675377,1276.6056527958376
13:03:30,2,A57,Grant Av,-73.86505,40.677044,1398.7882254099457
13:03:30,2,A59,80 St,-73.858992,40.679371,1496.1402254099455
13:03:30,2,A60,88 St,-73.85147,40.679843,1592.1003847724955
13:03:30,2,A61,Rockaway Blvd,-73.843853,40.680429,1682.4456228677336
13:03:30,2,A63,104 St,-73.837683,40.681711,1766.1176228677336
13:03:30,2,A64,111 St,-73.832163,40.684331,1852.2487704087173
13:03:30,2,A65,Ozone Park-Lefferts Blvd,-73.825798,40.685951,1941.3120615479577
12:15:30,1,B04,21 St-Queensbridge,-73.942836,40.754203,3142.0982306599803
12:15:30,1,B06,Roosevelt Island,-73.95326,40.759145,2995.477541004808
12:15:30,1,B08,Lexington Av/63 St,-73.966113,40.764629,2771.4806431765096
13:03:30,1,B10,57 St,-73.97745,40.763972,2735.73248082363
12:23:30,1,B12,9 Av,-73.994324,40.646292,2216.7279295004887
12:23:30,1,B13,Fort Hamilton Pkwy,-73.994304,40.640914,2317.8304936030527
12:23:30,1,B14,50 St,-73.994791,40.63626,2396.8559713100594
12:23:30,1,B15,55 St,-73.995476,40.631435,2496.613933093499
12:23:30,1,B16,62 St,-73.996895,40.626472,2562.585961065527
12:23:30,1,B17,71 St,-73.998864,40.619589,2665.0764069253996
12:23:30,1,B18,79 St,-74.00061,40.613501,2771.63691647954
12:23:30,1,B19,18 Av,-74.001736,40.607954,2853.230464866637
12:23:30,1,B20,20 Av,-73.998168,40.604556,2935.223971360143
12:23:30,1,B21,Bay Pkwy,-73.993728,40.601875,3012.7694259055975
13:43:30,1,B22,25 Av,-73.986829,40.597704,3131.879103324952
13:43:30,1,B23,Bay 50 St,-73.983765,40.588841,3099.345605157029
12:39:30,1,D01,Norwood-205 St,-73.878855,40.874811,4714.848032765921
12:39:30,1,D03,Bedford Park Blvd,-73.887138,40.873244,4543.361546279434
12:39:30,1,D04,Kingsbridge Rd,-73.893509,40.866978,4426.205296279435
12:39:30,1,D05,Fordham Rd,-73.897749,40.861296,4331.673827747966
12:39:30,1,D06,182-183 Sts,-73.900741,40.856093,4244.739920946803
13:19:30,1,D07,Tremont Av,-73.905227,40.85041,4166.624876699015
13:19:30,1,D08,174-175 Sts,-73.910136,40.8459,4086.349195426808
13:19:30,1,D09,170 St,-73.9134,40.839306,3993.0310746651517
13:19:30,1,D10,167 St,-73.91844,40.833771,3881.855445426808
13:19:30,1,D11,161 St-Yankee Stadium,-73.925651,40.827905,3736.6804454268076
13:19:30,1,D12,155 St,-73.938209,40.830135,3611.9520503650792
13:59:30,1,D13,145 St,-73.944216,40.824783,3496.864407998485
12:23:30,1,D14,7 Av,-73.981637,40.762862,2807.0491595816075
12:23:30,1,D15,47-50 Sts-Rockefeller Ctr,-73.981329,40.758663,2597.3380421566662
12:23:30,1,D16,42 St-Bryant Pk,-73.984569,40.754222,2504.8660795398437
12:23:30,1,D17,34 St-Herald Sq,-73.987823,40.749719,2428.090378605264
12:23:30,1,D18,23 St,-73.992821,40.742878,2317.3485945677057
12:23:30,1,D19,14 St,-73.996209,40.738228,2240.73248082363
12:23:30,1,D20,W 4 St-Wash Sq,-74.000495,40.732338,2322.065814156963
12:23:30,1,D21,Broadway-Lafayette St,-73.996204,40.725297,2250.2732955412735
12:23:30,1,D22,Grand St,-73.993753,40.718267,2117.628717228021
12:15:30,1,D24,Atlantic Av-Barclays Ctr,-73.97689,40.68446,1431.9094258085026
12:15:30,1,D25,7 Av,-73.972367,40.67705,1568.0323308364357
12:15:30,1,D26,Prospect Park,-73.962246,40.661614,1194.1959055238483
12:23:30,1,D27,Parkside Av,-73.961495,40.655292,1525.6005434955387
12:15:30,1,D28,Church Av,-73.962982,40.650527,1583.9270472143062
12:23:30,1,D29,Beverley Rd,-73.964492,40.644031,1690.7987748239407
12:23:30,1,D30,Cortelyou Rd,-73.963891,40.640927,1768.9943055501974
12:15:30,1,D31,Newkirk Plaza,-73.962793,40.635082,1763.4826027698618
12:23:30,1,D32,Avenue H,-73.961639,40.62927,1880.305709246841
12:23:30,1,D33,Avenue J,-73.960803,40.625039,1967.6263511804045
12:23:30,1,D34,Avenue M,-73.959399,40.617618,2071.7442998983533
12:15:30,1,D35,Kings Hwy,-73.957734,40.60867,2011.6381583254174
12:15:30,1,D37,Avenue U,-73.955929,40.5993,2225.1075460805196
12:15:30,1,D38,Neck Rd,-73.955161,40.595246,2324.6436285547466
12:15:30,1,D39,Sheepshead Bay,-73.954155,40.586896,2248.004824992084
12:15:30,1,D40,Brighton Beach,-73.961376,40.577621,2384.546491658751
12:15:30,1,D41,Ocean Pkwy,-73.968501,40.576312,2517.5574843172953
12:15:30,1,D42,W 8 St-NY Aquarium,-73.975939,40.576127,2632.009097220521
12:15:30,1,D43,Coney Island-Stillwell Av,-73.981233,40.577422,2711.9646527760765
13:11:30,1,E01,World Trade Center,-74.009781,40.712582,2220.3626698040894
12:23:30,2,F01,Jamaica-179 St,-73.783817,40.712646,3242.675874061556
12:23:30,2,F02,169 St,-73.793604,40.71047,3152.675874061556
12:23:30,2,F03,Parsons Blvd,-73.803326,40.707564,3062.675874061556
12:23:30,2,F04,Sutphin Blvd,-73.810708,40.70546,2972.675874061556
12:23:30,2,F05,Briarwood,-73.820574,40.709179,2752.3686490179407
12:23:30,2,F06,Kew Gardens-Union Tpke,-73.831008,40.714441,2872.9671437090383
13:03:30,2,F07,75 Av,-73.837324,40.718331,2987.0056052475
12:47:30,1,F09,Court Sq-23 St,-73.946,40.747846,2472.536651242516
12:23:30,1,F11,Lexington Av/53 St,-73.969055,40.757552,2676.108079813945
12:23:30,1,F12,5 Av/53 St,-73.975224,40.760167,2748.9551843887466
13:59:30,1,F14,2 Av,-73.989938,40.723402,2254.642745915679
12:23:30,2,F15,Delancey St-Essex St,-73.988114,40.718611,2157.800909180985
12:55:30,2,F16,East Broadway,-73.990173,40.713715,2069.6283203484977
12:55:30,2,F18,York St,-73.986751,40.701397,1909.6475225225224
13:43:30,2,F20,Bergen St,-73.990862,40.686145,1952.4875225225226
12:55:30,2,F21,Carroll St,-73.995048,40.680303,2053.545950410424
12:55:30,2,F22,Smith-9 Sts,-73.995959,40.67358,2013.1132087970327
12:15:30,2,F23,4 Av-9 St,-73.989779,40.670272,1929.6475225225229
12:15:30,2,F24,7 Av,-73.980305,40.666271,2047.580855855856
12:15:30,2,F25,15 St-Prospect Park,-73.979493,40.660365,2167.321290408055
12:15:30,2,F26,Fort Hamilton Pkwy,-73.975776,40.650782,2312.789498500541
12:15:30,2,F27,Church Av,-73.979678,40.644041,2335.0793281490737
12:15:30,2,F29,Ditmas Av,-73.978172,40.636119,2455.7459948157407
12:15:30,2,F30,18 Av,-73.976971,40.629755,2575.7459948157407
12:15:30,2,F31,Avenue I,-73.976127,40.625322,2635.7459948157407
12:15:30,2,F32,Bay Pkwy,-73.975264,40.620769,2695.7459948157407
12:15:30,2,F33,Avenue N,-73.974197,40.61514,2815.7459948157407
12:15:30,2,F34,Avenue P,-73.973022,40.608944,2905.7459948157407
12:15:30,2,F35,Kings Hwy,-73.972361,40.603217,3058.4126614824067
12:15:30,1,F36,Avenue U,-73.973357,40.596063,3143.3424305538547
12:15:30,1,F38,Avenue X,-73.97425,40.58962,3067.649546658723
12:15:30,1,F39,Neptune Av,-73.974574,40.581011,2941.6757638871877
13:43:30,2,G05,Jamaica Center-Parsons/Archer,-73.801109,40.702147,2266.294024888861
13:43:30,2,G06,Sutphin Blvd-Archer Av-JFK Airport,-73.807969,40.700486,2206.294024888861
12:23:30,2,G07,Jamaica-Van Wyck,-73.816859,40.702566,2625.645876740713
12:23:30,2,G08,Forest Hills-71 Av,-73.844521,40.721691,3084.6751083108084
12:07:30,2,G09,67 Av,-73.852719,40.726523,3233.4448479220605
12:47:30,1,G10,63 Dr-Rego Park,-73.861604,40.729846,3345.2379513703363
12:47:30,1,G11,Woodhaven Blvd,-73.869229,40.733106,3422.6899068960242
12:47:30,1,G12,Grand Av-Newtown,-73.877223,40.737015,3299.8149068960242
12:47:30,1,G13,Elmhurst Av,-73.882017,40.742454,3200.280660320682
12:47:30,1,G14,Jackson Hts-Roosevelt Av,-73.891338,40.746644,3041.989546021504
12:31:30,1,G15,65 St,-73.898453,40.749669,3162.5492748486604
13:11:30,1,G16,Northern Blvd,-73.906006,40.752885,3068.2193779414433
13:11:30,1,G18,46 St,-73.913333,40.756312,2978.2193779414433
13:11:30,1,G19,Steinway St,-73.92074,40.756879,2861.312161446598
13:11:30,1,G20,36 St,-73.928781,40.752039,2741.312161446598
12:47:30,1,G21,Queens Plaza,-73.937243,40.748973,2595.903998181292
13:43:30,2,G22,Court Sq,-73.943832,40.746554,2261.61810688488
13:43:30,2,G24,21 St,-73.949724,40.744065,2195.7557880443005
13:43:30,2,G26,Greenpoint Av,-73.954449,40.731352,1987.9325836244109
13:43:30,2,G28,Nassau Av,-73.951277,40.724635,1893.5699462617736
12:39:30,2,G29,Metropolitan Av,-73.951418,40.712792,1761.4879790486586
13:59:30,2,G30,Broadway,-73.950308,40.706092,1862.0695007877891
13:59:30,2,G31,Flushing Av,-73.950234,40.700377,1948.4640953823837
13:59:30,2,G32,Myrtle-Willoughby Avs,-73.949046,40.694568,2030.1884197067081
13:59:30,2,G33,Bedford-Nostrand Avs,-73.953522,40.689627,2142.1185272335897
13:35:30,2,G34,Classon Av,-73.96007,40.688873,2219.1954376703648
13:35:30,2,G35,Clinton-Washington Avs,-73.966839,40.688089,2135.329458288921
13:35:30,2,G36,Fulton St,-73.975375,40.687119,2036.8833044427674
12:47:30,2,H01,Aqueduct Racetrack,-73.834058,40.668234,1888.4773688994796
12:31:30,2,H02,Aqueduct-N Conduit Av,-73.834058,40.668234,1965.1107022328129
12:31:30,2,H03,Howard Beach-JFK Airport,-73.830301,40.660476,2059.666257788368
12:31:30,2,H04,Broad Channel,-73.815925,40.608382,2477.6178706915944
12:31:30,2,H06,Beach 67 St,-73.796924,40.590927,2788.9073443758048
13:11:30,2,H07,Beach 60 St,-73.788522,40.592374,2892.3547127968573
13:11:30,2,H08,Beach 44 St,-73.776013,40.592943,2995.837168937208
13:11:30,2,H09,Beach 36 St,-73.768175,40.595398,3093.0827829722957
13:11:30,2,H10,Beach 25 St,-73.761353,40.600066,3193.463313945747
13:11:30,2,H11,Far Rockaway-Mott Av,-73.755405,40.603995,3292.6299806124134
13:11:30,2,H12,Beach 90 St,-73.813641,40.588034,2728.917870691594
13:11:30,2,H13,Beach 98 St,-73.820558,40.585307,2807.317870691594
13:11:30,2,H14,Beach 105 St,-73.827559,40.583209,2883.428981802705
13:11:30,2,H15,Rockaway Park-Beach 116 St,-73.835592,40.580903,2987.6289818027053
13:43:30,2,J12,121 St,-73.828294,40.700492,1966.294024888861
13:43:30,2,J13,111 St,-73.836345,40.697418,2128.623504657647
13:43:30,2,J14,104 St,-73.84433,40.695178,1786.294024888861
13:43:30,2,J15,Woodhaven Blvd,-73.851576,40.693879,1696.294024888861
13:43:30,2,J16,85 St-Forest Pkwy,-73.86001,40.692435,1700.5251672487636
13:43:30,2,J17,75 St-Elderts Ln,-73.867139,40.691324,1516.294024888861
13:43:30,2,J19,Cypress Hills,-73.87255,40.689941,1498.2751672487636
13:43:30,2,J20,Crescent St,-73.873785,40.683194,1366.294024888861
13:43:30,2,J21,Norwood Av,-73.880039,40.68141,1276.294024888861
13:43:30,2,J22,Cleveland St,-73.884639,40.679947,1269.5977573352764
13:43:30,2,J23,Van Siclen Av,-73.891688,40.678024,1126.294024888861
13:43:30,2,J24,Alabama Av,-73.898654,40.676992,1066.294024888861
13:03:30,2,J27,Broadway Junction,-73.904512,40.679498,976.294024888861
12:23:30,2,J28,Chauncey St,-73.910456,40.682893,1036.294024888861
12:23:30,2,J29,Halsey St,-73.916559,40.68637,1158.639262984099
12:23:30,2,J30,Gates Av,-73.92227,40.68963,1186.294024888861
12:23:30,2,J31,Kosciuszko St,-73.928814,40.693342,1340.7889635829015
12:39:30,1,L01,8 Av,-74.002578,40.739777,2113.030424529787
12:39:30,1,L02,6 Av,-73.996786,40.737335,2015.7324808236299
12:39:30,1,L03,14 St-Union Sq,-73.99073,40.734789,1939.4343441776668
12:39:30,1,L05,3 Av,-73.986122,40.732849,1862.2790646745614
12:39:30,1,L06,1 Av,-73.981628,40.730953,1834.045731341228
12:39:30,1,L08,Bedford Av,-73.956872,40.717304,1636.1338772378845
12:39:30,1,L10,Lorimer St,-73.950275,40.714063,1548.2736948670638
12:39:30,1,L11,Graham Av,-73.944053,40.714565,1510.902874198371
12:39:30,1,L12,Grand St,-73.94067,40.711926,1430.3804861386693
12:39:30,1,L13,Montrose Av,-73.93985,40.707739,1391.9569985941855
12:39:30,1,L14,Morgan Av,-73.933147,40.706152,1324.547503045224
12:39:30,1,L15,Jefferson St,-73.922913,40.706607,1238.7533171593916
12:39:30,1,L16,DeKalb Av,-73.918425,40.703811,1174.9640390115749
12:39:30,1,L17,Myrtle-Wyckoff Avs,-73.911586,40.699814,1103.9549755674661
12:39:30,1,L19,Halsey St,-73.904084,40.695602,1046.765891911583
12:39:30,1,L20,Wilson Av,-73.904046,40.688764,916.5548192472231
12:39:30,1,L21,Bushwick Av-Aberdeen St,-73.905249,40.682829,855.6682944245281
12:39:30,1,L22,Broadway Junction,-73.90324,40.678856,758.6551365297912
12:39:30,1,L24,Atlantic Av,-73.903097,40.675345,687.4371434502065
12:39:30,1,L25,Sutter Av,-73.901975,40.669367,610.2053252683883
12:15:30,1,L26,Livonia Av,-73.900571,40.664038,551.2499988079072
12:39:30,1,L27,New Lots Av,-73.899232,40.658733,621.6
12:39:30,1,L28,East 105 St,-73.899485,40.650573,718.3264150943396
12:07:30,1,L29,Canarsie-Rockaway Pkwy,-73.90185,40.646654,822.4132907163353
13:59:30,2,M01,Middle Village-Metropolitan Av,-73.889601,40.711396,1729.40653712833
13:19:30,2,M04,Fresh Pond Rd,-73.895877,40.706186,1612.1235182604053
13:59:30,2,M05,Forest Av,-73.903077,40.704423,1519.5371845252448
13:19:30,2,M06,Seneca Av,-73.90774,40.702762,1425.1729461146488
12:23:30,2,M08,Myrtle-Wyckoff Avs,-73.912385,40.69943,1328.9549755674661
13:59:30,2,M09,Knickerbocker Av,-73.919711,40.698664,1424.1538059768227
13:59:30,2,M10,Central Av,-73.927397,40.697857,1535.1420412709406
12:23:30,2,M11,Myrtle Av,-73.935657,40.697207,1366.294024888861
12:23:30,2,M12,Flushing Av,-73.941126,40.70026,1536.1168514963947
12:23:30,2,M13,Lorimer St,-73.947408,40.703869,1627.8990297142166
12:23:30,2,M14,Hewes St,-73.953431,40.70687,1726.6364034515905
12:23:30,2,M16,Marcy Av,-73.957757,40.708359,1625.9606915555275
12:23:30,2,M18,Delancey St-Essex St,-73.987437,40.718315,2007.544024888861
12:15:30,1,M19,Bowery,-73.993915,40.72028,2084.6273582221943
12:15:30,1,M20,Canal St,-73.999892,40.718092,2187.1273582221943
12:15:30,1,M21,Chambers St,-74.003401,40.713243,2171.4315307416277
12:15:30,1,M22,Fulton St,-74.007582,40.710374,2178.4032159369117
12:07:30,1,M23,Broad St,-74.011056,40.706476,2244.569882603578
12:31:30,1,N02,8 Av,-74.011719,40.635064,2282.065521239129
12:31:30,1,N03,Fort Hamilton Pkwy,-74.005351,40.631386,2352.065521239129
12:31:30,1,N04,New Utrecht Av,-73.996353,40.624842,2492.065521239129
12:31:30,1,N05,18 Av,-73.990414,40.620671,2582.065521239129
12:31:30,1,N06,20 Av,-73.985026,40.61741,2652.065521239129
12:31:30,1,N07,Bay Pkwy,-73.981848,40.611815,2742.065521239129
12:31:30,1,N08,Kings Hwy,-73.980353,40.603923,2862.065521239129
12:31:30,1,N09,Avenue U,-73.979137,40.597473,2962.065521239129
12:31:30,1,N10,86 St,-73.97823,40.592721,3005.9646527760765
13:51:30,1,Q01,Canal St,-74.00046,40.718383,2096.3244501416384
12:15:30,1,Q03,72 St,-73.958424,40.768799,2904.960024619809
12:15:30,1,Q04,86 St,-73.951787,40.777891,3023.4497153414586
12:15:30,1,Q05,96 St,-73.947152,40.784318,3114.6921395838826
12:07:30,1,R01,Astoria-Ditmars Blvd,-73.912034,40.775036,3247.4956239212825
12:07:30,1,R03,Astoria Blvd,-73.917843,40.770258,3146.3174060995007
12:07:30,1,R04,30 Av,-73.921479,40.766779,3046.464072766167
12:07:30,1,R05,Broadway,-73.925508,40.76182,2949.9316052337
12:07:30,1,R06,36 Av,-73.929575,40.756804,2855.089499970542
12:07:30,1,R08,39 Av-Dutch Kills,-73.932755,40.752882,2749.769499970542
12:07:30,1,R09,Queensboro Plaza,-73.940202,40.750582,2613.2289594300014
12:15:30,1,R11,Lexington Av/59 St,-73.967258,40.76266,2779.842370184027
12:15:30,1,R13,5 Av/59 St,-73.973347,40.764811,2799.169394536326
12:15:30,1,R14,57 St-7 Av,-73.980658,40.764664,2593.304477373401
12:15:30,1,R15,49 St,-73.984139,40.759901,2560.745480377743
12:15:30,1,R16,Times Sq-42 St,-73.986754,40.754672,2420.0322260645003
12:15:30,1,R17,34 St-Herald Sq,-73.98795,40.749567,2319.995383959237
12:15:30,1,R18,28 St,-73.988691,40.745494,2320.317919170505
12:15:30,1,R19,23 St,-73.989344,40.741303,2239.134820578956
12:15:30,1,R20,14 St-Union Sq,-73.990568,40.735736,2153.3953839592373
12:15:30,1,R21,8 St-NYU,-73.992629,40.730328,2254.3797589592373
13:43:30,1,R22,Prince St,-73.997702,40.724329,2340.0672589592377
13:43:30,1,R23,Canal St,-74.001775,40.719527,2347.1459109208695
13:43:30,1,R24,City Hall,-74.006978,40.713282,2196.4360567228887
13:43:30,1,R25,Cortlandt St,-74.011029,40.710668,2061.759797730083
13:43:30,1,R26,Rector St,-74.013342,40.70722,1951.7816955403018
13:43:30,1,R27,Whitehall St-South Ferry,-74.012994,40.703087,1861.0663670731487
13:19:30,1,R28,Court St,-73.991777,40.6941,1655.5468865536682
12:15:30,1,R29,Jay St-MetroTech,-73.985942,40.69218,1684.6475225225224
12:23:30,1,R30,DeKalb Av,-73.981824,40.690635,1587.1475225225224
13:35:30,1,R31,Atlantic Av-Barclays Ctr,-73.97881,40.683666,1444.6475225225224
12:15:30,1,R32,Union St,-73.98311,40.677316,1567.1475225225226
12:15:30,1,R33,4 Av-9 St,-73.988302,40.670847,1689.6475225225226
12:15:30,1,R34,Prospect Av,-73.992872,40.665414,1756.6475225225226
12:15:30,1,R35,25 St,-73.998091,40.660397,1834.6475225225226
12:23:30,1,R36,36 St,-74.003549,40.655144,1832.0655212391289
12:15:30,1,R39,45 St,-74.010006,40.648939,2042.0655212391289
12:15:30,1,R40,53 St,-74.014034,40.645069,2152.0655212391293
12:31:30,1,R41,59 St,-74.017881,40.641362,2102.065521239129
12:15:30,1,R42,Bay Ridge Av,-74.023377,40.634967,2262.8755225353266
12:15:30,1,R43,77 St,-74.02551,40.629742,2343.1482498080536
12:15:30,1,R44,86 St,-74.028398,40.622687,2519.499440284244
12:55:30,1,R45,Bay Ridge-95 St,-74.030876,40.616622,2596.51518831574
12:23:30,1,S01,Franklin Av,-73.955827,40.680596,1346.1359052044002
12:23:30,1,S03,Park Pl,-73.957624,40.674772,1246.1591610183536
12:15:30,1,S04,Botanic Garden,-73.959245,40.670343,1116.6646555238483
