start_time,ntransfers,stop_id,stop_name,stop_lon,stop_lat,duration
12:05:00,2,101,Van Cortlandt Park-242 St,-73.898583,40.889248,2406.9709130108185
12:05:00,2,103,238 St,-73.90087,40.884667,2302.1846226882376
12:05:00,2,104,231 St,-73.904834,40.878856,2209.586167089782
12:05:00,2,106,Marble Hill-225 St,-73.909831,40.874561,2121.7388910366285
12:05:00,2,107,215 St,-73.915279,40.869444,2032.1212224403353
12:05:00,2,108,207 St,-73.918822,40.864621,1943.223154520892
12:05:00,2,109,Dyckman St,-73.925536,40.860531,1842.9103791904954
12:05:00,2,110,191 St,-73.929412,40.855225,1759.0655516042884
12:21:00,2,111,181 St,-73.933596,40.849505,1668.0355086858335
12:08:30,0,112,168 St-Washington Hts,-73.940133,40.840556,1548.833791947636
12:21:00,2,113,157 St,-73.94489,40.834041,1648.1527574648774
12:08:30,0,114,145 St,-73.95036,40.826551,1765.4059763489977
12:08:30,0,115,137 St-City College,-73.953676,40.822008,1861.9822126333872
12:08:30,0,116,125 St,-73.958372,40.815581,1759.1647898641536
12:08:30,0,117,116 St-Columbia University,-73.96411,40.807722,1634.7888774553944
12:08:30,0,118,Cathedral Pkwy (110 St),-73.966847,40.803967,1569.5143676514729
12:08:30,0,119,103 St,-73.968379,40.799446,1487.7921454292507
12:00:30,0,120,96 St,-73.972323,40.793919,1108.0810360201888
12:08:30,0,121,86 St,-73.976218,40.788644,1239.0425627437376
12:08:30,0,122,79 St,-73.979917,40.783934,1317.1157334754448
12:00:30,0,123,72 St,-73.98197,40.778453,1303.4300926239623
12:16:30,0,124,66 St-Lincoln Center,-73.982209,40.77344,1420.9409240897603
12:15:30,2,125,59 St-Columbus Circle,-73.981929,40.768247,1512.979293586759
12:15:30,2,126,50 St,-73.983849,40.761728,1409.3101206544281
12:19:30,2,127,Times Sq-42 St,-73.987495,40.75529,1277.119239687166
12:15:30,2,128,34 St-Penn Station,-73.991057,40.750373,1374.0459412578468
12:15:30,2,129,28 St,-73.993365,40.747215,1458.6584793713043
12:15:30,2,130,23 St,-73.995657,40.744081,1528.2327765600594
12:15:30,2,131,18 St,-73.997871,40.74104,1593.6869598269918
12:15:30,2,132,14 St,-74.000201,40.737826,1536.4448664064453
12:15:30,2,133,Christopher St-Sheridan Sq,-74.002906,40.733422,1627.1670886286674
12:03:30,2,134,Houston St,-74.005367,40.728251,1713.04804100962
12:03:30,1,135,Canal St,-74.006277,40.722854,1807.9088955170264
12:03:30,1,136,Franklin St,-74.006886,40.719318,1872.078712323927
12:15:30,2,137,Chambers St,-74.009266,40.715478,1797.2553103108069
12:03:30,2,138,WTC Cortlandt,-74.012188,40.711835,2021.9915146918381
12:03:30,2,139,Rector St,-74.013783,40.707513,2098.501636149328
12:03:30,2,142,South Ferry,-74.013664,40.702068,2201.592545240237
12:32:30,0,201,Wakefield-241 St,-73.85062,40.903125,2270.7254791813766
12:32:30,0,204,Nereid Av,-73.854376,40.898379,1973.7096658194125
12:32:30,0,205,233 St,-73.857473,40.893193,1883.7096658194127
12:32:30,0,206,225 St,-73.860341,40.888022,1793.7096658194127
12:32:30,0,207,219 St,-73.862633,40.883895,1703.7096658194127
12:32:30,0,208,Gun Hill Rd,-73.866256,40.87785,1598.7096658194127
12:32:30,0,209,Burke Av,-73.867164,40.871356,1600.228684800911
12:32:30,0,210,Allerton Av,-73.867352,40.865462,1508.0982500183022
12:32:30,0,211,Pelham Pkwy,-73.867615,40.857192,1403.7504239313457
12:32:30,0,212,Bronx Park East,-73.868457,40.848828,1278.924336974824
12:32:30,0,213,E 180 St,-73.873488,40.841894,1051.5
12:32:30,0,214,West Farms Sq-E Tremont Av,-73.880049,40.840295,1005.0757988987939
12:32:30,0,215,174 St,-73.887734,40.837288,874.9895920022423
12:32:30,0,216,Freeman St,-73.891865,40.829993,755.1519851646353
12:32:30,0,217,Simpson St,-73.893064,40.824073,644.7706292324319
12:00:30,0,218,Intervale Av,-73.896736,40.822181,571.8469004188727
12:00:30,0,219,Prospect Av,-73.90177,40.819585,485.9655444866693
12:32:30,0,220,Jackson Av,-73.907807,40.81649,393.90672095725745
12:00:30,0,221,3 Av-149 St,-73.917757,40.816109,272.1983876239242
12:00:30,0,222,149 St-Grand Concourse,-73.926718,40.81841,157.13868613138686
12:00:30,0,224,135 St,-73.94077,40.814229,579.6433055415091
12:00:30,0,225,125 St,-73.945495,40.807754,684.3263190390566
12:00:30,0,226,116 St,-73.949625,40.802098,782.783866208868
12:00:30,0,227,Central Park North (110 St),-73.951822,40.799075,856.783866208868
12:03:30,1,228,Park Place,-74.008811,40.713051,1866.4897177233215
12:03:30,1,229,Fulton St,-74.006571,40.709416,1758.892859084578
12:03:30,1,230,Wall St,-74.0091,40.706821,1832.002806728557
12:03:30,1,231,Clark St,-73.993086,40.697466,2015.7116839244557
12:03:30,1,232,Borough Hall,-73.989998,40.693219,2128.007980220752
12:03:30,1,233,Hoyt St,-73.985065,40.690545,2118.174378937988
12:03:30,0,234,Nevins St,-73.980492,40.688246,1978.7592188138692
12:03:30,0,235,Atlantic Av-Barclays Ctr,-73.977666,40.684359,2074.4137642684145
12:07:30,0,236,Bergen St,-73.975098,40.680829,2178.7774662133756
12:07:30,0,237,Grand Army Plaza,-73.971046,40.675235,2290.405203439653
12:07:30,0,238,Eastern Pkwy-Brooklyn Museum,-73.964375,40.671987,2395.6752764323537
12:03:30,0,239,Franklin Av-Medgar Evers College,-73.958131,40.670682,2353.936286790937
12:07:30,0,241,President St-Medgar Evers College,-73.950683,40.667883,2525.243979098629
12:07:30,0,242,Sterling St,-73.95085,40.662742,2615.715132944783
12:07:30,0,243,Winthrop St,-73.9502,40.656652,2700.867513897164
12:07:30,0,244,Church Av,-73.949575,40.650843,2782.719786624437
12:07:30,0,245,Beverly Rd,-73.948959,40.645098,2864.153748888588
12:07:30,0,246,Newkirk Av-Little Haiti,-73.948411,40.639967,2950.1537488885874
12:07:30,0,247,Flatbush Av-Brooklyn College,-73.947642,40.632836,3067.4905909938507
12:07:30,0,248,Nostrand Av,-73.950466,40.669847,2513.436286790937
12:07:30,0,249,Kingston Av,-73.942161,40.669399,2609.436286790937
12:03:30,0,250,Crown Hts-Utica Av,-73.932942,40.668897,2609.811286790937
12:07:30,0,251,Sutter Av-Rutland Rd,-73.92261,40.664717,2735.061286790937
12:07:30,0,252,Saratoga Av,-73.916327,40.661453,2847.061286790937
12:07:30,0,253,Rockaway Av,-73.908946,40.662549,2934.811286790937
12:07:30,0,254,Junius St,-73.902447,40.663515,2947.0810739381504
12:07:30,0,255,Pennsylvania Av,-73.894895,40.664635,3044.29676021266
12:07:30,0,256,Van Siclen Av,-73.889395,40.665449,3118.8065641342287
12:07:30,0,257,New Lots Av,-73.884079,40.666235,3189.5810739381504
12:00:30,0,301,Harlem-148 St,-73.93647,40.82388,1007.5325160678249
12:00:30,0,302,145 St,-73.936245,40.820421,893.1483055415091
12:05:00,0,401,Woodlawn,-73.878751,40.886037,1404.2541691952883
12:05:00,0,402,Mosholu Pkwy,-73.884655,40.87975,1282.6814819706187
12:05:00,0,405,Bedford Park Blvd-Lehman College,-73.890064,40.873412,1145.0392405913085
12:05:00,0,406,Kingsbridge Rd,-73.897174,40.86776,1033.5499702050424
12:05:00,0,407,Fordham Rd,-73.901034,40.862803,949.0376751230754
12:05:00,0,408,183 St,-73.903879,40.858407,869.2295118577692
12:05:00,0,409,Burnside Av,-73.907684,40.853453,773.8311716088066
12:05:00,0,410,176 St,-73.911794,40.84848,685.3456944303833
12:05:00,0,411,Mt Eden Av,-73.914685,40.844434,607.6349506287304
12:05:00,0,412,170 St,-73.917791,40.840075,528.0936283146807
12:05:00,0,413,167 St,-73.9214,40.835537,440.18491462173466
12:05:00,0,414,161 St-Yankee Stadium,-73.925831,40.827994,332.1890987221531
12:05:00,0,415,149 St-Grand Concourse,-73.927351,40.818375,103.47685185185185
12:07:30,0,416,138 St-Grand Concourse,-73.929849,40.813224,0.0
12:03:30,0,418,Fulton St,-74.009509,40.710368,1415.961825711699
12:03:30,0,419,Wall St,-74.011862,40.707557,1495.350714600588
12:03:30,0,420,Bowling Green,-74.014065,40.704817,1570.4403697730017
12:03:30,0,423,Borough Hall,-73.990151,40.692404,1838.5137642684147
13:36:30,0,501,Eastchester-Dyre Av,-73.830834,40.8883,1801.5
12:32:30,0,502,Baychester Av,-73.838591,40.878663,1651.5
12:32:30,0,503,Gun Hill Rd,-73.846384,40.869526,1501.5
12:32:30,0,504,Pelham Pkwy,-73.855359,40.858985,1351.5
12:32:30,0,505,Morris Park,-73.860495,40.854364,1261.5
13:59:30,0,601,Pelham Bay Park,-73.828121,40.852462,1954.0953598116398
13:59:30,0,602,Buhre Av,-73.832569,40.84681,1770.66840945703
13:59:30,0,603,Middletown Rd,-73.836322,40.843863,1661.8350761236966
13:59:30,0,604,Westchester Sq-E Tremont Av,-73.842952,40.839892,1517.0850761236966
13:59:30,0,606,Zerega Av,-73.847036,40.836488,1419.001742790363
13:59:30,0,607,Castle Hill Av,-73.851222,40.834255,1351.6684094570296
12:55:30,0,608,Parkchester,-73.860816,40.833226,1195.6684094570296
12:55:30,0,609,St Lawrence Av,-73.867618,40.831509,1433.6057759411483
12:55:30,0,610,Morrison Av-Soundview,-73.874516,40.829521,1348.538046857483
12:55:30,0,611,Elder Av,-73.879159,40.828584,1283.374046857483
12:55:30,0,612,Whitlock Av,-73.886283,40.826525,1177.0340468574832
12:55:30,0,613,Hunts Point Av,-73.890549,40.820948,939.2837940724141
12:03:30,0,614,Longwood Av,-73.896435,40.816104,1021.5759773091186
12:03:30,0,615,E 149 St,-73.904098,40.812118,920.4676439757853
12:03:30,0,616,E 143 St-St Mary's St,-73.907657,40.808719,845.6253203243331
12:03:30,0,617,Cypress Av,-73.914042,40.805368,746.7048182322828
12:03:30,0,618,Brook Av,-73.91924,40.807566,677.145994702871
12:03:30,0,619,3 Av-138 St,-73.926138,40.810476,560.206870995491
12:03:30,0,621,125 St,-73.937594,40.804138,133.34972677595627
12:03:30,0,622,116 St,-73.941617,40.798629,462.42115670977677
12:03:30,0,623,110 St,-73.94425,40.79502,542.8497281383482
12:03:30,0,624,103 St,-73.947478,40.7906,620.1609075499089
12:03:30,0,625,96 St,-73.95107,40.785672,706.6310829885053
12:03:30,0,626,86 St,-73.955589,40.779492,415.4297348484848
12:03:30,0,627,77 St,-73.959874,40.77362,759.1359851460936
12:03:30,0,628,68 St-Hunter College,-73.96387,40.768141,848.7609851460936
12:03:30,0,629,59 St,-73.967967,40.762526,606.6065641167776
12:03:30,0,630,51 St,-73.97192,40.757107,930.137407276095
12:03:30,0,631,Grand Central-42 St,-73.976848,40.751776,788.9869322149372
12:03:30,0,632,33 St,-73.982076,40.746081,1164.260506267335
12:03:30,0,633,28 St,-73.984264,40.74307,1231.1161763704276
12:03:30,0,634,23 St,-73.986599,40.739864,1294.36873609739
12:03:30,0,635,14 St-Union Sq,-73.989951,40.734673,1036.1856899789123
12:03:30,0,636,Astor Pl,-73.99107,40.730054,1335.333554935129
12:03:30,0,637,Bleecker St,-73.994659,40.725915,1426.0502784846171
12:03:30,0,638,Spring St,-73.997141,40.722301,1495.1999383485627
12:03:30,0,639,Canal St,-74.000193,40.718803,1568.9769653755898
12:03:30,0,640,Brooklyn Bridge-City Hall,-74.004131,40.713065,1306.76043682281
13:11:30,2,701,Flushing-Main St,-73.83003,40.7596,2297.5074275003417
13:11:30,2,702,Mets-Willets Point,-73.845625,40.754622,2106.8969435845243
13:11:30,2,705,111 St,-73.855334,40.75173,2123.7134282530533
13:11:30,2,706,103 St-Corona Plaza,-73.8627,40.749865,2030.0874197750004
13:11:30,2,707,Junction Blvd,-73.869527,40.749145,1859.7540864416671
13:11:30,2,708,90 St-Elmhurst Av,-73.876613,40.748408,1959.480428296557
13:11:30,2,709,82 St-Jackson Hts,-73.883697,40.747659,1880.100146606416
12:03:30,2,710,74 St-Broadway,-73.891394,40.746848,1737.851847286688
12:27:30,2,711,69 St,-73.896403,40.746325,1690.4400825808057
12:03:30,2,712,61 St-Woodside,-73.902984,40.74563,1618.5316318765804
12:03:30,2,713,52 St,-73.912549,40.744149,1473.1108935103307
12:03:30,2,714,46 St-Bliss St,-73.918435,40.743132,1419.4173001955676
12:03:30,2,715,40 St-Lowery St,-73.924016,40.743781,1368.046826657963
12:03:30,2,716,33 St-Rawson St,-73.930997,40.744587,1299.766571880893
12:19:30,1,718,Queensboro Plaza,-73.940202,40.750582,1157.2917115456974
12:11:30,2,719,Court Sq,-73.945264,40.747023,1268.4113696653556
12:19:30,1,720,Hunters Point Av,-73.948916,40.742216,1244.9869322149368
12:19:30,1,721,Vernon Blvd-Jackson Av,-73.953581,40.742626,1216.986932214937
12:15:30,1,723,Grand Central-42 St,-73.976041,40.751431,1013.986932214937
12:15:30,1,724,5 Av,-73.981963,40.753821,1111.6581498608546
12:15:30,1,725,Times Sq-42 St,-73.987691,40.755477,1195.9581498608547
12:15:30,1,726,34 St-Hudson Yards,-74.00191,40.755882,1375.2768719416888
12:15:30,1,901,Grand Central-42 St,-73.979189,40.752769,968.986932214937
12:15:30,1,902,Times Sq-42 St,-73.986229,40.755983,1063.426932214937
13:01:00,1,A02,Inwood-207 St,-73.919899,40.868072,1876.0126080342673
13:01:00,1,A03,Dyckman St,-73.927271,40.865491,1785.9396153335374
13:01:00,1,A05,190 St,-73.93418,40.859022,1662.3472240291896
13:01:00,1,A06,181 St,-73.937969,40.851695,1549.1119299115426
13:01:00,1,A07,175 St,-73.939704,40.847391,1452.3914998040157
12:21:00,1,A09,168 St,-73.939561,40.840719,1323.3446607354015
12:05:00,2,A10,163 St-Amsterdam Av,-73.939892,40.836013,1224.3152489706954
12:05:00,2,A11,155 St,-73.941514,40.830518,1142.4819156373624
12:21:00,1,A12,145 St,-73.944216,40.824783,990.2166497040439
12:21:00,1,A14,135 St,-73.947649,40.817894,900.2951777292553
12:21:00,1,A15,125 St,-73.952343,40.811109,997.3053223077018
12:21:00,1,A16,116 St,-73.954882,40.805085,1121.1409045384037
12:21:00,1,A17,Cathedral Pkwy (110 St),-73.958161,40.800603,1205.816037867611
12:21:00,1,A18,103 St,-73.961454,40.796092,1290.289664868982
12:21:00,1,A19,96 St,-73.964696,40.791642,1374.7978615902935
12:21:00,1,A20,86 St,-73.968916,40.785868,1474.4259607638471
12:21:00,1,A21,81 St-Museum of Natural History,-73.972143,40.781433,1570.167627430514
12:39:30,1,A22,72 St,-73.97641,40.775594,1663.567627430514
12:21:00,1,A24,59 St-Columbus Circle,-73.981736,40.768296,1489.403481816904
12:55:30,1,A25,50 St,-73.985984,40.762456,1432.1627239721893
13:31:30,1,A27,42 St-Port Authority Bus Terminal,-73.989735,40.757308,1332.0829117656165
12:15:30,2,A28,34 St-Penn Station,-73.993391,40.752287,1428.3732343462616
12:15:30,2,A30,23 St,-73.998041,40.745906,1528.4952306061962
12:47:30,1,A31,14 St,-74.00169,40.740893,1570.5237719806703
12:11:30,2,A32,W 4 St-Wash Sq,-74.000495,40.732338,1694.9259458937138
12:23:30,1,A33,Spring St,-74.003739,40.726227,1821.7849576251515
12:11:30,2,A34,Canal St,-74.005229,40.720824,1856.6585064806602
13:19:30,1,A36,Chambers St,-74.008585,40.714111,1736.3324195241385
12:03:30,1,A38,Fulton St,-74.007691,40.710197,1638.892859084578
13:07:30,1,A40,High St,-73.990531,40.699337,1822.4667721280564
13:07:30,1,A41,Jay St-MetroTech,-73.987342,40.692338,1946.9537286497953
13:07:30,1,A42,Hoyt-Schermerhorn Sts,-73.985001,40.688484,2062.9198303447106
13:47:30,1,A43,Lafayette Av,-73.973946,40.686113,2218.1480392421017
13:47:30,1,A44,Clinton-Washington Avs,-73.965838,40.683263,2302.4408387480717
13:47:30,1,A45,Franklin Av,-73.956848,40.68138,2401.957787900614
13:07:30,1,A46,Nostrand Av,-73.950426,40.680438,2389.188580054034
12:07:30,1,A47,Kingston-Throop Avs,-73.940858,40.679921,2489.5427467207005
12:07:30,1,A48,Utica Av,-73.930729,40.679364,2560.008804773135
12:07:30,1,A49,Ralph Av,-73.920786,40.678822,2670.726196077483
12:07:30,1,A50,Rockaway Av,-73.911946,40.67834,2703.3393753495534
13:07:30,1,A51,Broadway Junction,-73.905316,40.678334,2619.2410146938155
13:19:30,1,A52,Liberty Av,-73.896548,40.674542,2753.2003642873115
13:19:30,1,A53,Van Siclen Av,-73.890358,40.67271,2848.379226075929
13:19:30,1,A54,Shepherd Av,-73.88075,40.67413,2952.4523968076364
13:07:30,1,A55,Euclid Av,-73.872106,40.675377,2919.5526426007923
13:07:30,1,A57,Grant Av,-73.86505,40.677044,3041.7352152149
13:07:30,1,A59,80 St,-73.858992,40.679371,3139.0872152149004
13:07:30,1,A60,88 St,-73.85147,40.679843,3235.0473745774502
13:07:30,1,A61,Rockaway Blvd,-73.843853,40.680429,3325.3926126726888
13:43:30,1,A63,104 St,-73.837683,40.681711,3409.064612672689
13:43:30,1,A64,111 St,-73.832163,40.684331,3495.195760213672
13:43:30,1,A65,Ozone Park-Lefferts Blvd,-73.825798,40.685951,3584.2590513529126
12:55:30,1,B04,21 St-Queensbridge,-73.942836,40.754203,1241.696336954988
12:55:30,1,B06,Roosevelt Island,-73.95326,40.759145,1095.0756472998157
12:19:30,1,B08,Lexington Av/63 St,-73.966113,40.764629,980.7117217831641
12:59:30,1,B10,57 St,-73.97745,40.763972,1174.925914587479
12:11:30,1,B12,9 Av,-73.994324,40.646292,2999.8002417019834
12:11:30,1,B13,Fort Hamilton Pkwy,-73.994304,40.640914,3100.902805804548
12:11:30,1,B14,50 St,-73.994791,40.63626,3179.928283511554
12:11:30,1,B15,55 St,-73.995476,40.631435,3279.6862452949936
12:11:30,1,B16,62 St,-73.996895,40.626472,3345.6582732670217
12:11:30,1,B17,71 St,-73.998864,40.619589,3448.148719126895
12:11:30,1,B18,79 St,-74.00061,40.613501,3554.709228681035
12:11:30,1,B19,18 Av,-74.001736,40.607954,3636.302777068132
12:11:30,1,B20,20 Av,-73.998168,40.604556,3718.296283561638
12:11:30,1,B21,Bay Pkwy,-73.993728,40.601875,3795.8417381070926
13:31:30,1,B22,25 Av,-73.986829,40.597704,3914.9514155264474
13:31:30,1,B23,Bay 50 St,-73.983765,40.588841,4113.522844097876
12:29:00,1,D01,Norwood-205 St,-73.878855,40.874811,1547.8015463860147
12:29:00,1,D03,Bedford Park Blvd,-73.887138,40.873244,1376.315059899528
12:29:00,1,D04,Kingsbridge Rd,-73.893509,40.866978,1259.158809899528
12:29:00,1,D05,Fordham Rd,-73.897749,40.861296,1164.6273413680597
12:29:00,1,D06,182-183 Sts,-73.900741,40.856093,1077.693434566896
12:29:00,1,D07,Tremont Av,-73.905227,40.85041,999.5783903191086
12:29:00,1,D08,174-175 Sts,-73.910136,40.8459,905.2852868708328
12:29:00,1,D09,170 St,-73.9134,40.839306,796.6528118190029
12:29:00,1,D10,167 St,-73.91844,40.833771,689.2285693947605
13:57:00,1,D11,161 St-Yankee Stadium,-73.925651,40.827905,557.1890987221531
12:21:00,1,D12,155 St,-73.938209,40.830135,681.9174937838815
12:21:00,1,D13,145 St,-73.944216,40.824783,793.1335431665975
12:55:30,1,D14,7 Av,-73.981637,40.762862,1362.0416352213908
12:59:30,1,D15,47-50 Sts-Rockefeller Ctr,-73.981329,40.758663,1264.925914587479
12:59:30,1,D16,42 St-Bryant Pk,-73.984569,40.754222,1336.6581498608546
12:59:30,1,D17,34 St-Herald Sq,-73.987823,40.749719,1413.433850795434
12:59:30,1,D18,23 St,-73.992821,40.742878,1524.1756348329927
12:59:30,1,D19,14 St,-73.996209,40.738228,1551.4448664064453
13:43:30,1,D20,W 4 St-Wash Sq,-74.000495,40.732338,1595.444994390759
13:43:30,1,D21,Broadway-Lafayette St,-73.996204,40.725297,1638.278850853239
13:39:30,1,D22,Grand St,-73.993753,40.718267,1766.6906155591212
12:19:30,1,D24,Atlantic Av-Barclays Ctr,-73.97689,40.68446,2250.2462027331703
12:19:30,1,D25,7 Av,-73.972367,40.67705,2380.7073426295433
12:19:30,1,D26,Prospect Park,-73.962246,40.661614,2561.8472390026
12:19:30,1,D27,Parkside Av,-73.961495,40.655292,2643.7280680181443
12:19:30,1,D28,Church Av,-73.962982,40.650527,2741.4715235155263
12:19:30,1,D29,Beverley Rd,-73.964492,40.644031,2846.846757548176
12:19:30,1,D30,Cortelyou Rd,-73.963891,40.640927,2925.0422882744333
12:19:30,1,D31,Newkirk Plaza,-73.962793,40.635082,2952.179426310512
12:19:30,1,D32,Avenue H,-73.961639,40.62927,3069.0025327874914
12:19:30,1,D33,Avenue J,-73.960803,40.625039,3156.323174721055
12:19:30,1,D34,Avenue M,-73.959399,40.617618,3260.4411234390036
12:19:30,1,D35,Kings Hwy,-73.957734,40.60867,3200.3349818660677
12:19:30,1,D37,Avenue U,-73.955929,40.5993,3413.80436962117
12:19:30,1,D38,Neck Rd,-73.955161,40.595246,3513.340452095397
12:19:30,1,D39,Sheepshead Bay,-73.954155,40.586896,3436.7016485327345
12:19:30,1,D40,Brighton Beach,-73.961376,40.577621,3573.2433151994014
12:19:30,1,D41,Ocean Pkwy,-73.968501,40.576312,3706.2543078579456
12:19:30,1,D42,W 8 St-NY Aquarium,-73.975939,40.576127,3820.705920761171
12:19:30,1,D43,Coney Island-Stillwell Av,-73.981233,40.577422,3900.6614763167267
12:51:30,1,E01,World Trade Center,-74.009781,40.712582,2041.0944427374077
12:35:30,1,F01,Jamaica-179 St,-73.783817,40.712646,2746.491553228915
12:55:30,1,F02,169 St,-73.793604,40.71047,2668.7702542101206
12:55:30,1,F03,Parsons Blvd,-73.803326,40.707564,2578.7702542101206
12:55:30,1,F04,Sutphin Blvd,-73.810708,40.70546,2554.925914587479
12:55:30,1,F05,Briarwood,-73.820574,40.709179,2434.925914587479
12:27:30,1,F06,Kew Gardens-Union Tpke,-73.831008,40.714441,2314.925914587479
12:55:30,1,F07,75 Av,-73.837324,40.718331,2180.0025472386274
12:27:30,1,F09,Court Sq-23 St,-73.946,40.747846,1356.5226880369469
12:55:30,1,F11,Lexington Av/53 St,-73.969055,40.757552,1165.613597127856
12:55:30,1,F12,5 Av/53 St,-73.975224,40.760167,1258.297559392007
12:47:30,1,F14,2 Av,-73.989938,40.723402,1735.7074222818103
12:47:30,1,F15,Delancey St-Essex St,-73.988114,40.718611,1832.549259016504
12:47:30,1,F16,East Broadway,-73.990173,40.713715,1914.9753226917544
13:27:30,1,F18,York St,-73.986751,40.701397,2069.0562750727067
13:07:30,1,F20,Bergen St,-73.990862,40.686145,2217.4499774577025
13:07:30,1,F21,Carroll St,-73.995048,40.680303,2326.037341016457
13:07:30,1,F22,Smith-9 Sts,-73.995959,40.67358,2468.4508025549185
13:07:30,1,F23,4 Av-9 St,-73.989779,40.670272,2551.9164888294285
12:11:30,2,F24,7 Av,-73.980305,40.666271,2501.9537286497953
12:11:30,2,F25,15 St-Prospect Park,-73.979493,40.660365,2669.8633120541244
12:11:30,2,F26,Fort Hamilton Pkwy,-73.975776,40.650782,2831.5225299312197
12:11:30,2,F27,Church Av,-73.979678,40.644041,2741.9537286497953
12:11:30,2,F29,Ditmas Av,-73.978172,40.636119,2861.9537286497953
12:11:30,2,F30,18 Av,-73.976971,40.629755,2981.9537286497953
12:11:30,2,F31,Avenue I,-73.976127,40.625322,3041.9537286497953
12:11:30,2,F32,Bay Pkwy,-73.975264,40.620769,3101.9537286497953
12:11:30,2,F33,Avenue N,-73.974197,40.61514,3221.9537286497953
12:11:30,2,F34,Avenue P,-73.973022,40.608944,3311.9537286497953
12:11:30,2,F35,Kings Hwy,-73.972361,40.603217,3485.615850637588
12:11:30,2,F36,Avenue U,-73.973357,40.596063,3594.216914467376
12:11:30,2,F38,Avenue X,-73.97425,40.58962,3687.4201230235253
12:19:30,1,F39,Neptune Av,-73.974574,40.581011,3801.892033135885
12:27:30,1,G05,Jamaica Center-Parsons/Archer,-73.801109,40.702147,2810.163873964496
12:27:30,1,G06,Sutphin Blvd-Archer Av-JFK Airport,-73.807969,40.700486,2718.8789577633784
12:27:30,1,G07,Jamaica-Van Wyck,-73.816859,40.702566,2599.5271059115266
12:27:30,1,G08,Forest Hills-71 Av,-73.844521,40.721691,2080.4978743414313
12:27:30,1,G09,67 Av,-73.852719,40.726523,2215.82830912404
12:03:30,1,G10,63 Dr-Rego Park,-73.861604,40.729846,2274.8232884801027
12:03:30,1,G11,Woodhaven Blvd,-73.869229,40.733106,2183.8813529962317
12:03:30,1,G12,Grand Av-Newtown,-73.877223,40.737015,2082.4182499268045
12:03:30,1,G13,Elmhurst Av,-73.882017,40.742454,1982.6682499268043
12:27:30,1,G14,Jackson Hts-Roosevelt Av,-73.891338,40.746644,1637.5657589755294
12:03:30,1,G15,65 St,-73.898453,40.749669,1795.4408207517886
13:39:30,1,G16,Northern Blvd,-73.906006,40.752885,1703.1673164782844
13:39:30,1,G18,46 St,-73.913333,40.756312,1611.714325025293
13:39:30,1,G19,Steinway St,-73.92074,40.756879,1513.806762000083
13:39:30,1,G20,36 St,-73.928781,40.752039,1392.2317620000829
12:39:30,1,G21,Queens Plaza,-73.937243,40.748973,1246.7743320847537
12:03:30,2,G22,Court Sq,-73.943832,40.746554,1448.4113696653556
12:03:30,2,G24,21 St,-73.949724,40.744065,1537.7243467645922
12:03:30,2,G26,Greenpoint Av,-73.954449,40.731352,1679.1207964687344
12:03:30,2,G28,Nassau Av,-73.951277,40.724635,1786.0403366986195
12:03:30,2,G29,Metropolitan Av,-73.951418,40.712792,1854.5216632526806
12:03:30,2,G30,Broadway,-73.950308,40.706092,1955.1031849918113
12:03:30,2,G31,Flushing Av,-73.950234,40.700377,2041.4977795864056
12:03:30,2,G32,Myrtle-Willoughby Avs,-73.949046,40.694568,2123.2221039107303
12:03:30,2,G33,Bedford-Nostrand Avs,-73.953522,40.689627,2235.1522114376116
12:03:30,2,G34,Classon Av,-73.96007,40.688873,2317.079672577508
13:47:30,1,G35,Clinton-Washington Avs,-73.966839,40.688089,2400.9456519589517
13:47:30,1,G36,Fulton St,-73.975375,40.687119,2405.1975297663244
12:27:30,1,H01,Aqueduct Racetrack,-73.834058,40.668234,3531.424358704435
13:07:30,1,H02,Aqueduct-N Conduit Av,-73.834058,40.668234,3604.4934116440095
13:07:30,1,H03,Howard Beach-JFK Airport,-73.830301,40.660476,3702.6132475933236
13:07:30,1,H04,Broad Channel,-73.815925,40.608382,4120.56486049655
13:07:30,1,H06,Beach 67 St,-73.796924,40.590927,4431.854334180761
13:07:30,1,H07,Beach 60 St,-73.788522,40.592374,4535.301702601813
13:07:30,1,H08,Beach 44 St,-73.776013,40.592943,4638.784158742164
13:07:30,1,H09,Beach 36 St,-73.768175,40.595398,4736.029772777252
13:07:30,1,H10,Beach 25 St,-73.761353,40.600066,4836.410303750704
13:07:30,1,H11,Far Rockaway-Mott Av,-73.755405,40.603995,4935.57697041737
12:27:30,1,H12,Beach 90 St,-73.813641,40.588034,4371.86486049655
12:27:30,1,H13,Beach 98 St,-73.820558,40.585307,4450.26486049655
12:27:30,1,H14,Beach 105 St,-73.827559,40.583209,4526.375971607661
12:27:30,1,H15,Rockaway Park-Beach 116 St,-73.835592,40.580903,4630.575971607661
13:11:30,1,J12,121 St,-73.828294,40.700492,3117.3789577633784
13:11:30,1,J13,111 St,-73.836345,40.697418,3167.394112601941
13:11:30,1,J14,104 St,-73.84433,40.695178,3287.394112601941
13:11:30,1,J15,Woodhaven Blvd,-73.851576,40.693879,3339.2410146938155
13:11:30,1,J16,85 St-Forest Pkwy,-73.86001,40.692435,3343.4721570537176
13:11:30,1,J17,75 St-Elderts Ln,-73.867139,40.691324,3159.2410146938155
13:11:30,1,J19,Cypress Hills,-73.87255,40.689941,3141.2221570537176
13:03:30,2,J20,Crescent St,-73.873785,40.683194,3009.2410146938155
13:03:30,2,J21,Norwood Av,-73.880039,40.68141,2919.2410146938155
13:03:30,2,J22,Cleveland St,-73.884639,40.679947,2924.420535113635
13:03:30,2,J23,Van Siclen Av,-73.891688,40.678024,2769.2410146938155
13:03:30,2,J24,Alabama Av,-73.898654,40.676992,2709.2410146938155
12:59:30,1,J27,Broadway Junction,-73.904512,40.679498,2605.9226274238417
13:43:30,2,J28,Chauncey St,-73.910456,40.682893,2679.2410146938155
12:59:30,1,J29,Halsey St,-73.916559,40.68637,2782.216867607901
12:59:30,1,J30,Gates Av,-73.92227,40.68963,2603.8437701561434
12:59:30,1,J31,Kosciuszko St,-73.928814,40.693342,2607.9771015260294
12:11:30,1,L01,8 Av,-74.002578,40.739777,1435.5393414066516
12:11:30,1,L02,6 Av,-73.996786,40.737335,1326.4448664064453
12:11:30,1,L03,14 St-Union Sq,-73.99073,40.734789,1250.1467297604827
12:19:30,1,L05,3 Av,-73.986122,40.732849,1314.7053864753893
12:19:30,1,L06,1 Av,-73.981628,40.730953,1355.5353425969217
12:19:30,1,L08,Bedford Av,-73.956872,40.717304,1553.447196700265
12:19:30,1,L10,Lorimer St,-73.950275,40.714063,1641.3073790710857
12:19:30,1,L11,Graham Av,-73.944053,40.714565,1678.6781997397788
12:19:30,1,L12,Grand St,-73.94067,40.711926,1759.2005877994804
12:19:30,1,L13,Montrose Av,-73.93985,40.707739,1796.393938679108
12:19:30,1,L14,Morgan Av,-73.933147,40.706152,1865.0335708929258
12:19:30,1,L15,Jefferson St,-73.922913,40.706607,1948.9152276976595
12:19:30,1,L16,DeKalb Av,-73.918425,40.703811,2014.6170349265753
12:19:30,1,L17,Myrtle-Wyckoff Avs,-73.911586,40.699814,2085.6260983706843
12:19:30,1,L19,Halsey St,-73.904084,40.695602,2129.690071434657
12:19:30,1,L20,Wilson Av,-73.904046,40.688764,2246.6684664963855
12:19:30,1,L21,Bushwick Av-Aberdeen St,-73.905249,40.682829,2331.005272051941
12:19:30,1,L22,Broadway Junction,-73.90324,40.678856,2380.9226274238417
12:19:30,1,L24,Atlantic Av,-73.903097,40.675345,2488.9997879176694
12:19:30,1,L25,Sutter Av,-73.901975,40.669367,2559.372095609977
12:19:30,1,L26,Livonia Av,-73.900571,40.664038,2617.0810739381504
12:19:30,1,L27,New Lots Av,-73.899232,40.658733,2666.1810739381503
12:19:30,1,L28,East 105 St,-73.899485,40.650573,2762.90748903249
13:59:30,1,L29,Canarsie-Rockaway Pkwy,-73.90185,40.646654,2887.971678221679
12:23:30,2,M01,Middle Village-Metropolitan Av,-73.889601,40.711396,2711.0776599315477
12:23:30,2,M04,Fresh Pond Rd,-73.895877,40.706186,2593.794641063623
12:23:30,2,M05,Forest Av,-73.903077,40.704423,2501.2083073284625
12:23:30,2,M06,Seneca Av,-73.90774,40.702762,2406.844068917867
13:03:30,1,M08,Myrtle-Wyckoff Avs,-73.912385,40.69943,2310.6260983706843
12:39:30,2,M09,Knickerbocker Av,-73.919711,40.698664,2405.8249287800404
13:03:30,1,M10,Central Av,-73.927397,40.697857,2516.8131640741585
12:23:30,1,M11,Myrtle Av,-73.935657,40.697207,2436.677103489477
12:23:30,1,M12,Flushing Av,-73.941126,40.70026,2464.5839990867985
12:23:30,1,M13,Lorimer St,-73.947408,40.703869,2361.9017560961443
12:23:30,1,M14,Hewes St,-73.953431,40.70687,2270.8091635035516
12:23:30,1,M16,Marcy Av,-73.957757,40.708359,2188.51043682281
12:23:30,1,M18,Delancey St-Essex St,-73.987437,40.718315,1806.9271034894766
12:19:30,1,M19,Bowery,-73.993915,40.72028,1729.8437701561434
12:19:30,1,M20,Canal St,-73.999892,40.718092,1627.3437701561434
12:15:30,1,M21,Chambers St,-74.003401,40.713243,1531.76043682281
12:19:30,1,M22,Fulton St,-74.007582,40.710374,1633.8318980292693
12:19:30,1,M23,Broad St,-74.011056,40.706476,1700.5266348713747
12:11:30,1,N02,8 Av,-74.011719,40.635064,3083.892801790109
12:11:30,1,N03,Fort Hamilton Pkwy,-74.005351,40.631386,3188.993380458736
12:11:30,1,N04,New Utrecht Av,-73.996353,40.624842,3328.993380458736
12:11:30,1,N05,18 Av,-73.990414,40.620671,3418.993380458736
12:11:30,1,N06,20 Av,-73.985026,40.61741,3488.993380458736
12:11:30,1,N07,Bay Pkwy,-73.981848,40.611815,3578.993380458736
12:11:30,1,N08,Kings Hwy,-73.980353,40.603923,3698.993380458736
12:11:30,1,N09,Avenue U,-73.979137,40.597473,3798.993380458736
12:11:30,1,N10,86 St,-73.97823,40.592721,3858.9933804587363
12:03:30,1,Q01,Canal St,-74.00046,40.718383,1583.6587067601895
12:11:30,1,Q03,72 St,-73.958424,40.768799,1113.3783884498307
12:11:30,1,Q04,86 St,-73.951787,40.777891,1232.6807939481125
12:11:30,1,Q05,96 St,-73.947152,40.784318,1322.7117217831642
12:11:30,1,R01,Astoria-Ditmars Blvd,-73.912034,40.775036,1816.1681378017684
12:11:30,1,R03,Astoria Blvd,-73.917843,40.770258,1714.989919979986
12:11:30,1,R04,30 Av,-73.921479,40.766779,1615.1365866466529
12:11:30,1,R05,Broadway,-73.925508,40.76182,1518.6041191141853
12:11:30,1,R06,36 Av,-73.929575,40.756804,1414.6114316598487
12:11:30,1,R08,39 Av-Dutch Kills,-73.932755,40.752882,1313.4083765434339
12:11:30,1,R09,Queensboro Plaza,-73.940202,40.750582,1110.2917098767673
12:19:30,1,R11,Lexington Av/59 St,-73.967258,40.76266,850.6208115868598
12:11:30,1,R13,5 Av/59 St,-73.973347,40.764811,938.6786628265293
12:11:30,1,R14,57 St-7 Av,-73.980658,40.764664,1063.974249559307
12:11:30,1,R15,49 St,-73.984139,40.759901,1177.2917098767673
12:11:30,1,R16,Times Sq-42 St,-73.986754,40.754672,1288.426932214937
12:11:30,1,R17,34 St-Herald Sq,-73.98795,40.749567,1382.4786962263202
12:19:30,1,R18,28 St,-73.988691,40.745494,1442.1622780199223
12:19:30,1,R19,23 St,-73.989344,40.741303,1360.979179428373
12:15:30,1,R20,14 St-Union Sq,-73.990568,40.735736,1261.1856899789123
12:07:30,1,R21,8 St-NYU,-73.992629,40.730328,1362.1700649789123
12:07:30,1,R22,Prince St,-73.997702,40.724329,1447.8575649789125
12:07:30,1,R23,Canal St,-74.001775,40.719527,1547.6560145913156
12:15:30,1,R24,City Hall,-74.006978,40.713282,1693.1483222836232
12:15:30,1,R25,Cortlandt St,-74.011029,40.710668,1807.5910703752263
12:15:30,1,R26,Rector St,-74.013342,40.70722,1907.6826734286615
12:15:30,1,R27,Whitehall St-South Ferry,-74.012994,40.703087,1991.766006761995
12:19:30,1,R28,Court St,-73.991777,40.6941,2077.7784706416296
12:19:30,1,R29,Jay St-MetroTech,-73.985942,40.69218,2081.9537286497953
12:19:30,1,R30,DeKalb Av,-73.981824,40.690635,2081.2087695780897
12:11:30,1,R31,Atlantic Av-Barclays Ctr,-73.97881,40.683666,2239.49226072782
12:11:30,1,R32,Union St,-73.98311,40.677316,2358.312717947895
12:11:30,1,R33,4 Av-9 St,-73.988302,40.670847,2463.3603369955144
12:11:30,1,R34,Prospect Av,-73.992872,40.665414,2570.2103369955144
12:11:30,1,R35,25 St,-73.998091,40.660397,2694.307897971124
12:11:30,1,R36,36 St,-74.003549,40.655144,2624.560442546002
12:11:30,1,R39,45 St,-74.010006,40.648939,2809.969650721004
12:11:30,1,R40,53 St,-74.014034,40.645069,2899.1941405169223
12:11:30,1,R41,59 St,-74.017881,40.641362,2916.6169397211434
12:11:30,1,R42,Bay Ridge Av,-74.023377,40.634967,3077.4269410173406
12:11:30,1,R43,77 St,-74.02551,40.629742,3157.6996682900676
12:11:30,1,R44,86 St,-74.028398,40.622687,3334.050858766258
12:11:30,1,R45,Bay Ridge-95 St,-74.030876,40.616622,3411.066606797754
12:11:30,1,S01,Franklin Av,-73.955827,40.680596,2581.957787900614
12:11:30,1,S03,Park Pl,-73.957624,40.674772,2704.832787900614
12:19:30,1,S04,Botanic Garden,-73.959245,40.670343,2578.936286790937
