start_time,ntransfers,stop_id,stop_name,stop_lon,stop_lat,duration
12:01:00,3,101,Van Cortlandt Park-242 St,-73.898583,40.889248,3924.055989134515
12:01:00,3,103,238 St,-73.90087,40.884667,3819.269698811934
12:01:00,3,104,231 St,-73.904834,40.878856,3726.6712432134786
12:01:00,3,106,Marble Hill-225 St,-73.909831,40.874561,3638.823967160324
12:01:00,3,107,215 St,-73.915279,40.869444,3549.2062985640323
12:01:00,3,108,207 St,-73.918822,40.864621,3460.3082306445876
12:01:00,3,109,Dyckman St,-73.925536,40.860531,3359.9954553141915
12:01:00,3,110,191 St,-73.929412,40.855225,3276.1506277279846
12:01:00,3,111,181 St,-73.933596,40.849505,3185.1205848095296
12:09:00,0,112,168 St-Washington Hts,-73.940133,40.840556,3065.9188680713323
12:09:00,0,113,157 St,-73.94489,40.834041,3165.2378335885737
12:09:00,0,114,145 St,-73.95036,40.826551,3282.491052472694
12:09:00,0,115,137 St-City College,-73.953676,40.822008,3379.0672887570836
12:09:00,0,116,125 St,-73.958372,40.815581,3300.027731804487
12:09:00,0,117,116 St-Columbia University,-73.96411,40.807722,3175.6518193957277
12:09:00,0,118,Cathedral Pkwy (110 St),-73.966847,40.803967,3110.377309591806
12:09:00,0,119,103 St,-73.968379,40.799446,3028.6550873695837
12:01:00,0,120,96 St,-73.972323,40.793919,2648.9439779605214
12:09:00,0,121,86 St,-73.976218,40.788644,2779.9055046840704
12:09:00,0,122,79 St,-73.979917,40.783934,2857.978675415778
12:01:00,2,123,72 St,-73.98197,40.778453,2756.760627374279
12:01:00,2,124,66 St-Lincoln Center,-73.982209,40.77344,2833.8817075412403
12:01:00,2,125,59 St-Columbus Circle,-73.981929,40.768247,2756.533392934499
12:01:00,2,126,50 St,-73.983849,40.761728,2652.864220002168
12:01:00,2,127,Times Sq-42 St,-73.987495,40.75529,2520.673339034906
12:01:00,2,128,34 St-Penn Station,-73.991057,40.750373,2617.6000406055864
12:01:00,2,129,28 St,-73.993365,40.747215,2702.2125787190444
12:01:00,2,130,23 St,-73.995657,40.744081,2771.786875907799
12:01:00,2,131,18 St,-73.997871,40.74104,2837.0584423188297
12:01:00,2,132,14 St,-74.000201,40.737826,2762.471569731957
12:01:00,2,133,Christopher St-Sheridan Sq,-74.002906,40.733422,2853.1937919541797
12:01:00,2,134,Houston St,-74.005367,40.728251,2939.0747443351315
12:01:00,2,135,Canal St,-74.006277,40.722854,3033.9355988425377
12:01:00,2,136,Franklin St,-74.006886,40.719318,3098.105415649439
12:01:00,2,137,Chambers St,-74.009266,40.715478,3036.45858271897
12:01:00,1,138,WTC Cortlandt,-74.012188,40.711835,3248.0182180173497
12:01:00,1,139,Rector St,-74.013783,40.707513,3324.52833947484
12:01:00,1,142,South Ferry,-74.013664,40.702068,3427.619248565749
12:09:00,0,201,Wakefield-241 St,-73.85062,40.903125,3822.8421234931457
12:09:00,0,204,Nereid Av,-73.854376,40.898379,3525.8263101311813
12:09:00,0,205,233 St,-73.857473,40.893193,3435.8263101311813
12:09:00,0,206,225 St,-73.860341,40.888022,3345.8263101311813
12:09:00,0,207,219 St,-73.862633,40.883895,3255.8263101311813
12:09:00,0,208,Gun Hill Rd,-73.866256,40.87785,3150.8263101311813
12:09:00,0,209,Burke Av,-73.867164,40.871356,3124.1452841486507
12:09:00,0,210,Allerton Av,-73.867352,40.865462,3032.014849366042
12:09:00,0,211,Pelham Pkwy,-73.867615,40.857192,2927.6670232790857
12:09:00,0,212,Bronx Park East,-73.868457,40.848828,2802.8409363225637
12:09:00,0,213,E 180 St,-73.873488,40.841894,2592.5365884964767
12:09:00,0,214,West Farms Sq-E Tremont Av,-73.880049,40.840295,2555.046715365232
12:09:00,0,215,174 St,-73.887734,40.837288,2427.1062363140104
12:09:00,0,216,Freeman St,-73.891865,40.829993,2307.2686294764035
12:09:00,0,217,Simpson St,-73.893064,40.824073,2196.8872735442005
12:01:00,0,218,Intervale Av,-73.896736,40.822181,2123.9635447306414
12:01:00,0,219,Prospect Av,-73.90177,40.819585,2038.082188798438
12:09:00,0,220,Jackson Av,-73.907807,40.81649,1946.0233652690265
12:01:00,0,221,3 Av-149 St,-73.917757,40.816109,1814.4196294321493
12:01:00,0,222,149 St-Grand Concourse,-73.926718,40.81841,1688.9226234441255
12:01:00,0,224,135 St,-73.94077,40.814229,2120.5062474818415
12:01:00,0,225,125 St,-73.945495,40.807754,2225.189260979389
12:01:00,0,226,116 St,-73.949625,40.802098,2323.6468081492003
12:01:00,0,227,Central Park North (110 St),-73.951822,40.799075,2397.6468081492008
12:01:00,2,228,Park Place,-74.008811,40.713051,3081.843772107033
12:01:00,2,229,Fulton St,-74.006571,40.709416,2974.2469134682897
12:01:00,1,230,Wall St,-74.0091,40.706821,3047.3568611122687
12:01:00,1,231,Clark St,-73.993086,40.697466,3231.065738308167
12:01:00,1,232,Borough Hall,-73.989998,40.693219,3343.362034604463
12:01:00,1,233,Hoyt St,-73.985065,40.690545,3333.528433321699
12:01:00,0,234,Nevins St,-73.980492,40.688246,3194.1132731975804
12:01:00,0,235,Atlantic Av-Barclays Ctr,-73.977666,40.684359,3289.767818652126
12:01:00,0,236,Bergen St,-73.975098,40.680829,3394.1315205970873
12:01:00,0,237,Grand Army Plaza,-73.971046,40.675235,3505.759257823365
12:01:00,0,238,Eastern Pkwy-Brooklyn Museum,-73.964375,40.671987,3611.0293308160653
12:01:00,0,239,Franklin Av-Medgar Evers College,-73.958131,40.670682,3569.2903411746483
12:01:00,0,241,President St-Medgar Evers College,-73.950683,40.667883,3740.5980334823407
12:01:00,0,242,Sterling St,-73.95085,40.662742,3831.0691873284945
12:01:00,0,243,Winthrop St,-73.9502,40.656652,3916.221568280876
12:01:00,0,244,Church Av,-73.949575,40.650843,3998.0738410081485
12:01:00,0,245,Beverly Rd,-73.948959,40.645098,4079.5078032722995
12:01:00,0,246,Newkirk Av-Little Haiti,-73.948411,40.639967,4165.5078032722995
12:01:00,0,247,Flatbush Av-Brooklyn College,-73.947642,40.632836,4282.844645377563
12:01:00,0,248,Nostrand Av,-73.950466,40.669847,3728.7903411746483
12:01:00,0,249,Kingston Av,-73.942161,40.669399,3824.7903411746483
12:01:00,0,250,Crown Hts-Utica Av,-73.932942,40.668897,3825.1653411746483
12:01:00,0,251,Sutter Av-Rutland Rd,-73.92261,40.664717,3950.415341174649
12:01:00,0,252,Saratoga Av,-73.916327,40.661453,4062.4153411746483
12:01:00,2,253,Rockaway Av,-73.908946,40.662549,4150.165341174649
12:01:00,0,254,Junius St,-73.902447,40.663515,4173.107777263663
12:01:00,0,255,Pennsylvania Av,-73.894895,40.664635,4270.323463538172
12:01:00,0,256,Van Siclen Av,-73.889395,40.665449,4344.833267459741
12:01:00,0,257,New Lots Av,-73.884079,40.666235,4415.607777263662
12:01:00,0,301,Harlem-148 St,-73.93647,40.82388,2548.395458008157
12:01:00,0,302,145 St,-73.936245,40.820421,2434.0112474818416
12:01:00,0,401,Woodlawn,-73.878751,40.886037,2921.3392453189854
12:01:00,0,402,Mosholu Pkwy,-73.884655,40.87975,2799.7665580943153
12:01:00,0,405,Bedford Park Blvd-Lehman College,-73.890064,40.873412,2662.124316715005
12:01:00,0,406,Kingsbridge Rd,-73.897174,40.86776,2550.635046328739
12:01:00,0,407,Fordham Rd,-73.901034,40.862803,2466.122751246772
12:01:00,0,408,183 St,-73.903879,40.858407,2386.3145879814656
12:01:00,0,409,Burnside Av,-73.907684,40.853453,2290.916247732503
12:01:00,0,410,176 St,-73.911794,40.84848,2202.4307705540796
12:01:00,0,411,Mt Eden Av,-73.914685,40.844434,2124.7200267524267
12:01:00,0,412,170 St,-73.917791,40.840075,2045.1787044383773
12:01:00,0,413,167 St,-73.9214,40.835537,1957.2699907454312
12:01:00,0,414,161 St-Yankee Stadium,-73.925831,40.827994,1849.2741748458495
12:01:00,0,415,149 St-Grand Concourse,-73.927351,40.818375,1640.7553463939666
12:01:00,0,416,138 St-Grand Concourse,-73.929849,40.813224,1517.0850761236964
12:01:00,0,418,Fulton St,-74.009509,40.710368,2631.3158800954106
12:01:00,0,419,Wall St,-74.011862,40.707557,2710.7047689843
12:01:00,0,420,Bowling Green,-74.014065,40.704817,2785.7944241567134
12:01:00,0,423,Borough Hall,-73.990151,40.692404,3053.867818652126
12:09:00,0,501,Eastchester-Dyre Av,-73.830834,40.8883,3368.136628825479
12:09:00,0,502,Baychester Av,-73.838591,40.878663,3228.73534934774
12:09:00,0,503,Gun Hill Rd,-73.846384,40.869526,3078.73534934774
12:09:00,0,504,Pelham Pkwy,-73.855359,40.858985,2921.646478606367
12:09:00,0,505,Morris Park,-73.860495,40.854364,2833.9651599250483
12:00:30,0,601,Pelham Bay Park,-73.828121,40.852462,309.6468085106383
12:00:30,0,602,Buhre Av,-73.832569,40.84681,180.24867724867727
12:00:30,0,603,Middletown Rd,-73.836322,40.843863,108.13756613756614
12:09:00,0,604,Westchester Sq-E Tremont Av,-73.842952,40.839892,0.0
12:21:30,0,606,Zerega Av,-73.847036,40.836488,75.44680851063829
12:01:00,0,607,Castle Hill Av,-73.851222,40.834255,146.30851063829786
12:21:30,0,608,Parkchester,-73.860816,40.833226,246.618954248366
12:21:30,0,609,St Lawrence Av,-73.867618,40.831509,341.11293015198044
12:21:30,0,610,Morrison Av-Soundview,-73.874516,40.829521,426.1806592356458
12:21:30,0,611,Elder Av,-73.879159,40.828584,491.34465923564585
12:21:30,0,612,Whitlock Av,-73.886283,40.826525,597.6846592356459
12:01:00,0,613,Hunts Point Av,-73.890549,40.820948,577.801282051282
12:21:30,0,614,Longwood Av,-73.896435,40.816104,783.7510487877462
12:21:30,0,615,E 149 St,-73.904098,40.812118,879.4237760604734
12:21:30,0,616,E 143 St-St Mary's St,-73.907657,40.808719,954.026664147116
12:21:30,0,617,Cypress Av,-73.914042,40.805368,1070.5898410424227
12:21:30,0,618,Brook Av,-73.91924,40.807566,1096.1381606626192
12:01:00,0,619,3 Av-138 St,-73.926138,40.810476,956.8782051282052
12:01:00,0,621,125 St,-73.937594,40.804138,1151.5924908424909
12:01:00,0,622,116 St,-73.941617,40.798629,1248.5210622710624
12:01:00,0,623,110 St,-73.94425,40.79502,1328.949633699634
12:01:00,0,624,103 St,-73.947478,40.7906,1410.092490842491
12:01:00,0,625,96 St,-73.95107,40.785672,1504.8782051282053
12:01:00,0,626,86 St,-73.955589,40.779492,1602.6639194139198
12:01:00,0,627,77 St,-73.959874,40.77362,1708.26391941392
12:01:00,0,628,68 St-Hunter College,-73.96387,40.768141,1796.9305860805864
12:01:00,0,629,59 St,-73.967967,40.762526,1850.1606634645175
12:01:00,0,630,51 St,-73.97192,40.757107,1994.5305860805863
12:01:00,0,631,Grand Central-42 St,-73.976848,40.751776,2025.6842242903392
12:01:00,0,632,33 St,-73.982076,40.746081,2249.593086080586
12:01:00,0,633,28 St,-73.984264,40.74307,2318.3430860805865
12:01:00,0,634,23 St,-73.986599,40.739864,2382.218086080586
12:01:00,0,635,14 St-Union Sq,-73.989951,40.734673,2262.212393304424
12:01:00,0,636,Astor Pl,-73.99107,40.730054,2561.3602582606404
12:01:00,0,637,Bleecker St,-73.994659,40.725915,2652.0769818101285
12:01:00,0,638,Spring St,-73.997141,40.722301,2721.226641674074
12:01:00,0,639,Canal St,-74.000193,40.718803,2785.6689129752294
12:01:00,0,640,Brooklyn Bridge-City Hall,-74.004131,40.713065,2522.114491206522
12:01:00,2,701,Flushing-Main St,-73.83003,40.7596,3531.6315502614684
12:01:00,2,702,Mets-Willets Point,-73.845625,40.754622,3322.2509979682363
12:01:00,2,705,111 St,-73.855334,40.75173,3339.0674826367654
12:01:00,2,706,103 St-Corona Plaza,-73.8627,40.749865,3245.4414741587125
12:01:00,2,707,Junction Blvd,-73.869527,40.749145,3075.108140825379
12:01:00,2,708,90 St-Elmhurst Av,-73.876613,40.748408,3174.8344826802686
12:01:00,2,709,82 St-Jackson Hts,-73.883697,40.747659,3095.454200990128
12:01:00,1,710,74 St-Broadway,-73.891394,40.746848,2953.2059016704
12:09:00,2,711,69 St,-73.896403,40.746325,2905.7941369645177
12:01:00,1,712,61 St-Woodside,-73.902984,40.74563,2833.8856862602925
12:01:00,1,713,52 St,-73.912549,40.744149,2707.2350162714574
12:01:00,1,714,46 St-Bliss St,-73.918435,40.743132,2653.5414229566945
12:01:00,1,715,40 St-Lowery St,-73.924016,40.743781,2602.17094941909
12:01:00,1,716,33 St-Rawson St,-73.930997,40.744587,2533.8906946420198
12:01:00,1,718,Queensboro Plaza,-73.940202,40.750582,2391.4158343068243
12:01:00,1,719,Court Sq,-73.945264,40.747023,2485.108140825379
12:01:00,1,720,Hunters Point Av,-73.948916,40.742216,2488.5410315626773
12:01:00,1,721,Vernon Blvd-Jackson Av,-73.953581,40.742626,2460.541031562677
12:17:00,1,723,Grand Central-42 St,-73.976041,40.751431,2257.541031562677
12:17:00,1,724,5 Av,-73.981963,40.753821,2355.2122492085946
12:17:00,1,725,Times Sq-42 St,-73.987691,40.755477,2439.5122492085948
12:17:00,1,726,34 St-Hudson Yards,-74.00191,40.755882,2618.8309712894293
12:17:00,1,901,Grand Central-42 St,-73.979189,40.752769,2212.541031562677
12:17:00,1,902,Times Sq-42 St,-73.986229,40.755983,2306.981031562677
12:29:30,1,A02,Inwood-207 St,-73.919899,40.868072,3393.097684157964
12:01:00,2,A03,Dyckman St,-73.927271,40.865491,3303.024691457234
12:01:00,2,A05,190 St,-73.93418,40.859022,3179.4323001528865
12:01:00,2,A06,181 St,-73.937969,40.851695,3066.197006035239
12:01:00,2,A07,175 St,-73.939704,40.847391,2969.476575927712
12:01:00,2,A09,168 St,-73.939561,40.840719,2840.429736859098
12:01:00,2,A10,163 St-Amsterdam Av,-73.939892,40.836013,2741.4003250943924
12:01:00,2,A11,155 St,-73.941514,40.830518,2659.566991761059
12:01:00,2,A12,145 St,-73.944216,40.824783,2507.30172582774
12:01:00,1,A14,135 St,-73.947649,40.817894,2417.3802538529517
12:01:00,1,A15,125 St,-73.952343,40.811109,2514.3903984313984
12:01:00,1,A16,116 St,-73.954882,40.805085,2638.2259806621005
12:01:00,1,A17,Cathedral Pkwy (110 St),-73.958161,40.800603,2722.9011139913077
12:09:00,1,A18,103 St,-73.961454,40.796092,2807.374740992679
12:09:00,1,A19,96 St,-73.964696,40.791642,2891.8829377139905
12:09:00,1,A20,86 St,-73.968916,40.785868,2991.5110368875444
12:09:00,1,A21,81 St-Museum of Natural History,-73.972143,40.781433,2984.0707290817422
12:09:00,1,A22,72 St,-73.97641,40.775594,2895.1907290817426
12:09:00,1,A24,59 St-Columbus Circle,-73.981736,40.768296,2737.6424165187623
13:17:30,1,A25,50 St,-73.985984,40.762456,2513.896557880009
13:09:30,1,A27,42 St-Port Authority Bus Terminal,-73.989735,40.757308,2575.637011113357
12:17:00,2,A28,34 St-Penn Station,-73.993391,40.752287,2671.927333694002
12:01:00,2,A30,23 St,-73.998041,40.745906,2772.0493299539366
12:01:00,2,A31,14 St,-74.00169,40.740893,2814.0778713284103
12:01:00,2,A32,W 4 St-Wash Sq,-74.000495,40.732338,2938.480045241454
12:01:00,2,A33,Spring St,-74.003739,40.726227,3055.9281851234414
12:01:00,2,A34,Canal St,-74.005229,40.720824,3072.012560864372
13:57:30,1,A36,Chambers St,-74.008585,40.714111,2951.68647390785
12:09:00,1,A38,Fulton St,-74.007691,40.710197,2854.2469134682897
12:09:00,1,A40,High St,-73.990531,40.699337,3037.820826511768
12:09:00,1,A41,Jay St-MetroTech,-73.987342,40.692338,3162.307783033507
12:09:00,1,A42,Hoyt-Schermerhorn Sts,-73.985001,40.688484,3278.273884728422
13:25:30,1,A43,Lafayette Av,-73.973946,40.686113,3433.502093625814
13:25:30,1,A44,Clinton-Washington Avs,-73.965838,40.683263,3517.7948931317833
12:09:00,1,A45,Franklin Av,-73.956848,40.68138,3617.311842284326
12:09:00,1,A46,Nostrand Av,-73.950426,40.680438,3604.5426344377456
12:09:00,1,A47,Kingston-Throop Avs,-73.940858,40.679921,3704.896801104412
12:09:00,1,A48,Utica Av,-73.930729,40.679364,3775.3628591568468
12:09:00,1,A49,Ralph Av,-73.920786,40.678822,3886.0802504611943
12:09:00,1,A50,Rockaway Av,-73.911946,40.67834,3929.366078675065
12:09:00,1,A51,Broadway Junction,-73.905316,40.678334,3845.2677180193277
12:09:00,1,A52,Liberty Av,-73.896548,40.674542,3979.227067612824
12:09:00,1,A53,Van Siclen Av,-73.890358,40.67271,4074.405929401442
12:09:00,1,A54,Shepherd Av,-73.88075,40.67413,4178.479100133149
12:09:00,1,A55,Euclid Av,-73.872106,40.675377,4145.579345926304
12:09:00,1,A57,Grant Av,-73.86505,40.677044,4267.761918540412
12:09:00,1,A59,80 St,-73.858992,40.679371,4365.113918540413
12:09:00,1,A60,88 St,-73.85147,40.679843,4461.074077902962
12:09:00,1,A61,Rockaway Blvd,-73.843853,40.680429,4551.419315998201
12:17:00,1,A63,104 St,-73.837683,40.681711,4635.0913159982
13:49:30,1,A64,111 St,-73.832163,40.684331,4721.222463539184
13:49:30,1,A65,Ozone Park-Lefferts Blvd,-73.825798,40.685951,4810.285754678424
12:17:00,1,B04,21 St-Queensbridge,-73.942836,40.754203,2457.0503913386997
12:17:00,1,B06,Roosevelt Island,-73.95326,40.759145,2310.429701683527
12:01:00,1,B08,Lexington Av/63 St,-73.966113,40.764629,2225.27996897119
12:17:00,1,B10,57 St,-73.97745,40.763972,2390.27996897119
12:01:00,1,B12,9 Av,-73.994324,40.646292,4215.154296085695
12:01:00,1,B13,Fort Hamilton Pkwy,-73.994304,40.640914,4316.256860188259
12:01:00,1,B14,50 St,-73.994791,40.63626,4395.282337895265
12:01:00,1,B15,55 St,-73.995476,40.631435,4495.040299678705
12:01:00,1,B16,62 St,-73.996895,40.626472,4561.012327650733
12:01:00,1,B17,71 St,-73.998864,40.619589,4663.502773510605
12:01:00,1,B18,79 St,-74.00061,40.613501,4770.0632830647455
12:01:00,1,B19,18 Av,-74.001736,40.607954,4851.656831451843
12:01:00,1,B20,20 Av,-73.998168,40.604556,4933.650337945349
12:01:00,1,B21,Bay Pkwy,-73.993728,40.601875,5011.195792490804
12:01:00,1,B22,25 Av,-73.986829,40.597704,5130.3054699101585
12:01:00,1,B23,Bay 50 St,-73.983765,40.588841,5328.876898481587
12:01:00,1,D01,Norwood-205 St,-73.878855,40.874811,3064.8866225097113
12:01:00,1,D03,Bedford Park Blvd,-73.887138,40.873244,2893.400136023225
12:01:00,1,D04,Kingsbridge Rd,-73.893509,40.866978,2776.243886023225
12:01:00,1,D05,Fordham Rd,-73.897749,40.861296,2681.7124174917562
12:01:00,1,D06,182-183 Sts,-73.900741,40.856093,2594.778510690593
12:01:00,1,D07,Tremont Av,-73.905227,40.85041,2516.6634664428057
12:01:00,1,D08,174-175 Sts,-73.910136,40.8459,2422.3703629945294
12:01:00,1,D09,170 St,-73.9134,40.839306,2313.737887942699
12:01:00,1,D10,167 St,-73.91844,40.833771,2206.3136455184567
13:25:30,1,D11,161 St-Yankee Stadium,-73.925651,40.827905,2074.2741748458493
12:01:00,1,D12,155 St,-73.938209,40.830135,2199.002569907578
12:01:00,1,D13,145 St,-73.944216,40.824783,2310.218619290294
12:09:00,1,D14,7 Av,-73.981637,40.762862,2419.905991842273
12:01:00,1,D15,47-50 Sts-Rockefeller Ctr,-73.981329,40.758663,2480.27996897119
12:01:00,1,D16,42 St-Bryant Pk,-73.984569,40.754222,2570.27996897119
12:01:00,1,D17,34 St-Herald Sq,-73.987823,40.749719,2656.987950143174
12:01:00,1,D18,23 St,-73.992821,40.742878,2767.729734180733
12:01:00,1,D19,14 St,-73.996209,40.738228,2777.471569731957
12:17:00,1,D20,W 4 St-Wash Sq,-74.000495,40.732338,2838.999093738499
12:17:00,1,D21,Broadway-Lafayette St,-73.996204,40.725297,2864.3055541787503
12:09:00,1,D22,Grand St,-73.993753,40.718267,2992.7173188846327
12:21:30,1,D24,Atlantic Av-Barclays Ctr,-73.97689,40.68446,3493.80030208091
12:17:00,1,D25,7 Av,-73.972367,40.67705,3624.261441977283
12:17:00,1,D26,Prospect Park,-73.962246,40.661614,3805.40133835034
12:21:30,1,D27,Parkside Av,-73.961495,40.655292,3887.282167365884
12:17:00,1,D28,Church Av,-73.962982,40.650527,3985.0256228632666
12:21:30,1,D29,Beverley Rd,-73.964492,40.644031,4090.4008568959166
12:21:30,1,D30,Cortelyou Rd,-73.963891,40.640927,4168.596387622173
12:17:00,1,D31,Newkirk Plaza,-73.962793,40.635082,4167.533480694223
12:21:30,1,D32,Avenue H,-73.961639,40.62927,4284.356587171203
12:21:30,1,D33,Avenue J,-73.960803,40.625039,4371.6772291047655
12:21:30,1,D34,Avenue M,-73.959399,40.617618,4475.795177822715
12:17:00,1,D35,Kings Hwy,-73.957734,40.60867,4415.689036249779
12:17:00,1,D37,Avenue U,-73.955929,40.5993,4629.158424004881
12:17:00,1,D38,Neck Rd,-73.955161,40.595246,4728.694506479108
12:17:00,1,D39,Sheepshead Bay,-73.954155,40.586896,4652.055702916446
12:17:00,1,D40,Brighton Beach,-73.961376,40.577621,4788.597369583113
12:17:00,1,D41,Ocean Pkwy,-73.968501,40.576312,4921.608362241656
12:17:00,1,D42,W 8 St-NY Aquarium,-73.975939,40.576127,5036.059975144883
12:17:00,1,D43,Coney Island-Stillwell Av,-73.981233,40.577422,5116.015530700438
12:01:00,2,E01,World Trade Center,-74.009781,40.712582,3256.4484971211195
12:17:00,1,F01,Jamaica-179 St,-73.783817,40.712646,3961.8456076126267
12:09:00,1,F02,169 St,-73.793604,40.71047,3884.124308593832
12:09:00,1,F03,Parsons Blvd,-73.803326,40.707564,3794.1243085938318
12:09:00,1,F04,Sutphin Blvd,-73.810708,40.70546,3770.27996897119
12:09:00,1,F05,Briarwood,-73.820574,40.709179,3650.27996897119
12:09:00,1,F06,Kew Gardens-Union Tpke,-73.831008,40.714441,3530.27996897119
12:09:00,1,F07,75 Av,-73.837324,40.718331,3395.356601622339
12:09:00,1,F09,Court Sq-23 St,-73.946,40.747846,2425.439676989677
12:09:00,1,F11,Lexington Av/53 St,-73.969055,40.757552,2223.477953748738
12:01:00,1,F12,5 Av/53 St,-73.975224,40.760167,2316.161916012889
13:41:30,1,F14,2 Av,-73.989938,40.723402,2961.734125607322
13:41:30,1,F15,Delancey St-Essex St,-73.988114,40.718611,3058.575962342016
13:41:30,1,F16,East Broadway,-73.990173,40.713715,3146.748551174503
12:09:00,1,F18,York St,-73.986751,40.701397,3297.94652071765
12:09:00,1,F20,Bergen St,-73.990862,40.686145,3432.8040318414137
12:09:00,1,F21,Carroll St,-73.995048,40.680303,3541.391395400168
12:09:00,1,F22,Smith-9 Sts,-73.995959,40.67358,3683.80485693863
12:09:00,1,F23,4 Av-9 St,-73.989779,40.670272,3767.2705432131397
12:09:00,1,F24,7 Av,-73.980305,40.666271,3717.307783033507
12:09:00,1,F25,15 St-Prospect Park,-73.979493,40.660365,3885.2173664378356
12:09:00,1,F26,Fort Hamilton Pkwy,-73.975776,40.650782,4046.8765843149304
12:09:00,1,F27,Church Av,-73.979678,40.644041,3957.3077830335064
12:09:00,1,F29,Ditmas Av,-73.978172,40.636119,4077.3077830335064
12:09:00,1,F30,18 Av,-73.976971,40.629755,4197.307783033506
12:09:00,1,F31,Avenue I,-73.976127,40.625322,4257.307783033506
12:09:00,1,F32,Bay Pkwy,-73.975264,40.620769,4317.307783033506
12:09:00,1,F33,Avenue N,-73.974197,40.61514,4437.307783033506
12:09:00,1,F34,Avenue P,-73.973022,40.608944,4527.307783033506
12:09:00,1,F35,Kings Hwy,-73.972361,40.603217,4700.969905021298
12:09:00,1,F36,Avenue U,-73.973357,40.596063,4809.570968851084
12:09:00,1,F38,Avenue X,-73.97425,40.58962,4902.774177407234
12:53:30,1,F39,Neptune Av,-73.974574,40.581011,5017.246087519594
12:09:00,1,G05,Jamaica Center-Parsons/Archer,-73.801109,40.702147,4025.5179283482075
12:09:00,1,G06,Sutphin Blvd-Archer Av-JFK Airport,-73.807969,40.700486,3934.23301214709
12:09:00,1,G07,Jamaica-Van Wyck,-73.816859,40.702566,3814.8811602952383
12:09:00,1,G08,Forest Hills-71 Av,-73.844521,40.721691,3295.851928725143
12:09:00,1,G09,67 Av,-73.852719,40.726523,3431.1823635077512
12:09:00,1,G10,63 Dr-Rego Park,-73.861604,40.729846,3490.1773428638144
12:01:00,1,G11,Woodhaven Blvd,-73.869229,40.733106,3393.9000773267744
12:01:00,1,G12,Grand Av-Newtown,-73.877223,40.737015,3271.0250773267744
12:01:00,1,G13,Elmhurst Av,-73.882017,40.742454,3171.490830751432
12:09:00,1,G14,Jackson Hts-Roosevelt Av,-73.891338,40.746644,2852.9198133592413
12:09:00,1,G15,65 St,-73.898453,40.749669,3040.009067939815
12:09:00,1,G16,Northern Blvd,-73.906006,40.752885,2947.7355636663106
12:09:00,1,G18,46 St,-73.913333,40.756312,2856.282572213319
12:09:00,1,G19,Steinway St,-73.92074,40.756879,2758.375009188109
12:09:00,1,G20,36 St,-73.928781,40.752039,2636.800009188109
12:09:00,1,G21,Queens Plaza,-73.937243,40.748973,2490.3284314324937
12:01:00,2,G22,Court Sq,-73.943832,40.746554,2623.7468216732664
12:21:30,2,G24,21 St,-73.949724,40.744065,2713.059798772503
12:21:30,2,G26,Greenpoint Av,-73.954449,40.731352,2854.456248476645
12:21:30,2,G28,Nassau Av,-73.951277,40.724635,2961.3757887065303
12:21:30,2,G29,Metropolitan Av,-73.951418,40.712792,3080.548366578192
12:21:30,2,G30,Broadway,-73.950308,40.706092,3181.1298883173226
12:21:30,2,G31,Flushing Av,-73.950234,40.700377,3267.5244829119174
12:21:30,2,G32,Myrtle-Willoughby Avs,-73.949046,40.694568,3349.2488072362416
12:01:00,2,G33,Bedford-Nostrand Avs,-73.953522,40.689627,3461.1789147631234
13:25:30,1,G34,Classon Av,-73.96007,40.688873,3543.0540080665323
13:25:30,1,G35,Clinton-Washington Avs,-73.966839,40.688089,3624.1469042413955
13:25:30,1,G36,Fulton St,-73.975375,40.687119,3620.5515841500355
12:09:00,1,H01,Aqueduct Racetrack,-73.834058,40.668234,4757.451062029946
12:09:00,1,H02,Aqueduct-N Conduit Av,-73.834058,40.668234,4830.520114969523
12:09:00,1,H03,Howard Beach-JFK Airport,-73.830301,40.660476,4928.639950918835
12:09:00,1,H04,Broad Channel,-73.815925,40.608382,5346.591563822061
12:09:00,1,H06,Beach 67 St,-73.796924,40.590927,5657.881037506272
12:09:00,1,H07,Beach 60 St,-73.788522,40.592374,5761.328405927326
12:09:00,1,H08,Beach 44 St,-73.776013,40.592943,5864.810862067676
12:09:00,1,H09,Beach 36 St,-73.768175,40.595398,5962.056476102764
12:09:00,1,H10,Beach 25 St,-73.761353,40.600066,6062.437007076215
12:09:00,1,H11,Far Rockaway-Mott Av,-73.755405,40.603995,6161.603673742881
12:09:00,1,H12,Beach 90 St,-73.813641,40.588034,5597.8915638220615
12:09:00,1,H13,Beach 98 St,-73.820558,40.585307,5676.291563822062
12:09:00,1,H14,Beach 105 St,-73.827559,40.583209,5752.402674933172
12:09:00,1,H15,Rockaway Park-Beach 116 St,-73.835592,40.580903,5856.602674933172
12:01:00,1,J12,121 St,-73.828294,40.700492,4332.7330121470895
12:01:00,1,J13,111 St,-73.836345,40.697418,4382.7481669856525
12:01:00,1,J14,104 St,-73.84433,40.695178,4502.7481669856525
12:01:00,1,J15,Woodhaven Blvd,-73.851576,40.693879,4565.267718019328
12:01:00,1,J16,85 St-Forest Pkwy,-73.86001,40.692435,4569.498860379231
12:01:00,1,J17,75 St-Elderts Ln,-73.867139,40.691324,4385.267718019328
12:01:00,1,J19,Cypress Hills,-73.87255,40.689941,4367.24886037923
12:01:00,1,J20,Crescent St,-73.873785,40.683194,4235.267718019328
12:01:00,1,J21,Norwood Av,-73.880039,40.68141,4145.267718019328
12:01:00,1,J22,Cleveland St,-73.884639,40.679947,4150.4472384391465
12:01:00,1,J23,Van Siclen Av,-73.891688,40.678024,3995.2677180193277
12:21:30,2,J24,Alabama Av,-73.898654,40.676992,3935.2677180193277
12:01:00,1,J27,Broadway Junction,-73.904512,40.679498,3831.949330749354
12:01:00,1,J28,Chauncey St,-73.910456,40.682893,3905.2677180193277
12:01:00,1,J29,Halsey St,-73.916559,40.68637,3997.5709219916134
12:01:00,1,J30,Gates Av,-73.92227,40.68963,3819.197824539856
12:01:00,1,J31,Kosciuszko St,-73.928814,40.693342,3823.331155909742
12:17:00,1,L01,8 Av,-74.002578,40.739777,2679.0934407543914
12:17:00,1,L02,6 Av,-73.996786,40.737335,2552.471569731957
12:17:00,1,L03,14 St-Union Sq,-73.99073,40.734789,2476.1734330859945
12:01:00,1,L05,3 Av,-73.986122,40.732849,2553.3287125890997
12:01:00,1,L06,1 Av,-73.981628,40.730953,2581.5620459224333
12:01:00,1,L08,Bedford Av,-73.956872,40.717304,2779.473900025777
12:01:00,1,L10,Lorimer St,-73.950275,40.714063,2867.3340823965973
12:01:00,1,L11,Graham Av,-73.944053,40.714565,2904.7049030652906
12:01:00,1,L12,Grand St,-73.94067,40.711926,2985.227291124992
12:01:00,1,L13,Montrose Av,-73.93985,40.707739,3023.650778669476
12:01:00,1,L14,Morgan Av,-73.933147,40.706152,3091.060274218438
12:01:00,1,L15,Jefferson St,-73.922913,40.706607,3174.9419310231715
12:01:00,1,L16,DeKalb Av,-73.918425,40.703811,3240.643738252087
12:01:00,1,L17,Myrtle-Wyckoff Avs,-73.911586,40.699814,3311.652801696196
12:01:00,1,L19,Halsey St,-73.904084,40.695602,3355.7167747601693
12:01:00,1,L20,Wilson Av,-73.904046,40.688764,3472.6951698218973
12:01:00,1,L21,Bushwick Av-Aberdeen St,-73.905249,40.682829,3557.031975377453
12:01:00,1,L22,Broadway Junction,-73.90324,40.678856,3606.949330749354
12:01:00,1,L24,Atlantic Av,-73.903097,40.675345,3715.026491243181
12:01:00,1,L25,Sutter Av,-73.901975,40.669367,3785.398798935489
12:01:00,1,L26,Livonia Av,-73.900571,40.664038,3843.1077772636627
12:01:00,1,L27,New Lots Av,-73.899232,40.658733,3892.207777263662
12:01:00,1,L28,East 105 St,-73.899485,40.650573,3988.934192358002
12:01:00,1,L29,Canarsie-Rockaway Pkwy,-73.90185,40.646654,4113.998381547191
12:01:00,2,M01,Middle Village-Metropolitan Av,-73.889601,40.711396,3937.10436325706
12:01:00,2,M04,Fresh Pond Rd,-73.895877,40.706186,3819.8213443891354
12:01:00,2,M05,Forest Av,-73.903077,40.704423,3727.2350106539748
12:01:00,2,M06,Seneca Av,-73.90774,40.702762,3632.8707722433787
13:01:30,1,M08,Myrtle-Wyckoff Avs,-73.912385,40.69943,3536.652801696196
12:01:00,2,M09,Knickerbocker Av,-73.919711,40.698664,3631.8516321055527
12:01:00,2,M10,Central Av,-73.927397,40.697857,3742.8398673996703
12:01:00,1,M11,Myrtle Av,-73.935657,40.697207,3652.031157873189
12:01:00,1,M12,Flushing Av,-73.941126,40.70026,3690.61070241231
12:01:00,1,M13,Lorimer St,-73.947408,40.703869,3587.928459421655
12:01:00,1,M14,Hewes St,-73.953431,40.70687,3496.8358668290625
12:01:00,1,M16,Marcy Av,-73.957757,40.708359,3403.8644912065224
12:01:00,1,M18,Delancey St-Essex St,-73.987437,40.718315,3022.281157873189
12:01:00,1,M19,Bowery,-73.993915,40.72028,2945.1978245398554
12:01:00,1,M20,Canal St,-73.999892,40.718092,2842.6978245398554
12:17:00,1,M21,Chambers St,-74.003401,40.713243,2747.114491206522
12:01:00,1,M22,Fulton St,-74.007582,40.710374,2849.185952412981
12:01:00,1,M23,Broad St,-74.011056,40.706476,2915.880689255086
12:01:00,1,N02,8 Av,-74.011719,40.635064,4309.919505115619
12:01:00,1,N03,Fort Hamilton Pkwy,-74.005351,40.631386,4404.347434842448
12:01:00,1,N04,New Utrecht Av,-73.996353,40.624842,4544.347434842447
12:01:00,1,N05,18 Av,-73.990414,40.620671,4634.347434842447
12:01:00,1,N06,20 Av,-73.985026,40.61741,4704.347434842448
12:01:00,1,N07,Bay Pkwy,-73.981848,40.611815,4794.347434842448
12:01:00,1,N08,Kings Hwy,-73.980353,40.603923,4914.347434842448
12:01:00,1,N09,Avenue U,-73.979137,40.597473,5014.347434842448
12:01:00,1,N10,86 St,-73.97823,40.592721,5074.347434842448
12:01:00,1,Q01,Canal St,-74.00046,40.718383,2827.2128061079293
12:17:00,1,Q03,72 St,-73.958424,40.768799,2345.27996897119
12:17:00,1,Q04,86 St,-73.951787,40.777891,2477.249041136139
12:17:00,1,Q05,96 St,-73.947152,40.784318,2558.27996897119
12:01:00,1,R01,Astoria-Ditmars Blvd,-73.912034,40.775036,3021.9549082295257
12:01:00,1,R03,Astoria Blvd,-73.917843,40.770258,2920.7766904077434
12:01:00,1,R04,30 Av,-73.921479,40.766779,2820.92335707441
12:01:00,1,R05,Broadway,-73.925508,40.76182,2724.3908895419427
12:01:00,1,R06,36 Av,-73.929575,40.756804,2629.5487842787848
12:01:00,1,R08,39 Av-Dutch Kills,-73.932755,40.752882,2524.2287842787846
12:01:00,1,R09,Queensboro Plaza,-73.940202,40.750582,2344.4158326378943
12:01:00,1,R11,Lexington Av/59 St,-73.967258,40.76266,2094.794530862746
12:01:00,1,R13,5 Av/59 St,-73.973347,40.764811,2183.2469100145554
12:01:00,1,R14,57 St-7 Av,-73.980658,40.764664,2308.542496747333
12:01:00,1,R15,49 St,-73.984139,40.759901,2421.859957064794
12:01:00,1,R16,Times Sq-42 St,-73.986754,40.754672,2531.981031562677
12:01:00,1,R17,34 St-Herald Sq,-73.98795,40.749567,2626.03279557406
12:01:00,1,R18,28 St,-73.988691,40.745494,2668.188981345434
12:01:00,1,R19,23 St,-73.989344,40.741303,2587.0058827538846
12:17:00,1,R20,14 St-Union Sq,-73.990568,40.735736,2487.212393304424
12:09:00,1,R21,8 St-NYU,-73.992629,40.730328,2588.196768304424
12:09:00,1,R22,Prince St,-73.997702,40.724329,2673.884268304424
12:09:00,1,R23,Canal St,-74.001775,40.719527,2773.682717916827
12:17:00,1,R24,City Hall,-74.006978,40.713282,2919.175025609135
12:17:00,1,R25,Cortlandt St,-74.011029,40.710668,3033.6177737007383
12:17:00,1,R26,Rector St,-74.013342,40.70722,3133.7093767541733
12:17:00,1,R27,Whitehall St-South Ferry,-74.012994,40.703087,3217.7927100875067
12:17:00,1,R28,Court St,-73.991777,40.6941,3293.132525025341
12:09:00,1,R29,Jay St-MetroTech,-73.985942,40.69218,3297.307783033507
12:21:30,1,R30,DeKalb Av,-73.981824,40.690635,3324.76286892583
12:01:00,1,R31,Atlantic Av-Barclays Ctr,-73.97881,40.683666,3465.5189640533313
12:21:30,1,R32,Union St,-73.98311,40.677316,3584.3394212734065
12:21:30,1,R33,4 Av-9 St,-73.988302,40.670847,3689.387040321026
12:21:30,1,R34,Prospect Av,-73.992872,40.665414,3796.2370403210257
12:21:30,1,R35,25 St,-73.998091,40.660397,3919.7678186521257
12:01:00,1,R36,36 St,-74.003549,40.655144,3850.5871458715133
12:21:30,1,R39,45 St,-74.010006,40.648939,4035.9963540465155
12:01:00,1,R40,53 St,-74.014034,40.645069,4125.220843842434
12:01:00,1,R41,59 St,-74.017881,40.641362,4142.643643046655
12:21:30,1,R42,Bay Ridge Av,-74.023377,40.634967,4303.453644342852
12:21:30,1,R43,77 St,-74.02551,40.629742,4383.726371615579
12:21:30,1,R44,86 St,-74.028398,40.622687,4560.07756209177
12:21:30,1,R45,Bay Ridge-95 St,-74.030876,40.616622,4637.093310123267
12:01:00,1,S01,Franklin Av,-73.955827,40.680596,3797.311842284326
12:01:00,1,S03,Park Pl,-73.957624,40.674772,3920.1868422843254
12:17:00,1,S04,Botanic Garden,-73.959245,40.670343,3794.2903411746483
