start_time,ntransfers,stop_id,stop_name,stop_lon,stop_lat,duration
12:07:30,3,101,Van Cortlandt Park-242 St,-73.898583,40.889248,3840.5766889519664
12:07:30,3,103,238 St,-73.90087,40.884667,3735.7903986293863
12:07:30,3,104,231 St,-73.904834,40.878856,3643.1919430309304
12:07:30,3,106,Marble Hill-225 St,-73.909831,40.874561,3555.3446669777763
12:07:30,3,107,215 St,-73.915279,40.869444,3465.726998381484
12:07:30,3,108,207 St,-73.918822,40.864621,3376.82893046204
12:07:30,3,109,Dyckman St,-73.925536,40.860531,3276.5161551316432
12:07:30,3,110,191 St,-73.929412,40.855225,3192.6713275454363
12:07:30,3,111,181 St,-73.933596,40.849505,3101.6412846269814
12:12:00,0,112,168 St-Washington Hts,-73.940133,40.840556,2982.4395678887845
12:15:30,3,113,157 St,-73.94489,40.834041,3081.7585334060254
12:12:00,0,114,145 St,-73.95036,40.826551,3199.011752290146
12:12:00,0,115,137 St-City College,-73.953676,40.822008,3295.5879885745358
12:12:00,0,116,125 St,-73.958372,40.815581,3216.548431621939
12:12:00,0,117,116 St-Columbia University,-73.96411,40.807722,3092.17251921318
12:12:00,0,118,Cathedral Pkwy (110 St),-73.966847,40.803967,3026.898009409258
12:12:00,0,119,103 St,-73.968379,40.799446,2945.1757871870363
12:04:00,0,120,96 St,-73.972323,40.793919,2565.4646777779735
12:12:00,0,121,86 St,-73.976218,40.788644,2696.426204501523
12:12:00,0,122,79 St,-73.979917,40.783934,2774.4993752332302
12:04:00,2,123,72 St,-73.98197,40.778453,2673.281327191731
12:23:30,2,124,66 St-Lincoln Center,-73.982209,40.77344,2750.402407358693
12:23:30,2,125,59 St-Columbus Circle,-73.981929,40.768247,2673.0540927519514
12:23:30,2,126,50 St,-73.983849,40.761728,2569.3849198196203
12:04:00,2,127,Times Sq-42 St,-73.987495,40.75529,2437.194038852358
12:39:30,2,128,34 St-Penn Station,-73.991057,40.750373,2534.1207404230386
13:59:30,2,129,28 St,-73.993365,40.747215,2618.7332785364965
13:59:30,2,130,23 St,-73.995657,40.744081,2688.307575725252
13:59:30,2,131,18 St,-73.997871,40.74104,2753.579142136282
12:39:30,2,132,14 St,-74.000201,40.737826,2678.9922695494092
12:35:30,2,133,Christopher St-Sheridan Sq,-74.002906,40.733422,2769.714491771632
12:35:30,2,134,Houston St,-74.005367,40.728251,2855.595444152584
12:35:30,2,135,Canal St,-74.006277,40.722854,2950.45629865999
12:04:00,2,136,Franklin St,-74.006886,40.719318,3014.626115466891
12:15:30,2,137,Chambers St,-74.009266,40.715478,2952.979282536422
12:04:00,1,138,WTC Cortlandt,-74.012188,40.711835,3164.538917834802
12:04:00,1,139,Rector St,-74.013783,40.707513,3241.049039292292
12:04:00,1,142,South Ferry,-74.013664,40.702068,3344.139948383201
12:12:00,0,201,Wakefield-241 St,-73.85062,40.903125,3739.362823310598
12:12:00,0,204,Nereid Av,-73.854376,40.898379,3442.347009948634
12:12:00,0,205,233 St,-73.857473,40.893193,3352.347009948634
12:12:00,0,206,225 St,-73.860341,40.888022,3262.347009948634
12:12:00,0,207,219 St,-73.862633,40.883895,3172.347009948634
12:12:00,0,208,Gun Hill Rd,-73.866256,40.87785,3067.347009948634
12:12:00,0,209,Burke Av,-73.867164,40.871356,3040.665983966103
12:12:00,0,210,Allerton Av,-73.867352,40.865462,2948.5355491834944
12:12:00,0,211,Pelham Pkwy,-73.867615,40.857192,2844.187723096538
12:12:00,0,212,Bronx Park East,-73.868457,40.848828,2719.361636140016
12:12:00,0,213,E 180 St,-73.873488,40.841894,2509.057288313929
12:12:00,0,214,West Farms Sq-E Tremont Av,-73.880049,40.840295,2471.5674151826843
12:12:00,0,215,174 St,-73.887734,40.837288,2343.6269361314626
12:12:00,0,216,Freeman St,-73.891865,40.829993,2223.789329293856
12:12:00,0,217,Simpson St,-73.893064,40.824073,2113.4079733616527
12:04:00,0,218,Intervale Av,-73.896736,40.822181,2040.4842445480936
12:04:00,0,219,Prospect Av,-73.90177,40.819585,1954.6028886158904
12:12:00,0,220,Jackson Av,-73.907807,40.81649,1862.5440650864784
12:04:00,0,221,3 Av-149 St,-73.917757,40.816109,1730.9403292496015
12:04:00,0,222,149 St-Grand Concourse,-73.926718,40.81841,1605.4433232615775
12:04:00,0,224,135 St,-73.94077,40.814229,2037.0269472992939
12:04:00,0,225,125 St,-73.945495,40.807754,2141.709960796841
12:04:00,0,226,116 St,-73.949625,40.802098,2240.1675079666525
12:04:00,0,227,Central Park North (110 St),-73.951822,40.799075,2314.1675079666525
12:04:00,2,228,Park Place,-74.008811,40.713051,2998.3644719244853
12:04:00,2,229,Fulton St,-74.006571,40.709416,2890.767613285742
12:04:00,1,230,Wall St,-74.0091,40.706821,2963.8775609297213
12:04:00,1,231,Clark St,-73.993086,40.697466,3147.586438125619
12:04:00,1,232,Borough Hall,-73.989998,40.693219,3259.8827344219158
12:04:00,1,233,Hoyt St,-73.985065,40.690545,3250.0491331391513
12:04:00,0,234,Nevins St,-73.980492,40.688246,3110.633973015033
12:04:00,0,235,Atlantic Av-Barclays Ctr,-73.977666,40.684359,3206.2885184695783
12:07:30,0,236,Bergen St,-73.975098,40.680829,3310.6522204145394
12:07:30,0,237,Grand Army Plaza,-73.971046,40.675235,3422.279957640817
12:07:30,0,238,Eastern Pkwy-Brooklyn Museum,-73.964375,40.671987,3527.5500306335175
12:04:00,0,239,Franklin Av-Medgar Evers College,-73.958131,40.670682,3485.811040992101
12:07:30,0,241,President St-Medgar Evers College,-73.950683,40.667883,3657.118733299793
12:07:30,0,242,Sterling St,-73.95085,40.662742,3747.5898871459467
12:07:30,0,243,Winthrop St,-73.9502,40.656652,3832.7422680983277
12:07:30,0,244,Church Av,-73.949575,40.650843,3914.5945408256007
12:07:30,0,245,Beverly Rd,-73.948959,40.645098,3996.0285030897517
12:07:30,0,246,Newkirk Av-Little Haiti,-73.948411,40.639967,4082.028503089752
12:07:30,0,247,Flatbush Av-Brooklyn College,-73.947642,40.632836,4199.365345195015
12:07:30,0,248,Nostrand Av,-73.950466,40.669847,3645.3110409921005
12:07:30,0,249,Kingston Av,-73.942161,40.669399,3741.311040992101
12:04:00,0,250,Crown Hts-Utica Av,-73.932942,40.668897,3741.686040992101
12:07:30,0,251,Sutter Av-Rutland Rd,-73.92261,40.664717,3866.936040992101
12:07:30,0,252,Saratoga Av,-73.916327,40.661453,3978.936040992101
12:07:30,0,253,Rockaway Av,-73.908946,40.662549,4066.686040992101
12:07:30,0,254,Junius St,-73.902447,40.663515,4089.628477081115
12:07:30,0,255,Pennsylvania Av,-73.894895,40.664635,4186.844163355625
12:07:30,0,256,Van Siclen Av,-73.889395,40.665449,4261.353967277193
12:07:30,0,257,New Lots Av,-73.884079,40.666235,4332.128477081114
12:04:00,0,301,Harlem-148 St,-73.93647,40.82388,2464.9161578256094
12:04:00,0,302,145 St,-73.936245,40.820421,2350.5319472992937
12:07:30,0,401,Woodlawn,-73.878751,40.886037,2837.859945136437
12:07:30,0,402,Mosholu Pkwy,-73.884655,40.87975,2716.2872579117675
12:07:30,0,405,Bedford Park Blvd-Lehman College,-73.890064,40.873412,2578.6450165324572
12:07:30,0,406,Kingsbridge Rd,-73.897174,40.86776,2467.1557461461907
12:07:30,0,407,Fordham Rd,-73.901034,40.862803,2382.643451064224
12:07:30,0,408,183 St,-73.903879,40.858407,2302.8352877989173
12:07:30,0,409,Burnside Av,-73.907684,40.853453,2207.4369475499548
12:07:30,0,410,176 St,-73.911794,40.84848,2118.9514703715317
12:07:30,0,411,Mt Eden Av,-73.914685,40.844434,2041.2407265698787
12:07:30,0,412,170 St,-73.917791,40.840075,1961.6994042558292
12:07:30,0,413,167 St,-73.9214,40.835537,1873.7906905628831
12:07:30,0,414,161 St-Yankee Stadium,-73.925831,40.827994,1765.7948746633015
12:07:30,0,415,149 St-Grand Concourse,-73.927351,40.818375,1557.2760462114186
12:04:00,0,416,138 St-Grand Concourse,-73.929849,40.813224,1433.6057759411483
12:04:00,0,418,Fulton St,-74.009509,40.710368,2547.836579912863
12:04:00,0,419,Wall St,-74.011862,40.707557,2627.225468801752
12:04:00,0,420,Bowling Green,-74.014065,40.704817,2702.3151239741655
12:04:00,0,423,Borough Hall,-73.990151,40.692404,2970.3885184695782
13:47:30,0,501,Eastchester-Dyre Av,-73.830834,40.8883,3284.6573286429316
12:12:00,0,502,Baychester Av,-73.838591,40.878663,3145.256049165192
12:12:00,0,503,Gun Hill Rd,-73.846384,40.869526,2995.256049165192
12:12:00,0,504,Pelham Pkwy,-73.855359,40.858985,2838.167178423819
12:12:00,0,505,Morris Park,-73.860495,40.854364,2750.4858597425005
12:08:00,0,601,Pelham Bay Park,-73.828121,40.852462,658.8142389796051
12:08:00,0,602,Buhre Av,-73.832569,40.84681,521.3616074006577
12:08:00,0,603,Middletown Rd,-73.836322,40.843863,449.25049628954656
12:08:00,0,604,Westchester Sq-E Tremont Av,-73.842952,40.839892,341.11293015198044
12:08:00,0,606,Zerega Av,-73.847036,40.836488,258.14467618372646
12:08:00,0,607,Castle Hill Av,-73.851222,40.834255,194.3351523742027
12:00:00,0,608,Parkchester,-73.860816,40.833226,88.45454545454545
12:04:00,0,609,St Lawrence Av,-73.867618,40.831509,0.0
12:07:30,0,610,Morrison Av-Soundview,-73.874516,40.829521,81.37860082304526
12:07:30,0,611,Elder Av,-73.879159,40.828584,148.5909090909091
12:07:30,0,612,Whitlock Av,-73.886283,40.826525,252.68181818181816
12:07:30,0,613,Hunts Point Av,-73.890549,40.820948,374.09090909090907
12:07:30,0,614,Longwood Av,-73.896435,40.816104,489.22103824263274
12:07:30,0,615,E 149 St,-73.904098,40.812118,590.2558514959065
12:07:30,0,616,E 143 St-St Mary's St,-73.907657,40.808719,664.8587395825491
12:07:30,0,617,Cypress Av,-73.914042,40.805368,764.0921973194686
12:07:30,0,618,Brook Av,-73.91924,40.807566,833.6510208488804
12:04:00,0,619,3 Av-138 St,-73.926138,40.810476,820.5800395256916
12:04:00,0,621,125 St,-73.937594,40.804138,1031.964654910307
12:04:00,0,622,116 St,-73.941617,40.798629,1157.0657785058124
12:04:00,0,623,110 St,-73.94425,40.79502,1241.9339103739444
12:04:00,0,624,103 St,-73.947478,40.7906,1320.8020422420764
12:04:00,0,625,96 St,-73.95107,40.785672,1413.7690752091094
12:04:00,0,626,86 St,-73.955589,40.779492,1519.1846192313717
12:04:00,0,627,77 St,-73.959874,40.77362,1624.7846192313718
12:04:00,0,628,68 St-Hunter College,-73.96387,40.768141,1713.4512858980386
12:04:00,0,629,59 St,-73.967967,40.762526,1766.6813632819697
12:04:00,0,630,51 St,-73.97192,40.757107,1910.5848027088257
12:04:00,0,631,Grand Central-42 St,-73.976848,40.751776,1942.2049241077914
12:04:00,0,632,33 St,-73.982076,40.746081,2166.1137858980383
12:04:00,0,633,28 St,-73.984264,40.74307,2234.8637858980387
12:04:00,0,634,23 St,-73.986599,40.739864,2298.7387858980387
12:04:00,0,635,14 St-Union Sq,-73.989951,40.734673,2178.733093121876
12:04:00,0,636,Astor Pl,-73.99107,40.730054,2477.8809580780926
12:04:00,0,637,Bleecker St,-73.994659,40.725915,2568.5976816275806
12:04:00,0,638,Spring St,-73.997141,40.722301,2637.7473414915266
12:04:00,0,639,Canal St,-74.000193,40.718803,2702.189612792682
12:04:00,0,640,Brooklyn Bridge-City Hall,-74.004131,40.713065,2438.635191023974
12:55:30,2,701,Flushing-Main St,-73.83003,40.7596,3448.1522500789206
12:55:30,2,702,Mets-Willets Point,-73.845625,40.754622,3238.7716977856885
12:55:30,2,705,111 St,-73.855334,40.75173,3255.5881824542175
12:55:30,2,706,103 St-Corona Plaza,-73.8627,40.749865,3161.9621739761646
12:55:30,2,707,Junction Blvd,-73.869527,40.749145,2991.628840642831
12:55:30,2,708,90 St-Elmhurst Av,-73.876613,40.748408,3091.355182497721
12:55:30,2,709,82 St-Jackson Hts,-73.883697,40.747659,3011.97490080758
12:07:30,2,710,74 St-Broadway,-73.891394,40.746848,2869.7266014878523
12:12:00,2,711,69 St,-73.896403,40.746325,2822.31483678197
12:07:30,2,712,61 St-Woodside,-73.902984,40.74563,2750.4063860777446
12:07:30,2,713,52 St,-73.912549,40.744149,2623.7557160889096
12:07:30,2,714,46 St-Bliss St,-73.918435,40.743132,2570.0621227741467
12:07:30,2,715,40 St-Lowery St,-73.924016,40.743781,2518.691649236542
13:55:30,2,716,33 St-Rawson St,-73.930997,40.744587,2450.411394459472
12:04:00,1,718,Queensboro Plaza,-73.940202,40.750582,2307.9365341242765
12:15:30,2,719,Court Sq,-73.945264,40.747023,2401.628840642831
12:04:00,1,720,Hunters Point Av,-73.948916,40.742216,2405.0617313801295
12:04:00,1,721,Vernon Blvd-Jackson Av,-73.953581,40.742626,2377.0617313801295
12:20:00,1,723,Grand Central-42 St,-73.976041,40.751431,2174.0617313801295
12:20:00,1,724,5 Av,-73.981963,40.753821,2271.7329490260468
12:20:00,1,725,Times Sq-42 St,-73.987691,40.755477,2356.032949026047
12:20:00,1,726,34 St-Hudson Yards,-74.00191,40.755882,2535.3516711068814
12:20:00,1,901,Grand Central-42 St,-73.979189,40.752769,2129.0617313801295
12:20:00,1,902,Times Sq-42 St,-73.986229,40.755983,2223.501731380129
12:39:30,1,A02,Inwood-207 St,-73.919899,40.868072,3309.618383975416
12:39:30,1,A03,Dyckman St,-73.927271,40.865491,3219.545391274686
12:39:30,1,A05,190 St,-73.93418,40.859022,3095.952999970338
12:39:30,1,A06,181 St,-73.937969,40.851695,2982.717705852691
12:39:30,1,A07,175 St,-73.939704,40.847391,2885.997275745164
12:07:30,2,A09,168 St,-73.939561,40.840719,2756.95043667655
12:07:30,2,A10,163 St-Amsterdam Av,-73.939892,40.836013,2657.921024911844
12:07:30,2,A11,155 St,-73.941514,40.830518,2576.0876915785107
12:39:30,1,A12,145 St,-73.944216,40.824783,2423.822425645192
12:39:30,1,A14,135 St,-73.947649,40.817894,2333.9009536704034
13:59:30,1,A15,125 St,-73.952343,40.811109,2430.91109824885
12:39:30,1,A16,116 St,-73.954882,40.805085,2554.746680479552
12:39:30,1,A17,Cathedral Pkwy (110 St),-73.958161,40.800603,2639.4218138087595
12:39:30,1,A18,103 St,-73.961454,40.796092,2723.895440810131
12:39:30,1,A19,96 St,-73.964696,40.791642,2808.4036375314427
12:23:30,1,A20,86 St,-73.968916,40.785868,2908.031736704996
12:23:30,1,A21,81 St-Museum of Natural History,-73.972143,40.781433,2900.1249457099816
12:23:30,1,A22,72 St,-73.97641,40.775594,2811.2449457099815
12:23:30,1,A24,59 St-Columbus Circle,-73.981736,40.768296,2654.1631163362144
12:39:30,1,A25,50 St,-73.985984,40.762456,2429.9507745082483
13:15:30,1,A27,42 St-Port Authority Bus Terminal,-73.989735,40.757308,2492.157710930809
12:20:00,2,A28,34 St-Penn Station,-73.993391,40.752287,2588.448033511454
12:31:30,1,A30,23 St,-73.998041,40.745906,2688.570029771389
12:31:30,1,A31,14 St,-74.00169,40.740893,2730.598571145863
12:04:00,2,A32,W 4 St-Wash Sq,-74.000495,40.732338,2855.0007450589064
12:04:00,2,A33,Spring St,-74.003739,40.726227,2972.4488849408935
13:03:30,1,A34,Canal St,-74.005229,40.720824,2988.5332606818242
13:03:30,1,A36,Chambers St,-74.008585,40.714111,2868.2071737253023
12:07:30,1,A38,Fulton St,-74.007691,40.710197,2770.767613285742
12:12:00,1,A40,High St,-73.990531,40.699337,2954.34152632922
12:12:00,1,A41,Jay St-MetroTech,-73.987342,40.692338,3078.828482850959
12:12:00,1,A42,Hoyt-Schermerhorn Sts,-73.985001,40.688484,3194.7945845458744
13:31:30,1,A43,Lafayette Av,-73.973946,40.686113,3350.022793443266
13:31:30,1,A44,Clinton-Washington Avs,-73.965838,40.683263,3434.3155929492355
13:31:30,1,A45,Franklin Av,-73.956848,40.68138,3533.832542101778
12:12:00,1,A46,Nostrand Av,-73.950426,40.680438,3521.063334255198
12:12:00,1,A47,Kingston-Throop Avs,-73.940858,40.679921,3621.4175009218643
12:12:00,1,A48,Utica Av,-73.930729,40.679364,3691.883558974299
12:12:00,1,A49,Ralph Av,-73.920786,40.678822,3802.600950278647
12:12:00,1,A50,Rockaway Av,-73.911946,40.67834,3845.8867784925174
12:12:00,1,A51,Broadway Junction,-73.905316,40.678334,3761.78841783678
13:03:30,1,A52,Liberty Av,-73.896548,40.674542,3895.7477674302763
13:03:30,1,A53,Van Siclen Av,-73.890358,40.67271,3990.926629218894
13:03:30,1,A54,Shepherd Av,-73.88075,40.67413,4094.9997999506013
12:12:00,1,A55,Euclid Av,-73.872106,40.675377,4062.1000457437567
12:12:00,1,A57,Grant Av,-73.86505,40.677044,4184.2826183578645
12:12:00,1,A59,80 St,-73.858992,40.679371,4281.634618357864
12:12:00,1,A60,88 St,-73.85147,40.679843,4377.594777720415
12:12:00,1,A61,Rockaway Blvd,-73.843853,40.680429,4467.940015815653
13:27:30,1,A63,104 St,-73.837683,40.681711,4551.612015815653
13:55:30,1,A64,111 St,-73.832163,40.684331,4637.743163356636
13:55:30,1,A65,Ozone Park-Lefferts Blvd,-73.825798,40.685951,4726.806454495877
12:39:30,1,B04,21 St-Queensbridge,-73.942836,40.754203,2373.5710911561514
12:39:30,1,B06,Roosevelt Island,-73.95326,40.759145,2226.9504015009793
12:04:00,1,B08,Lexington Av/63 St,-73.966113,40.764629,2141.8006687886423
12:43:30,1,B10,57 St,-73.97745,40.763972,2306.8006687886423
12:07:30,1,B12,9 Av,-73.994324,40.646292,4131.674995903148
12:07:30,1,B13,Fort Hamilton Pkwy,-73.994304,40.640914,4232.777560005711
12:07:30,1,B14,50 St,-73.994791,40.63626,4311.803037712718
12:07:30,1,B15,55 St,-73.995476,40.631435,4411.560999496157
12:07:30,1,B16,62 St,-73.996895,40.626472,4477.5330274681855
12:07:30,1,B17,71 St,-73.998864,40.619589,4580.023473328058
12:07:30,1,B18,79 St,-74.00061,40.613501,4686.583982882198
12:07:30,1,B19,18 Av,-74.001736,40.607954,4768.177531269294
12:07:30,1,B20,20 Av,-73.998168,40.604556,4850.171037762801
12:07:30,1,B21,Bay Pkwy,-73.993728,40.601875,4927.7164923082555
12:07:30,1,B22,25 Av,-73.986829,40.597704,5046.82616972761
12:07:30,1,B23,Bay 50 St,-73.983765,40.588841,5245.39759829904
12:07:30,1,D01,Norwood-205 St,-73.878855,40.874811,2981.407322327163
12:07:30,1,D03,Bedford Park Blvd,-73.887138,40.873244,2809.920835840677
12:07:30,1,D04,Kingsbridge Rd,-73.893509,40.866978,2692.764585840677
12:07:30,1,D05,Fordham Rd,-73.897749,40.861296,2598.2331173092084
12:07:30,1,D06,182-183 Sts,-73.900741,40.856093,2511.2992105080452
12:07:30,1,D07,Tremont Av,-73.905227,40.85041,2433.1841662602574
12:07:30,1,D08,174-175 Sts,-73.910136,40.8459,2338.8910628119816
12:07:30,1,D09,170 St,-73.9134,40.839306,2230.2585877601514
12:07:30,1,D10,167 St,-73.91844,40.833771,2122.834345335909
13:35:30,1,D11,161 St-Yankee Stadium,-73.925651,40.827905,1990.7948746633015
12:39:30,1,D12,155 St,-73.938209,40.830135,2115.52326972503
12:39:30,1,D13,145 St,-73.944216,40.824783,2226.739319107746
12:39:30,1,D14,7 Av,-73.981637,40.762862,2335.960208470512
12:43:30,1,D15,47-50 Sts-Rockefeller Ctr,-73.981329,40.758663,2396.8006687886423
12:43:30,1,D16,42 St-Bryant Pk,-73.984569,40.754222,2486.8006687886423
12:43:30,1,D17,34 St-Herald Sq,-73.987823,40.749719,2573.5086499606264
12:43:30,1,D18,23 St,-73.992821,40.742878,2684.250433998185
12:43:30,1,D19,14 St,-73.996209,40.738228,2693.9922695494092
13:27:30,1,D20,W 4 St-Wash Sq,-74.000495,40.732338,2755.5197935559513
13:27:30,1,D21,Broadway-Lafayette St,-73.996204,40.725297,2780.8262539962025
13:23:30,1,D22,Grand St,-73.993753,40.718267,2909.238018702085
12:31:30,1,D24,Atlantic Av-Barclays Ctr,-73.97689,40.68446,3410.3210018983627
12:31:30,1,D25,7 Av,-73.972367,40.67705,3540.7821417947353
12:31:30,1,D26,Prospect Park,-73.962246,40.661614,3721.9220381677924
12:31:30,1,D27,Parkside Av,-73.961495,40.655292,3803.8028671833363
12:31:30,1,D28,Church Av,-73.962982,40.650527,3901.5463226807187
12:31:30,1,D29,Beverley Rd,-73.964492,40.644031,4006.921556713368
12:31:30,1,D30,Cortelyou Rd,-73.963891,40.640927,4085.117087439625
12:31:30,1,D31,Newkirk Plaza,-73.962793,40.635082,4084.0541805116754
12:31:30,1,D32,Avenue H,-73.961639,40.62927,4200.877286988655
12:31:30,1,D33,Avenue J,-73.960803,40.625039,4288.197928922218
12:31:30,1,D34,Avenue M,-73.959399,40.617618,4392.315877640167
12:31:30,1,D35,Kings Hwy,-73.957734,40.60867,4332.2097360672315
12:31:30,1,D37,Avenue U,-73.955929,40.5993,4545.679123822333
12:31:30,1,D38,Neck Rd,-73.955161,40.595246,4645.215206296561
12:31:30,1,D39,Sheepshead Bay,-73.954155,40.586896,4568.576402733898
12:31:30,1,D40,Brighton Beach,-73.961376,40.577621,4705.118069400564
12:31:30,1,D41,Ocean Pkwy,-73.968501,40.576312,4838.129062059109
12:31:30,1,D42,W 8 St-NY Aquarium,-73.975939,40.576127,4952.580674962334
12:31:30,1,D43,Coney Island-Stillwell Av,-73.981233,40.577422,5032.53623051789
12:35:30,1,E01,World Trade Center,-74.009781,40.712582,3172.9691969385717
12:20:00,1,F01,Jamaica-179 St,-73.783817,40.712646,3878.366307430079
12:39:30,1,F02,169 St,-73.793604,40.71047,3800.6450084112835
12:39:30,1,F03,Parsons Blvd,-73.803326,40.707564,3710.6450084112835
12:39:30,1,F04,Sutphin Blvd,-73.810708,40.70546,3686.8006687886423
12:39:30,1,F05,Briarwood,-73.820574,40.709179,3566.8006687886423
12:12:00,1,F06,Kew Gardens-Union Tpke,-73.831008,40.714441,3446.8006687886423
12:39:30,1,F07,75 Av,-73.837324,40.718331,3311.8773014397907
12:12:00,1,F09,Court Sq-23 St,-73.946,40.747846,2339.6938953345298
12:39:30,1,F11,Lexington Av/53 St,-73.969055,40.757552,2139.5321703769773
12:39:30,1,F12,5 Av/53 St,-73.975224,40.760167,2232.216132641128
12:31:30,1,F14,2 Av,-73.989938,40.723402,2878.2548254247745
12:31:30,1,F15,Delancey St-Essex St,-73.988114,40.718611,2975.096662159468
12:31:30,1,F16,East Broadway,-73.990173,40.713715,3063.2692509919552
13:11:30,1,F18,York St,-73.986751,40.701397,3214.4672205351026
12:51:30,1,F20,Bergen St,-73.990862,40.686145,3349.324731658866
12:51:30,1,F21,Carroll St,-73.995048,40.680303,3457.912095217621
12:51:30,1,F22,Smith-9 Sts,-73.995959,40.67358,3600.3255567560823
12:51:30,1,F23,4 Av-9 St,-73.989779,40.670272,3683.7912430305923
12:51:30,1,F24,7 Av,-73.980305,40.666271,3633.828482850959
12:51:30,1,F25,15 St-Prospect Park,-73.979493,40.660365,3801.7380662552882
12:51:30,1,F26,Fort Hamilton Pkwy,-73.975776,40.650782,3963.3972841323834
12:51:30,1,F27,Church Av,-73.979678,40.644041,3873.8284828509586
13:27:30,1,F29,Ditmas Av,-73.978172,40.636119,3993.8284828509586
13:27:30,1,F30,18 Av,-73.976971,40.629755,4113.828482850959
13:27:30,1,F31,Avenue I,-73.976127,40.625322,4173.828482850959
13:27:30,1,F32,Bay Pkwy,-73.975264,40.620769,4233.828482850959
13:27:30,1,F33,Avenue N,-73.974197,40.61514,4353.828482850959
13:27:30,1,F34,Avenue P,-73.973022,40.608944,4443.828482850959
13:27:30,1,F35,Kings Hwy,-73.972361,40.603217,4617.490604838749
13:51:30,1,F36,Avenue U,-73.973357,40.596063,4726.091668668537
13:51:30,1,F38,Avenue X,-73.97425,40.58962,4819.294877224686
12:31:30,1,F39,Neptune Av,-73.974574,40.581011,4933.7667873370465
13:55:30,1,G05,Jamaica Center-Parsons/Archer,-73.801109,40.702147,3942.0386281656597
12:12:00,1,G06,Sutphin Blvd-Archer Av-JFK Airport,-73.807969,40.700486,3850.753711964542
12:12:00,1,G07,Jamaica-Van Wyck,-73.816859,40.702566,3731.40186011269
12:12:00,1,G08,Forest Hills-71 Av,-73.844521,40.721691,3212.3726285425946
12:12:00,1,G09,67 Av,-73.852719,40.726523,3347.7030633252034
12:55:30,1,G10,63 Dr-Rego Park,-73.861604,40.729846,3406.6980426812665
12:55:30,1,G11,Woodhaven Blvd,-73.869229,40.733106,3309.9542939550133
12:55:30,1,G12,Grand Av-Newtown,-73.877223,40.737015,3187.0792939550133
12:55:30,1,G13,Elmhurst Av,-73.882017,40.742454,3087.545047379671
12:12:00,1,G14,Jackson Hts-Roosevelt Av,-73.891338,40.746644,2769.440513176693
12:47:30,1,G15,65 St,-73.898453,40.749669,2956.5297677572667
13:23:30,1,G16,Northern Blvd,-73.906006,40.752885,2864.2562634837623
13:23:30,1,G18,46 St,-73.913333,40.756312,2772.8032720307706
13:23:30,1,G19,Steinway St,-73.92074,40.756879,2674.895709005561
13:23:30,1,G20,36 St,-73.928781,40.752039,2529.600711826973
12:12:00,1,G21,Queens Plaza,-73.937243,40.748973,2372.06737849364
12:27:30,2,G22,Court Sq,-73.943832,40.746554,2533.6091287497634
12:27:30,2,G24,21 St,-73.949724,40.744065,2622.922105849
12:27:30,2,G26,Greenpoint Av,-73.954449,40.731352,2764.3185555531422
12:27:30,2,G28,Nassau Av,-73.951277,40.724635,2871.2380957830273
12:27:30,2,G29,Metropolitan Av,-73.951418,40.712792,2997.0690663956443
12:27:30,2,G30,Broadway,-73.950308,40.706092,3095.677521823089
12:27:30,2,G31,Flushing Av,-73.950234,40.700377,3184.0451827293696
12:27:30,2,G32,Myrtle-Willoughby Avs,-73.949046,40.694568,3265.769507053694
13:31:30,1,G33,Bedford-Nostrand Avs,-73.953522,40.689627,3375.921840004907
13:31:30,1,G34,Classon Av,-73.96007,40.688873,3452.916315143029
13:31:30,1,G35,Clinton-Washington Avs,-73.966839,40.688089,3534.0092113178926
13:31:30,1,G36,Fulton St,-73.975375,40.687119,3537.072283967488
12:12:00,1,H01,Aqueduct Racetrack,-73.834058,40.668234,4673.971761847399
12:12:00,1,H02,Aqueduct-N Conduit Av,-73.834058,40.668234,4747.040814786975
12:12:00,1,H03,Howard Beach-JFK Airport,-73.830301,40.660476,4845.160650736288
12:12:00,1,H04,Broad Channel,-73.815925,40.608382,5263.112263639514
12:12:00,1,H06,Beach 67 St,-73.796924,40.590927,5574.401737323725
12:12:00,1,H07,Beach 60 St,-73.788522,40.592374,5677.849105744777
12:12:00,1,H08,Beach 44 St,-73.776013,40.592943,5781.331561885128
12:12:00,1,H09,Beach 36 St,-73.768175,40.595398,5878.577175920216
12:12:00,1,H10,Beach 25 St,-73.761353,40.600066,5978.957706893668
12:12:00,1,H11,Far Rockaway-Mott Av,-73.755405,40.603995,6078.124373560334
12:12:00,1,H12,Beach 90 St,-73.813641,40.588034,5514.412263639513
12:12:00,1,H13,Beach 98 St,-73.820558,40.585307,5592.812263639514
12:12:00,1,H14,Beach 105 St,-73.827559,40.583209,5668.923374750625
12:12:00,1,H15,Rockaway Park-Beach 116 St,-73.835592,40.580903,5773.123374750625
12:55:30,1,J12,121 St,-73.828294,40.700492,4249.253711964542
12:55:30,1,J13,111 St,-73.836345,40.697418,4299.268866803104
12:55:30,1,J14,104 St,-73.84433,40.695178,4419.268866803104
12:55:30,1,J15,Woodhaven Blvd,-73.851576,40.693879,4481.78841783678
12:55:30,1,J16,85 St-Forest Pkwy,-73.86001,40.692435,4486.0195601966825
12:55:30,1,J17,75 St-Elderts Ln,-73.867139,40.691324,4301.78841783678
12:55:30,1,J19,Cypress Hills,-73.87255,40.689941,4283.7695601966825
12:47:30,2,J20,Crescent St,-73.873785,40.683194,4151.78841783678
12:47:30,2,J21,Norwood Av,-73.880039,40.68141,4061.78841783678
12:47:30,2,J22,Cleveland St,-73.884639,40.679947,4066.967938256599
12:47:30,2,J23,Van Siclen Av,-73.891688,40.678024,3911.78841783678
12:47:30,2,J24,Alabama Av,-73.898654,40.676992,3851.78841783678
12:43:30,1,J27,Broadway Junction,-73.904512,40.679498,3748.470030566806
13:27:30,2,J28,Chauncey St,-73.910456,40.682893,3821.78841783678
12:43:30,1,J29,Halsey St,-73.916559,40.68637,3914.0916218090656
12:43:30,1,J30,Gates Av,-73.92227,40.68963,3735.718524357308
12:43:30,1,J31,Kosciuszko St,-73.928814,40.693342,3739.851855727194
12:15:30,1,L01,8 Av,-74.002578,40.739777,2595.6141405718436
12:15:30,1,L02,6 Av,-73.996786,40.737335,2468.9922695494092
12:15:30,1,L03,14 St-Union Sq,-73.99073,40.734789,2392.6941329034466
12:04:00,1,L05,3 Av,-73.986122,40.732849,2469.8494124065523
12:04:00,1,L06,1 Av,-73.981628,40.730953,2498.0827457398855
12:04:00,1,L08,Bedford Av,-73.956872,40.717304,2695.994599843229
12:04:00,1,L10,Lorimer St,-73.950275,40.714063,2783.8547822140495
12:04:00,1,L11,Graham Av,-73.944053,40.714565,2821.225602882743
12:04:00,1,L12,Grand St,-73.94067,40.711926,2901.747990942444
12:04:00,1,L13,Montrose Av,-73.93985,40.707739,2940.171478486928
12:04:00,1,L14,Morgan Av,-73.933147,40.706152,3007.58097403589
12:04:00,1,L15,Jefferson St,-73.922913,40.706607,3091.4626308406237
12:04:00,1,L16,DeKalb Av,-73.918425,40.703811,3157.1644380695398
12:04:00,1,L17,Myrtle-Wyckoff Avs,-73.911586,40.699814,3228.1735015136483
12:04:00,1,L19,Halsey St,-73.904084,40.695602,3272.2374745776215
12:04:00,1,L20,Wilson Av,-73.904046,40.688764,3389.21586963935
12:04:00,1,L21,Bushwick Av-Aberdeen St,-73.905249,40.682829,3473.5526751949055
12:04:00,1,L22,Broadway Junction,-73.90324,40.678856,3523.470030566806
12:04:00,1,L24,Atlantic Av,-73.903097,40.675345,3631.5471910606334
12:04:00,1,L25,Sutter Av,-73.901975,40.669367,3701.9194987529413
12:04:00,1,L26,Livonia Av,-73.900571,40.664038,3759.6284770811144
12:04:00,1,L27,New Lots Av,-73.899232,40.658733,3808.7284770811148
12:04:00,1,L28,East 105 St,-73.899485,40.650573,3905.454892175454
13:43:30,1,L29,Canarsie-Rockaway Pkwy,-73.90185,40.646654,4030.519081364643
12:07:30,2,M01,Middle Village-Metropolitan Av,-73.889601,40.711396,3853.6250630745126
12:07:30,2,M04,Fresh Pond Rd,-73.895877,40.706186,3736.3420442065876
12:07:30,2,M05,Forest Av,-73.903077,40.704423,3643.755710471427
12:07:30,2,M06,Seneca Av,-73.90774,40.702762,3549.391472060831
13:59:30,1,M08,Myrtle-Wyckoff Avs,-73.912385,40.69943,3453.1735015136483
12:23:30,2,M09,Knickerbocker Av,-73.919711,40.698664,3548.372331923005
13:59:30,1,M10,Central Av,-73.927397,40.697857,3659.3605672171225
12:07:30,1,M11,Myrtle Av,-73.935657,40.697207,3568.5518576906416
12:07:30,1,M12,Flushing Av,-73.941126,40.70026,3607.131402229762
12:07:30,1,M13,Lorimer St,-73.947408,40.703869,3504.4491592391078
12:07:30,1,M14,Hewes St,-73.953431,40.70687,3413.356566646515
12:07:30,1,M16,Marcy Av,-73.957757,40.708359,3320.3851910239746
12:07:30,1,M18,Delancey St-Essex St,-73.987437,40.718315,2938.801857690641
12:04:00,1,M19,Bowery,-73.993915,40.72028,2861.7185243573076
12:04:00,1,M20,Canal St,-73.999892,40.718092,2759.2185243573076
12:20:00,1,M21,Chambers St,-74.003401,40.713243,2663.635191023974
12:04:00,1,M22,Fulton St,-74.007582,40.710374,2765.706652230433
12:04:00,1,M23,Broad St,-74.011056,40.706476,2832.4013890725387
12:07:30,1,N02,8 Av,-74.011719,40.635064,4226.440204933072
12:07:30,1,N03,Fort Hamilton Pkwy,-74.005351,40.631386,4320.8681346599
12:07:30,1,N04,New Utrecht Av,-73.996353,40.624842,4460.8681346599
12:07:30,1,N05,18 Av,-73.990414,40.620671,4550.8681346599
12:07:30,1,N06,20 Av,-73.985026,40.61741,4620.8681346599
12:07:30,1,N07,Bay Pkwy,-73.981848,40.611815,4710.8681346599
12:07:30,1,N08,Kings Hwy,-73.980353,40.603923,4830.8681346599
12:07:30,1,N09,Avenue U,-73.979137,40.597473,4930.8681346599005
12:07:30,1,N10,86 St,-73.97823,40.592721,4990.8681346599005
12:15:30,1,Q01,Canal St,-74.00046,40.718383,2743.733505925382
12:15:30,1,Q03,72 St,-73.958424,40.768799,2261.8006687886423
12:15:30,1,Q04,86 St,-73.951787,40.777891,2393.769740953591
12:15:30,1,Q05,96 St,-73.947152,40.784318,2474.800668788642
12:15:30,1,R01,Astoria-Ditmars Blvd,-73.912034,40.775036,2938.4756080469774
12:15:30,1,R03,Astoria Blvd,-73.917843,40.770258,2837.297390225195
12:15:30,1,R04,30 Av,-73.921479,40.766779,2737.444056891862
12:15:30,1,R05,Broadway,-73.925508,40.76182,2640.9115893593944
12:15:30,1,R06,36 Av,-73.929575,40.756804,2546.0694840962365
12:15:30,1,R08,39 Av-Dutch Kills,-73.932755,40.752882,2440.7494840962368
12:15:30,1,R09,Queensboro Plaza,-73.940202,40.750582,2260.9365324553464
12:04:00,1,R11,Lexington Av/59 St,-73.967258,40.76266,2011.3152306801983
12:04:00,1,R13,5 Av/59 St,-73.973347,40.764811,2099.767609832007
12:04:00,1,R14,57 St-7 Av,-73.980658,40.764664,2225.0631965647854
12:04:00,1,R15,49 St,-73.984139,40.759901,2338.3806568822456
12:04:00,1,R16,Times Sq-42 St,-73.986754,40.754672,2448.501731380129
12:04:00,1,R17,34 St-Herald Sq,-73.98795,40.749567,2542.5534953915126
12:04:00,1,R18,28 St,-73.988691,40.745494,2584.709681162886
12:04:00,1,R19,23 St,-73.989344,40.741303,2503.526582571337
12:20:00,1,R20,14 St-Union Sq,-73.990568,40.735736,2403.733093121876
12:12:00,1,R21,8 St-NYU,-73.992629,40.730328,2504.717468121876
12:12:00,1,R22,Prince St,-73.997702,40.724329,2590.404968121876
12:12:00,1,R23,Canal St,-74.001775,40.719527,2690.2034177342794
12:20:00,1,R24,City Hall,-74.006978,40.713282,2835.695725426587
12:20:00,1,R25,Cortlandt St,-74.011029,40.710668,2950.1384735181905
12:20:00,1,R26,Rector St,-74.013342,40.70722,3050.2300765716254
12:20:00,1,R27,Whitehall St-South Ferry,-74.012994,40.703087,3134.313409904959
12:39:30,1,R28,Court St,-73.991777,40.6941,3209.653224842793
12:39:30,1,R29,Jay St-MetroTech,-73.985942,40.69218,3213.828482850959
12:31:30,1,R30,DeKalb Av,-73.981824,40.690635,3241.283568743282
12:07:30,1,R31,Atlantic Av-Barclays Ctr,-73.97881,40.683666,3382.0396638707834
12:07:30,1,R32,Union St,-73.98311,40.677316,3500.8601210908587
12:07:30,1,R33,4 Av-9 St,-73.988302,40.670847,3605.907740138478
12:07:30,1,R34,Prospect Av,-73.992872,40.665414,3712.757740138478
12:07:30,1,R35,25 St,-73.998091,40.660397,3836.288518469578
12:07:30,1,R36,36 St,-74.003549,40.655144,3767.107845688966
12:07:30,1,R39,45 St,-74.010006,40.648939,3952.5170538639677
12:07:30,1,R40,53 St,-74.014034,40.645069,4041.7415436598862
12:07:30,1,R41,59 St,-74.017881,40.641362,4059.1643428641064
12:07:30,1,R42,Bay Ridge Av,-74.023377,40.634967,4219.974344160304
12:07:30,1,R43,77 St,-74.02551,40.629742,4300.247071433032
12:07:30,1,R44,86 St,-74.028398,40.622687,4476.598261909223
12:07:30,1,R45,Bay Ridge-95 St,-74.030876,40.616622,4553.6140099407185
12:15:30,1,S01,Franklin Av,-73.955827,40.680596,3713.832542101778
12:15:30,1,S03,Park Pl,-73.957624,40.674772,3836.707542101778
12:31:30,1,S04,Botanic Garden,-73.959245,40.670343,3710.811040992101
