start_time,ntransfers,stop_id,stop_name,stop_lon,stop_lat,duration
12:03:00,2,101,Van Cortlandt Park-242 St,-73.898583,40.889248,3149.4188272965307
12:03:00,2,103,238 St,-73.90087,40.884667,3023.6080164857203
12:03:00,2,104,231 St,-73.904834,40.878856,2919.9757294902047
12:03:00,2,106,Marble Hill-225 St,-73.909831,40.874561,2822.493747508223
12:03:00,2,107,215 St,-73.915279,40.869444,2733.70095471543
12:03:00,2,108,207 St,-73.918822,40.864621,2643.9780109924864
12:03:00,2,109,Dyckman St,-73.925536,40.860531,2543.66523566209
12:03:00,2,110,191 St,-73.929412,40.855225,2459.8204080758833
12:03:00,2,111,181 St,-73.933596,40.849505,2368.7903651574284
12:03:00,2,112,168 St-Washington Hts,-73.940133,40.840556,2249.588648419231
12:03:00,2,113,157 St,-73.94489,40.834041,2150.2696829019897
12:03:00,2,114,145 St,-73.95036,40.826551,2033.0164640178696
12:03:00,2,115,137 St-City College,-73.953676,40.822008,1932.1403956418012
12:03:00,2,116,125 St,-73.958372,40.815581,1836.8153956418012
12:03:00,2,117,116 St-Columbia University,-73.96411,40.807722,1722.5862289751346
12:03:00,2,118,Cathedral Pkwy (110 St),-73.966847,40.803967,1643.6316835205891
12:03:00,2,119,103 St,-73.968379,40.799446,1564.1029949959989
12:03:00,2,120,96 St,-73.972323,40.793919,1293.9405829052862
12:07:00,2,121,86 St,-73.976218,40.788644,1353.7013556517365
12:07:00,2,122,79 St,-73.979917,40.783934,1276.8273719118993
12:03:00,2,123,72 St,-73.98197,40.778453,1114.4061001466657
12:23:00,2,124,66 St-Lincoln Center,-73.982209,40.77344,1191.527180313627
12:23:00,2,125,59 St-Columbus Circle,-73.981929,40.768247,1114.1788657068853
12:23:00,2,126,50 St,-73.983849,40.761728,1010.5096927745545
12:03:00,2,127,Times Sq-42 St,-73.987495,40.75529,878.3188118072925
12:23:00,2,128,34 St-Penn Station,-73.991057,40.750373,975.2455133779731
12:23:00,2,129,28 St,-73.993365,40.747215,1059.8580514914308
12:23:00,2,130,23 St,-73.995657,40.744081,1129.432348680186
12:23:00,2,131,18 St,-73.997871,40.74104,1194.8865319471183
12:23:00,2,132,14 St,-74.000201,40.737826,1138.1139733400244
12:23:00,2,133,Christopher St-Sheridan Sq,-74.002906,40.733422,1354.914309724896
12:03:00,2,134,Houston St,-74.005367,40.728251,1440.7952621058485
12:03:00,2,135,Canal St,-74.006277,40.722854,1536.0354195861632
12:03:00,2,136,Franklin St,-74.006886,40.719318,1599.8259334201555
12:23:00,2,137,Chambers St,-74.009266,40.715478,1398.4548824309334
12:03:00,1,138,WTC Cortlandt,-74.012188,40.711835,1687.1259851333098
12:03:00,1,139,Rector St,-74.013783,40.707513,1763.6361065907995
12:03:00,1,142,South Ferry,-74.013664,40.702068,1866.7270156817087
12:22:00,0,201,Wakefield-241 St,-73.85062,40.903125,3108.1790267933584
12:22:00,0,204,Nereid Av,-73.854376,40.898379,2811.163213431394
12:22:00,0,205,233 St,-73.857473,40.893193,2721.163213431394
12:22:00,0,206,225 St,-73.860341,40.888022,2631.163213431394
12:22:00,0,207,219 St,-73.862633,40.883895,2541.163213431394
12:22:00,0,208,Gun Hill Rd,-73.866256,40.87785,2436.163213431394
12:22:00,0,209,Burke Av,-73.867164,40.871356,2444.177089941217
12:22:00,0,210,Allerton Av,-73.867352,40.865462,2352.0466551586087
12:22:00,0,211,Pelham Pkwy,-73.867615,40.857192,2247.6988290716517
12:22:00,0,212,Bronx Park East,-73.868457,40.848828,2122.163213431394
12:22:00,0,213,E 180 St,-73.873488,40.841894,1912.5683942890432
12:22:00,0,214,West Farms Sq-E Tremont Av,-73.880049,40.840295,1842.529346510775
12:22:00,0,215,174 St,-73.887734,40.837288,1712.4431396142231
12:22:00,0,216,Freeman St,-73.891865,40.829993,1592.6055327766164
12:22:00,0,217,Simpson St,-73.893064,40.824073,1482.224176844413
12:06:00,0,218,Intervale Av,-73.896736,40.822181,1409.3004480308537
12:06:00,0,219,Prospect Av,-73.90177,40.819585,1323.4190920986503
12:22:00,0,220,Jackson Av,-73.907807,40.81649,1231.3602685692385
12:06:00,0,221,3 Av-149 St,-73.917757,40.816109,1109.651935235905
12:06:00,0,222,149 St-Grand Concourse,-73.926718,40.81841,994.5922337433677
12:06:00,0,224,135 St,-73.94077,40.814229,1371.7338022808556
12:06:00,0,225,125 St,-73.945495,40.807754,1476.4168157784034
12:06:00,0,226,116 St,-73.949625,40.802098,1574.8743629482146
12:03:00,2,227,Central Park North (110 St),-73.951822,40.799075,1557.021042675401
12:03:00,2,228,Park Place,-74.008811,40.713051,1485.5748824309335
12:07:00,1,229,Fulton St,-74.006571,40.709416,1515.0771231880979
12:03:00,1,230,Wall St,-74.0091,40.706821,1588.1870708320769
12:03:00,1,231,Clark St,-73.993086,40.697466,1771.8959480279752
12:03:00,1,232,Borough Hall,-73.989998,40.693219,1884.1922443242715
12:03:00,1,233,Hoyt St,-73.985065,40.690545,1874.358643041507
12:03:00,0,234,Nevins St,-73.980492,40.688246,1734.9434829173888
12:03:00,0,235,Atlantic Av-Barclays Ctr,-73.977666,40.684359,1830.598028371934
12:07:00,0,236,Bergen St,-73.975098,40.680829,1934.9617303168955
12:07:00,0,237,Grand Army Plaza,-73.971046,40.675235,2046.5894675431728
12:07:00,0,238,Eastern Pkwy-Brooklyn Museum,-73.964375,40.671987,2151.8595405358733
12:03:00,0,239,Franklin Av-Medgar Evers College,-73.958131,40.670682,2110.1205508944568
12:07:00,0,241,President St-Medgar Evers College,-73.950683,40.667883,2281.4282432021487
12:07:00,0,242,Sterling St,-73.95085,40.662742,2371.8993970483025
12:07:00,0,243,Winthrop St,-73.9502,40.656652,2457.0517780006835
12:07:00,0,244,Church Av,-73.949575,40.650843,2538.9040507279565
12:07:00,0,245,Beverly Rd,-73.948959,40.645098,2620.338012992107
12:07:00,0,246,Newkirk Av-Little Haiti,-73.948411,40.639967,2706.338012992107
12:07:00,0,247,Flatbush Av-Brooklyn College,-73.947642,40.632836,2823.6748550973703
12:07:00,0,248,Nostrand Av,-73.950466,40.669847,2269.6205508944568
12:07:00,0,249,Kingston Av,-73.942161,40.669399,2365.6205508944568
12:03:00,0,250,Crown Hts-Utica Av,-73.932942,40.668897,2365.9955508944568
12:07:00,0,251,Sutter Av-Rutland Rd,-73.92261,40.664717,2491.2455508944568
12:07:00,0,252,Saratoga Av,-73.916327,40.661453,2603.2455508944568
12:07:00,0,253,Rockaway Av,-73.908946,40.662549,2690.9955508944568
12:07:00,0,254,Junius St,-73.902447,40.663515,2677.832729808206
12:07:00,0,255,Pennsylvania Av,-73.894895,40.664635,2775.0484160827154
12:07:00,0,256,Van Siclen Av,-73.889395,40.665449,2849.558220004284
12:07:00,0,257,New Lots Av,-73.884079,40.666235,2920.332729808206
12:06:00,0,301,Harlem-148 St,-73.93647,40.82388,1799.6230128071716
12:06:00,0,302,145 St,-73.936245,40.820421,1685.2388022808557
12:02:00,0,401,Woodlawn,-73.878751,40.886037,2163.390154341382
12:02:00,0,402,Mosholu Pkwy,-73.884655,40.87975,2041.8174671167126
12:02:00,0,405,Bedford Park Blvd-Lehman College,-73.890064,40.873412,1904.1752257374021
12:02:00,0,406,Kingsbridge Rd,-73.897174,40.86776,1792.6859553511363
12:02:00,0,407,Fordham Rd,-73.901034,40.862803,1708.173660269169
12:02:00,0,408,183 St,-73.903879,40.858407,1628.3654970038629
12:02:00,0,409,Burnside Av,-73.907684,40.853453,1532.9671567549003
12:02:00,0,410,176 St,-73.911794,40.84848,1444.481679576477
12:02:00,0,411,Mt Eden Av,-73.914685,40.844434,1366.7709357748242
12:02:00,0,412,170 St,-73.917791,40.840075,1287.2296134607745
12:02:00,0,413,167 St,-73.9214,40.835537,1199.3208997678285
12:02:00,0,414,161 St-Yankee Stadium,-73.925831,40.827994,1091.3250838682468
12:02:00,0,415,149 St-Grand Concourse,-73.927351,40.818375,882.8062554163639
12:06:00,0,416,138 St-Grand Concourse,-73.929849,40.813224,759.1359851460937
12:03:00,0,418,Fulton St,-74.009509,40.710368,1172.1460898152188
12:03:00,0,419,Wall St,-74.011862,40.707557,1251.5349787041077
12:03:00,0,420,Bowling Green,-74.014065,40.704817,1326.6246338765216
12:03:00,0,423,Borough Hall,-73.990151,40.692404,1594.6980283719342
13:58:00,0,501,Eastchester-Dyre Av,-73.830834,40.8883,2688.1684346180455
12:22:00,0,502,Baychester Av,-73.838591,40.878663,2538.9410700856183
12:22:00,0,503,Gun Hill Rd,-73.846384,40.869526,2388.9410700856183
12:22:00,0,504,Pelham Pkwy,-73.855359,40.858985,2238.9410700856183
12:22:00,0,505,Morris Park,-73.860495,40.854364,2148.9410700856183
13:54:00,0,601,Pelham Bay Park,-73.828121,40.852462,2145.2742031018633
13:54:00,0,602,Buhre Av,-73.832569,40.84681,1961.8472527472532
13:54:00,0,603,Middletown Rd,-73.836322,40.843863,1853.01391941392
13:54:00,0,604,Westchester Sq-E Tremont Av,-73.842952,40.839892,1708.26391941392
13:54:00,0,606,Zerega Av,-73.847036,40.836488,1610.1805860805864
13:54:00,0,607,Castle Hill Av,-73.851222,40.834255,1542.8472527472532
12:50:00,0,608,Parkchester,-73.860816,40.833226,1386.847252747253
12:50:00,0,609,St Lawrence Av,-73.867618,40.831509,1624.7846192313716
12:50:00,0,610,Morrison Av-Soundview,-73.874516,40.829521,1539.7168901477064
12:50:00,0,611,Elder Av,-73.879159,40.828584,1474.5528901477064
12:50:00,0,612,Whitlock Av,-73.886283,40.826525,1368.2128901477065
12:50:00,0,613,Hunts Point Av,-73.890549,40.820948,1130.4626373626375
12:02:00,0,614,Longwood Av,-73.896435,40.816104,1212.820676660309
12:02:00,0,615,E 149 St,-73.904098,40.812118,1111.7123433269755
12:02:00,0,616,E 143 St-St Mary's St,-73.907657,40.808719,1036.8700196755233
12:02:00,0,617,Cypress Av,-73.914042,40.805368,937.949517583473
12:02:00,0,618,Brook Av,-73.91924,40.807566,868.3906940540612
12:02:00,0,619,3 Av-138 St,-73.926138,40.810476,751.3857142857144
12:06:00,0,621,125 St,-73.937594,40.804138,539.9385537013264
12:02:00,0,622,116 St,-73.941617,40.798629,437.9385537013265
12:02:00,0,623,110 St,-73.94425,40.79502,357.987676508344
12:02:00,0,624,103 St,-73.947478,40.7906,281.6157466837826
12:02:00,0,625,96 St,-73.95107,40.785672,195.14557124518612
12:02:00,0,626,86 St,-73.955589,40.779492,96.51867219917013
12:02:00,0,627,77 St,-73.959874,40.77362,0.0
12:03:00,0,628,68 St-Hunter College,-73.96387,40.768141,88.26136363636364
12:03:00,0,629,59 St,-73.967967,40.762526,177.69747899159665
12:03:00,0,630,51 St,-73.97192,40.757107,272.8156224515123
12:03:00,0,631,Grand Central-42 St,-73.976848,40.751776,390.18650433506355
12:03:00,0,632,33 St,-73.982076,40.746081,498.21743217011516
12:03:00,0,633,28 St,-73.984264,40.74307,565.073102273208
12:03:00,0,634,23 St,-73.986599,40.739864,628.3256620001705
12:03:00,0,635,14 St-Union Sq,-73.989951,40.734673,766.9373458489678
12:03:00,0,636,Astor Pl,-73.99107,40.730054,842.6280674984523
12:03:00,0,637,Bleecker St,-73.994659,40.725915,933.3447910479404
12:03:00,0,638,Spring St,-73.997141,40.722301,1002.4944509118859
12:03:00,0,639,Canal St,-74.000193,40.718803,1076.271477938913
12:03:00,0,640,Brooklyn Bridge-City Hall,-74.004131,40.713065,1062.94470092633
13:19:00,2,701,Flushing-Main St,-73.83003,40.7596,1842.3205633054845
13:19:00,2,702,Mets-Willets Point,-73.845625,40.754622,1633.5666457964883
13:19:00,2,705,111 St,-73.855334,40.75173,1650.3831304650173
13:19:00,2,706,103 St-Corona Plaza,-73.8627,40.749865,1556.7571219869644
13:19:00,2,707,Junction Blvd,-73.869527,40.749145,1386.4237886536312
13:19:00,2,708,90 St-Elmhurst Av,-73.876613,40.748408,1476.7557719427375
13:19:00,2,709,82 St-Jackson Hts,-73.883697,40.747659,1397.3754902525966
12:07:00,2,710,74 St-Broadway,-73.891394,40.746848,1255.1271909328686
12:07:00,2,711,69 St,-73.896403,40.746325,1207.7154262269864
12:11:00,2,712,61 St-Woodside,-73.902984,40.74563,1135.806975522761
12:11:00,2,713,52 St,-73.912549,40.744149,1018.5506640997098
12:11:00,2,714,46 St-Bliss St,-73.918435,40.743132,964.8570707849466
12:11:00,2,715,40 St-Lowery St,-73.924016,40.743781,913.486597247342
12:11:00,2,716,33 St-Rawson St,-73.930997,40.744587,845.206342470272
12:07:00,1,718,Queensboro Plaza,-73.940202,40.750582,702.7314821350765
12:19:00,2,719,Court Sq,-73.945264,40.747023,796.4237886536313
12:07:00,1,720,Hunters Point Av,-73.948916,40.742216,846.1865043350635
12:07:00,1,721,Vernon Blvd-Jackson Av,-73.953581,40.742626,818.1865043350635
12:03:00,1,723,Grand Central-42 St,-73.976041,40.751431,615.1865043350635
12:03:00,1,724,5 Av,-73.981963,40.753821,707.893589165618
12:03:00,1,725,Times Sq-42 St,-73.987691,40.755477,792.1935891656179
12:03:00,1,726,34 St-Hudson Yards,-74.00191,40.755882,967.9195106588004
12:03:00,1,901,Grand Central-42 St,-73.979189,40.752769,570.1865043350635
12:03:00,1,902,Times Sq-42 St,-73.986229,40.755983,664.6265043350635
13:47:00,1,A02,Inwood-207 St,-73.919899,40.868072,2621.0629671841884
13:47:00,1,A03,Dyckman St,-73.927271,40.865491,2530.989974483459
13:47:00,1,A05,190 St,-73.93418,40.859022,2407.397583179111
13:47:00,1,A06,181 St,-73.937969,40.851695,2294.1622890614635
13:47:00,1,A07,175 St,-73.939704,40.847391,2197.441858953937
12:03:00,1,A09,168 St,-73.939561,40.840719,2070.00335628014
13:47:00,1,A10,163 St-Amsterdam Av,-73.939892,40.836013,1983.4512341167895
13:47:00,1,A11,155 St,-73.941514,40.830518,1901.6179007834562
12:03:00,1,A12,145 St,-73.944216,40.824783,1749.3526348501377
12:10:00,1,A14,135 St,-73.947649,40.817894,1659.4311628753492
12:03:00,1,A15,125 St,-73.952343,40.811109,1522.3771226157742
12:55:00,1,A16,116 St,-73.954882,40.805085,1646.212704846476
12:03:00,1,A17,Cathedral Pkwy (110 St),-73.958161,40.800603,1638.7711122398812
12:03:00,1,A18,103 St,-73.961454,40.796092,1551.0048784736475
12:03:00,1,A19,96 St,-73.964696,40.791642,1466.2516317204008
12:03:00,1,A20,86 St,-73.968916,40.785868,1364.3700527730325
12:03:00,1,A21,81 St-Museum of Natural History,-73.972143,40.781433,1268.3433861063656
12:03:00,1,A22,72 St,-73.97641,40.775594,1179.4633861063658
12:03:00,1,A24,59 St-Columbus Circle,-73.981736,40.768296,1039.8186492642606
12:03:00,1,A25,50 St,-73.985984,40.762456,798.169214904632
13:39:00,1,A27,42 St-Port Authority Bus Terminal,-73.989735,40.757308,898.2490271112048
12:23:00,2,A28,34 St-Penn Station,-73.993391,40.752287,1010.1363510548666
12:55:00,1,A30,23 St,-73.998041,40.745906,1121.1378693233075
12:55:00,1,A31,14 St,-74.00169,40.740893,1163.1664106977817
12:03:00,2,A32,W 4 St-Wash Sq,-74.000495,40.732338,1287.5685846108252
12:03:00,2,A33,Spring St,-74.003739,40.726227,1439.6026399834063
13:27:00,1,A34,Canal St,-74.005229,40.720824,1465.9924976543034
13:27:00,1,A36,Chambers St,-74.008585,40.714111,1492.5166836276583
12:11:00,1,A38,Fulton St,-74.007691,40.710197,1395.0771231880979
13:15:00,1,A40,High St,-73.990531,40.699337,1578.651036231576
13:15:00,1,A41,Jay St-MetroTech,-73.987342,40.692338,1677.99715823829
13:15:00,1,A42,Hoyt-Schermerhorn Sts,-73.985001,40.688484,1819.1040944482304
13:55:00,1,A43,Lafayette Av,-73.973946,40.686113,1974.332303345622
13:55:00,1,A44,Clinton-Washington Avs,-73.965838,40.683263,2058.6251028515917
13:55:00,1,A45,Franklin Av,-73.956848,40.68138,2158.1420520041343
13:15:00,1,A46,Nostrand Av,-73.950426,40.680438,2145.3728441575536
13:55:00,1,A47,Kingston-Throop Avs,-73.940858,40.679921,2245.72701082422
13:15:00,1,A48,Utica Av,-73.930729,40.679364,2316.1930688766547
13:55:00,1,A49,Ralph Av,-73.920786,40.678822,2426.9104601810027
12:35:00,1,A50,Rockaway Av,-73.911946,40.67834,2434.091031219609
13:15:00,1,A51,Broadway Junction,-73.905316,40.678334,2349.992670563871
13:27:00,1,A52,Liberty Av,-73.896548,40.674542,2483.952020157367
13:27:00,1,A53,Van Siclen Av,-73.890358,40.67271,2579.1308819459846
13:27:00,1,A54,Shepherd Av,-73.88075,40.67413,2683.204052677692
13:15:00,1,A55,Euclid Av,-73.872106,40.675377,2650.3042984708477
13:15:00,1,A57,Grant Av,-73.86505,40.677044,2772.486871084956
13:15:00,1,A59,80 St,-73.858992,40.679371,2869.838871084956
13:15:00,1,A60,88 St,-73.85147,40.679843,2965.7990304475056
13:15:00,1,A61,Rockaway Blvd,-73.843853,40.680429,3056.144268542744
13:51:00,1,A63,104 St,-73.837683,40.681711,3139.816268542744
13:51:00,1,A64,111 St,-73.832163,40.684331,3225.9474160837276
13:51:00,1,A65,Ozone Park-Lefferts Blvd,-73.825798,40.685951,3315.010707222968
12:03:00,1,B04,21 St-Queensbridge,-73.942836,40.754203,742.7880112033139
12:03:00,1,B06,Roosevelt Island,-73.95326,40.759145,596.1673215481414
12:27:00,1,B08,Lexington Av/63 St,-73.966113,40.764629,526.1101786909985
12:07:00,1,B10,57 St,-73.97745,40.763972,676.1101786909985
12:19:00,1,B12,9 Av,-73.994324,40.646292,2522.111106619548
12:19:00,1,B13,Fort Hamilton Pkwy,-73.994304,40.640914,2662.0154323006172
12:19:00,1,B14,50 St,-73.994791,40.63626,2741.0409100076236
12:19:00,1,B15,55 St,-73.995476,40.631435,2837.939195247487
12:19:00,1,B16,62 St,-73.996895,40.626472,2906.770899763091
12:19:00,1,B17,71 St,-73.998864,40.619589,3009.261345622964
12:19:00,1,B18,79 St,-74.00061,40.613501,3115.821855177104
12:19:00,1,B19,18 Av,-74.001736,40.607954,3197.4154035642014
12:19:00,1,B20,20 Av,-73.998168,40.604556,3279.4089100577075
12:19:00,1,B21,Bay Pkwy,-73.993728,40.601875,3356.954364603162
13:39:00,1,B22,25 Av,-73.986829,40.597704,3476.064042022517
13:39:00,1,B23,Bay 50 St,-73.983765,40.588841,3639.4101071075947
12:18:00,1,D01,Norwood-205 St,-73.878855,40.874811,2306.9375315321086
12:18:00,1,D03,Bedford Park Blvd,-73.887138,40.873244,2135.451045045622
12:18:00,1,D04,Kingsbridge Rd,-73.893509,40.866978,2018.294795045622
12:18:00,1,D05,Fordham Rd,-73.897749,40.861296,1923.7633265141535
12:18:00,1,D06,182-183 Sts,-73.900741,40.856093,1836.82941971299
12:18:00,1,D07,Tremont Av,-73.905227,40.85041,1758.7143754652025
12:18:00,1,D08,174-175 Sts,-73.910136,40.8459,1664.4212720169267
12:18:00,1,D09,170 St,-73.9134,40.839306,1555.7887969650967
12:18:00,1,D10,167 St,-73.91844,40.833771,1448.3645545408542
13:46:00,1,D11,161 St-Yankee Stadium,-73.925651,40.827905,1316.3250838682468
12:10:00,1,D12,155 St,-73.938209,40.830135,1441.0534789299754
12:10:00,1,D13,145 St,-73.944216,40.824783,1552.2695283126914
12:03:00,1,D14,7 Av,-73.981637,40.762862,704.1786488668962
12:07:00,1,D15,47-50 Sts-Rockefeller Ctr,-73.981329,40.758663,759.0060980175589
12:07:00,1,D16,42 St-Bryant Pk,-73.984569,40.754222,846.5835628062913
12:07:00,1,D17,34 St-Herald Sq,-73.987823,40.749719,927.0974516951802
12:07:00,1,D18,23 St,-73.992821,40.742878,1036.462316560045
12:07:00,1,D19,14 St,-73.996209,40.738228,1112.516370614099
13:51:00,1,D20,W 4 St-Wash Sq,-74.000495,40.732338,1191.6804336955222
13:51:00,1,D21,Broadway-Lafayette St,-73.996204,40.725297,1145.5733634165624
13:47:00,1,D22,Grand St,-73.993753,40.718267,1273.9851281224446
12:19:00,1,D24,Atlantic Av-Barclays Ctr,-73.97689,40.68446,1882.6402549723389
12:19:00,1,D25,7 Av,-73.972367,40.67705,2015.0038913359751
12:19:00,1,D26,Prospect Park,-73.962246,40.661614,2194.753891335975
12:19:00,1,D27,Parkside Av,-73.961495,40.655292,2284.414142089646
12:19:00,1,D28,Church Av,-73.962982,40.650527,2326.2707452685595
12:19:00,1,D29,Beverley Rd,-73.964492,40.644031,2433.142472878194
12:19:00,1,D30,Cortelyou Rd,-73.963891,40.640927,2511.338003604451
12:19:00,1,D31,Newkirk Plaza,-73.962793,40.635082,2505.826300824115
12:19:00,1,D32,Avenue H,-73.961639,40.62927,2622.649407301094
12:19:00,1,D33,Avenue J,-73.960803,40.625039,2709.970049234658
12:19:00,1,D34,Avenue M,-73.959399,40.617618,2814.087997952606
12:19:00,1,D35,Kings Hwy,-73.957734,40.60867,2753.9818563796703
12:19:00,1,D37,Avenue U,-73.955929,40.5993,2967.4512441347724
12:19:00,1,D38,Neck Rd,-73.955161,40.595246,3066.9873266089994
12:19:00,1,D39,Sheepshead Bay,-73.954155,40.586896,2990.3485230463375
12:19:00,1,D40,Brighton Beach,-73.961376,40.577621,3126.890189713004
12:19:00,1,D41,Ocean Pkwy,-73.968501,40.576312,3259.901182371548
12:19:00,1,D42,W 8 St-NY Aquarium,-73.975939,40.576127,3374.352795274774
12:19:00,1,D43,Coney Island-Stillwell Av,-73.981233,40.577422,3454.3083508303293
12:59:00,1,E01,World Trade Center,-74.009781,40.712582,1653.1365166871715
12:07:00,1,F01,Jamaica-179 St,-73.783817,40.712646,2247.583227477241
12:07:00,1,F02,169 St,-73.793604,40.71047,2169.9545183136397
12:07:00,1,F03,Parsons Blvd,-73.803326,40.707564,2079.9545183136397
12:07:00,1,F04,Sutphin Blvd,-73.810708,40.70546,2056.1101786909985
12:07:00,1,F05,Briarwood,-73.820574,40.709179,1936.1101786909985
12:07:00,1,F06,Kew Gardens-Union Tpke,-73.831008,40.714441,1816.1101786909985
12:03:00,1,F07,75 Av,-73.837324,40.718331,1681.0942214869533
12:35:00,1,F09,Court Sq-23 St,-73.946,40.747846,699.2009032123641
13:03:00,1,F11,Lexington Av/53 St,-73.969055,40.757552,507.7506107733613
12:03:00,1,F12,5 Av/53 St,-73.975224,40.760167,600.4345730375123
12:55:00,1,F14,2 Av,-73.989938,40.723402,1243.0019348451337
12:55:00,1,F15,Delancey St-Essex St,-73.988114,40.718611,1339.8437715798275
12:55:00,1,F16,East Broadway,-73.990173,40.713715,1428.0163604123147
13:35:00,1,F18,York St,-73.986751,40.701397,1579.2143299554618
13:15:00,1,F20,Bergen St,-73.990862,40.686145,1810.83715823829
13:15:00,1,F21,Carroll St,-73.995048,40.680303,1962.30715823829
13:15:00,1,F22,Smith-9 Sts,-73.995959,40.67358,2089.02715823829
13:15:00,1,F23,4 Av-9 St,-73.989779,40.670272,2182.5019057130376
13:15:00,1,F24,7 Av,-73.980305,40.666271,2185.8447910479404
13:15:00,1,F25,15 St-Prospect Park,-73.979493,40.660365,2353.7543744522695
13:15:00,1,F26,Fort Hamilton Pkwy,-73.975776,40.650782,2515.4135923293647
13:15:00,1,F27,Church Av,-73.979678,40.644041,2425.8447910479404
13:51:00,1,F29,Ditmas Av,-73.978172,40.636119,2545.8447910479404
13:51:00,1,F30,18 Av,-73.976971,40.629755,2665.8447910479404
13:51:00,1,F31,Avenue I,-73.976127,40.625322,2725.8447910479404
13:51:00,1,F32,Bay Pkwy,-73.975264,40.620769,2785.8447910479404
13:51:00,1,F33,Avenue N,-73.974197,40.61514,2905.8447910479404
13:51:00,1,F34,Avenue P,-73.973022,40.608944,2995.8447910479404
13:51:00,1,F35,Kings Hwy,-73.972361,40.603217,3169.5069130357333
13:15:00,1,F36,Avenue U,-73.973357,40.596063,3278.107976865521
13:15:00,1,F38,Avenue X,-73.97425,40.58962,3371.3111854216704
12:19:00,1,F39,Neptune Av,-73.974574,40.581011,3485.78309553403
12:07:00,1,G05,Jamaica Center-Parsons/Archer,-73.801109,40.702147,2311.255548212822
12:07:00,1,G06,Sutphin Blvd-Archer Av-JFK Airport,-73.807969,40.700486,2219.9706320117043
12:07:00,1,G07,Jamaica-Van Wyck,-73.816859,40.702566,2100.6187801598526
12:07:00,1,G08,Forest Hills-71 Av,-73.844521,40.721691,1581.589548589757
12:35:00,1,G09,67 Av,-73.852719,40.726523,1716.9199833723656
12:11:00,1,G10,63 Dr-Rego Park,-73.861604,40.729846,1776.3988546923872
12:11:00,1,G11,Woodhaven Blvd,-73.869229,40.733106,1678.1727343513976
12:11:00,1,G12,Grand Av-Newtown,-73.877223,40.737015,1555.2977343513978
12:11:00,1,G13,Elmhurst Av,-73.882017,40.742454,1455.7634877760552
12:07:00,1,G14,Jackson Hts-Roosevelt Av,-73.891338,40.746644,1139.141325187814
12:07:00,1,G15,65 St,-73.898453,40.749669,1330.515242151448
12:07:00,1,G16,Northern Blvd,-73.906006,40.752885,1234.6002094717094
12:07:00,1,G18,46 St,-73.913333,40.756312,1144.454514107471
12:07:00,1,G19,Steinway St,-73.92074,40.756879,1038.52736178959
12:07:00,1,G20,36 St,-73.928781,40.752039,892.3406951229234
12:07:00,1,G21,Queens Plaza,-73.937243,40.748973,734.80736178959
12:11:00,2,G22,Court Sq,-73.943832,40.746554,891.8632408747017
12:11:00,2,G24,21 St,-73.949724,40.744065,981.1762179739384
12:11:00,2,G26,Greenpoint Av,-73.954449,40.731352,1122.5726676780805
12:11:00,2,G28,Nassau Av,-73.951277,40.724635,1229.4922079079656
12:11:00,2,G29,Metropolitan Av,-73.951418,40.712792,1368.1532248571182
12:11:00,2,G30,Broadway,-73.950308,40.706092,1453.9316339480272
12:11:00,2,G31,Flushing Av,-73.950234,40.700377,1546.3804975843907
12:11:00,2,G32,Myrtle-Willoughby Avs,-73.949046,40.694568,1632.5509521298454
12:11:00,2,G33,Bedford-Nostrand Avs,-73.953522,40.689627,1734.1759521298454
12:11:00,2,G34,Classon Av,-73.96007,40.688873,1811.170427267967
13:55:00,1,G35,Clinton-Washington Avs,-73.966839,40.688089,1892.2633234428304
13:55:00,1,G36,Fulton St,-73.975375,40.687119,1984.547476448295
12:35:00,1,H01,Aqueduct Racetrack,-73.834058,40.668234,3262.17601457449
13:15:00,1,H02,Aqueduct-N Conduit Av,-73.834058,40.668234,3335.245067514065
13:15:00,1,H03,Howard Beach-JFK Airport,-73.830301,40.660476,3433.364903463379
13:15:00,1,H04,Broad Channel,-73.815925,40.608382,3851.316516366605
13:15:00,1,H06,Beach 67 St,-73.796924,40.590927,4162.605990050815
13:15:00,1,H07,Beach 60 St,-73.788522,40.592374,4266.053358471868
13:15:00,1,H08,Beach 44 St,-73.776013,40.592943,4369.535814612219
13:15:00,1,H09,Beach 36 St,-73.768175,40.595398,4466.781428647307
13:15:00,1,H10,Beach 25 St,-73.761353,40.600066,4567.161959620757
13:15:00,1,H11,Far Rockaway-Mott Av,-73.755405,40.603995,4666.328626287424
12:35:00,1,H12,Beach 90 St,-73.813641,40.588034,4102.616516366605
12:35:00,1,H13,Beach 98 St,-73.820558,40.585307,4181.016516366605
12:35:00,1,H14,Beach 105 St,-73.827559,40.583209,4257.1276274777165
12:35:00,1,H15,Rockaway Park-Beach 116 St,-73.835592,40.580903,4361.327627477716
13:19:00,1,J12,121 St,-73.828294,40.700492,2618.4706320117043
13:19:00,1,J13,111 St,-73.836345,40.697418,2668.485786850267
13:19:00,1,J14,104 St,-73.84433,40.695178,2788.485786850267
13:19:00,1,J15,Woodhaven Blvd,-73.851576,40.693879,2878.485786850267
13:19:00,1,J16,85 St-Forest Pkwy,-73.86001,40.692435,3074.223812923773
13:19:00,1,J17,75 St-Elderts Ln,-73.867139,40.691324,2889.992670563871
13:19:00,1,J19,Cypress Hills,-73.87255,40.689941,2871.9738129237735
13:11:00,2,J20,Crescent St,-73.873785,40.683194,2739.992670563871
13:11:00,2,J21,Norwood Av,-73.880039,40.68141,2649.992670563871
13:11:00,2,J22,Cleveland St,-73.884639,40.679947,2655.1721909836906
13:11:00,2,J23,Van Siclen Av,-73.891688,40.678024,2499.992670563871
13:11:00,2,J24,Alabama Av,-73.898654,40.676992,2439.992670563871
13:07:00,1,J27,Broadway Junction,-73.904512,40.679498,2336.674283293897
13:51:00,2,J28,Chauncey St,-73.910456,40.682893,2379.1386512549157
13:07:00,1,J29,Halsey St,-73.916559,40.68637,2379.6603823133064
13:07:00,1,J30,Gates Av,-73.92227,40.68963,2233.221984588249
13:07:00,1,J31,Kosciuszko St,-73.928814,40.693342,2197.510681714504
12:19:00,1,L01,8 Av,-74.002578,40.739777,1154.1177058319288
12:19:00,1,L02,6 Av,-73.996786,40.737335,1057.196522276501
12:19:00,1,L03,14 St-Union Sq,-73.99073,40.734789,980.8983856305382
12:07:00,1,L05,3 Av,-73.986122,40.732849,1033.2837509006663
12:07:00,1,L06,1 Av,-73.981628,40.730953,1080.8057634792826
12:07:00,1,L08,Bedford Av,-73.956872,40.717304,1284.1988525703205
12:07:00,1,L10,Lorimer St,-73.950275,40.714063,1364.4406231513879
12:07:00,1,L11,Graham Av,-73.944053,40.714565,1399.2050675958326
12:07:00,1,L12,Grand St,-73.94067,40.711926,1478.9502905257687
12:07:00,1,L13,Montrose Av,-73.93985,40.707739,1514.972303104385
12:07:00,1,L14,Morgan Av,-73.933147,40.706152,1595.7852267629812
12:07:00,1,L15,Jefferson St,-73.922913,40.706607,1679.666883567715
12:07:00,1,L16,DeKalb Av,-73.918425,40.703811,1745.3686907966305
12:07:00,1,L17,Myrtle-Wyckoff Avs,-73.911586,40.699814,1816.3777542407393
12:07:00,1,L19,Halsey St,-73.904084,40.695602,1860.4417273047125
12:07:00,1,L20,Wilson Av,-73.904046,40.688764,1977.4201223664409
12:07:00,1,L21,Bushwick Av-Aberdeen St,-73.905249,40.682829,2061.7569279219965
12:07:00,1,L22,Broadway Junction,-73.90324,40.678856,2111.674283293897
12:07:00,1,L24,Atlantic Av,-73.903097,40.675345,2219.751443787725
12:07:00,1,L25,Sutter Av,-73.901975,40.669367,2290.1237514800323
12:07:00,1,L26,Livonia Av,-73.900571,40.664038,2347.832729808206
12:07:00,1,L27,New Lots Av,-73.899232,40.658733,2396.9327298082057
12:07:00,1,L28,East 105 St,-73.899485,40.650573,2493.6591449025454
12:07:00,1,L29,Canarsie-Rockaway Pkwy,-73.90185,40.646654,2618.7233340917346
12:31:00,2,M01,Middle Village-Metropolitan Av,-73.889601,40.711396,2441.8293158016027
12:31:00,2,M04,Fresh Pond Rd,-73.895877,40.706186,2324.546296933678
12:31:00,2,M05,Forest Av,-73.903077,40.704423,2231.959963198518
12:31:00,2,M06,Seneca Av,-73.90774,40.702762,2137.595724787922
13:11:00,1,M08,Myrtle-Wyckoff Avs,-73.912385,40.69943,2041.377754240739
12:47:00,2,M09,Knickerbocker Av,-73.919711,40.698664,2136.576584650096
13:11:00,1,M10,Central Av,-73.927397,40.697857,2230.214208076407
12:31:00,1,M11,Myrtle Av,-73.935657,40.697207,2066.055317921582
12:31:00,1,M12,Flushing Av,-73.941126,40.70026,1971.8785116501217
12:31:00,1,M13,Lorimer St,-73.947408,40.703869,1869.1962686594677
12:31:00,1,M14,Hewes St,-73.953431,40.70687,1778.103676066875
12:31:00,1,M16,Marcy Av,-73.957757,40.708359,1697.8886512549157
12:31:00,1,M18,Delancey St-Essex St,-73.987437,40.718315,1327.7421945853935
12:07:00,1,M19,Bowery,-73.993915,40.72028,1414.2592828169618
12:07:00,1,M20,Canal St,-73.999892,40.718092,1313.77147674682
12:03:00,1,M21,Chambers St,-74.003401,40.713243,1287.94470092633
12:07:00,1,M22,Fulton St,-74.007582,40.710374,1390.016162132789
12:07:00,1,M23,Broad St,-74.011056,40.706476,1456.7108989748945
12:19:00,1,N02,8 Av,-74.011719,40.635064,2763.826131703699
12:19:00,1,N03,Fort Hamilton Pkwy,-74.005351,40.631386,2870.360475566971
12:19:00,1,N04,New Utrecht Av,-73.996353,40.624842,3010.360475566971
12:19:00,1,N05,18 Av,-73.990414,40.620671,3100.360475566971
12:19:00,1,N06,20 Av,-73.985026,40.61741,3170.360475566971
12:19:00,1,N07,Bay Pkwy,-73.981848,40.611815,3260.360475566971
12:19:00,1,N08,Kings Hwy,-73.980353,40.603923,3380.360475566971
12:19:00,1,N09,Avenue U,-73.979137,40.597473,3480.360475566971
12:19:00,1,N10,86 St,-73.97823,40.592721,3540.360475566971
12:11:00,1,Q01,Canal St,-74.00046,40.718383,1247.8267808223666
12:19:00,1,Q03,72 St,-73.958424,40.768799,643.7768453576651
12:19:00,1,Q04,86 St,-73.951787,40.777891,778.079250855947
12:19:00,1,Q05,96 St,-73.947152,40.784318,853.1101786909985
12:19:00,1,R01,Astoria-Ditmars Blvd,-73.912034,40.775036,1304.2011675066044
12:19:00,1,R03,Astoria Blvd,-73.917843,40.770258,1203.0229496848222
12:19:00,1,R04,30 Av,-73.921479,40.766779,1103.169616351489
12:19:00,1,R05,Broadway,-73.925508,40.76182,1006.6371488190213
12:19:00,1,R06,36 Av,-73.929575,40.756804,911.7950435558633
12:19:00,1,R08,39 Av-Dutch Kills,-73.932755,40.752882,806.4750435558633
12:19:00,1,R09,Queensboro Plaza,-73.940202,40.750582,655.7314804661464
12:07:00,1,R11,Lexington Av/59 St,-73.967258,40.76266,406.1101786909985
12:07:00,1,R13,5 Av/59 St,-73.973347,40.764811,494.16802993066796
12:07:00,1,R14,57 St-7 Av,-73.980658,40.764664,619.3165278973478
12:07:00,1,R15,49 St,-73.984139,40.759901,732.6339882148081
12:07:00,1,R16,Times Sq-42 St,-73.986754,40.754672,838.4442456559285
12:07:00,1,R17,34 St-Herald Sq,-73.98795,40.749567,958.257573549661
12:27:00,1,R18,28 St,-73.988691,40.745494,1035.3561650989566
12:27:00,1,R19,23 St,-73.989344,40.741303,1091.7308352984285
12:23:00,1,R20,14 St-Union Sq,-73.990568,40.735736,990.3944891557
12:03:00,1,R21,8 St-NYU,-73.992629,40.730328,1092.9217208489677
12:03:00,1,R22,Prince St,-73.997702,40.724329,1178.6092208489679
12:03:00,1,R23,Canal St,-74.001775,40.719527,1278.407670461371
12:03:00,1,R24,City Hall,-74.006978,40.713282,1423.8999781536786
12:03:00,1,R25,Cortlandt St,-74.011029,40.710668,1538.3427262452817
12:03:00,1,R26,Rector St,-74.013342,40.70722,1638.4343292987169
12:03:00,1,R27,Whitehall St-South Ferry,-74.012994,40.703087,1722.5176626320501
12:19:00,1,R28,Court St,-73.991777,40.6941,1833.962734745149
12:19:00,1,R29,Jay St-MetroTech,-73.985942,40.69218,1812.99715823829
12:19:00,1,R30,DeKalb Av,-73.981824,40.690635,1689.4230699349437
12:19:00,1,R31,Atlantic Av-Barclays Ctr,-73.97881,40.683666,1844.9374539249375
12:11:00,1,R32,Union St,-73.98311,40.677316,2000.9217964284894
12:11:00,1,R33,4 Av-9 St,-73.988302,40.670847,2110.0533753758577
12:11:00,1,R34,Prospect Av,-73.992872,40.665414,2207.3354266579095
12:11:00,1,R35,25 St,-73.998091,40.660397,2317.244173818484
12:19:00,1,R36,36 St,-74.003549,40.655144,2229.799729374039
12:11:00,1,R39,45 St,-74.010006,40.648939,2469.90264424167
12:39:00,1,R40,53 St,-74.014034,40.645069,2560.7026124217127
12:19:00,1,R41,59 St,-74.017881,40.641362,2596.5502696347335
12:11:00,1,R42,Bay Ridge Av,-74.023377,40.634967,2757.360270930931
12:11:00,1,R43,77 St,-74.02551,40.629742,2837.632998203658
12:11:00,1,R44,86 St,-74.028398,40.622687,3013.9841886798486
12:51:00,1,R45,Bay Ridge-95 St,-74.030876,40.616622,3090.9999367113446
12:19:00,1,S01,Franklin Av,-73.955827,40.680596,2338.1420520041343
12:19:00,1,S03,Park Pl,-73.957624,40.674772,2461.0170520041343
12:19:00,1,S04,Botanic Garden,-73.959245,40.670343,2335.1205508944568
