start_time,ntransfers,stop_id,stop_name,stop_lon,stop_lat,duration
12:00:00,1,101,Van Cortlandt Park-242 St,-73.898583,40.889248,3185.689399893234
12:00:00,1,103,238 St,-73.90087,40.884667,3080.903109570653
12:00:00,1,104,231 St,-73.904834,40.878856,2988.3046539721977
12:00:00,1,106,Marble Hill-225 St,-73.909831,40.874561,2900.457377919043
12:00:00,1,107,215 St,-73.915279,40.869444,2810.8397093227513
12:00:00,1,108,207 St,-73.918822,40.864621,2721.941641403307
12:00:00,1,109,Dyckman St,-73.925536,40.860531,2621.6288660729106
12:00:00,1,110,191 St,-73.929412,40.855225,2537.7840384867036
12:00:00,1,111,181 St,-73.933596,40.849505,2446.7539955682487
12:00:00,1,112,168 St-Washington Hts,-73.940133,40.840556,2327.552278830052
12:00:00,1,113,157 St,-73.94489,40.834041,2350.5644664496235
12:00:00,1,114,145 St,-73.95036,40.826551,2233.3112475655034
12:00:00,1,115,137 St-City College,-73.953676,40.822008,2132.435179189435
12:00:00,1,116,125 St,-73.958372,40.815581,2037.110179189435
12:00:00,1,117,116 St-Columbia University,-73.96411,40.807722,1922.8810125227685
12:00:00,1,118,Cathedral Pkwy (110 St),-73.966847,40.803967,1843.9264670682232
12:00:00,1,119,103 St,-73.968379,40.799446,1764.397778543633
12:00:00,1,120,96 St,-73.972323,40.793919,1515.7222073861267
12:16:00,1,121,86 St,-73.976218,40.788644,1553.9961391993706
12:16:00,1,122,79 St,-73.979917,40.783934,1477.1221554595334
12:00:00,1,123,72 St,-73.98197,40.778453,1348.6711869779633
12:08:00,1,124,66 St-Lincoln Center,-73.982209,40.77344,1457.1747106401344
12:08:00,1,125,59 St-Columbus Circle,-73.981929,40.768247,1361.8535724287522
12:08:00,1,126,50 St,-73.983849,40.761728,1422.6685302598962
12:00:00,1,127,Times Sq-42 St,-73.987495,40.75529,1119.248238783915
12:00:00,1,128,34 St-Penn Station,-73.991057,40.750373,1019.8894601579607
12:00:00,1,129,28 St,-73.993365,40.747215,1281.5169377355335
12:00:00,1,130,23 St,-73.995657,40.744081,1212.3686487621494
12:00:00,1,131,18 St,-73.997871,40.74104,1144.1906184591192
12:00:00,1,132,14 St,-74.000201,40.737826,859.6037458722465
12:16:00,1,133,Christopher St-Sheridan Sq,-74.002906,40.733422,1122.2075887398917
12:16:00,1,134,Houston St,-74.005367,40.728251,1039.1114348937376
12:16:00,1,135,Canal St,-74.006277,40.722854,952.1037128860156
12:16:00,1,136,Franklin St,-74.006886,40.719318,887.9107995001889
12:00:00,1,137,Chambers St,-74.009266,40.715478,599.2628367813375
12:08:00,1,138,WTC Cortlandt,-74.012188,40.711835,887.9339394837139
12:08:00,1,139,Rector St,-74.013783,40.707513,875.2341144205554
12:08:00,1,142,South Ferry,-74.013664,40.702068,772.1432053296463
12:10:00,1,201,Wakefield-241 St,-73.85062,40.903125,4093.1922513094337
12:10:00,1,204,Nereid Av,-73.854376,40.898379,3796.1764379474694
12:10:00,1,205,233 St,-73.857473,40.893193,3706.1764379474694
12:10:00,1,206,225 St,-73.860341,40.888022,3616.1764379474694
12:10:00,1,207,219 St,-73.862633,40.883895,3526.1764379474694
12:10:00,1,208,Gun Hill Rd,-73.866256,40.87785,3421.1764379474694
12:10:00,1,209,Burke Av,-73.867164,40.871356,3474.9561178766253
12:10:00,1,210,Allerton Av,-73.867352,40.865462,3382.8256830940168
12:10:00,1,211,Pelham Pkwy,-73.867615,40.857192,3252.1764379474694
12:10:00,1,212,Bronx Park East,-73.868457,40.848828,3107.17643794747
12:10:00,1,213,E 180 St,-73.873488,40.841894,2943.3474222244513
12:10:00,1,214,West Farms Sq-E Tremont Av,-73.880049,40.840295,2827.54257102685
12:10:00,1,215,174 St,-73.887734,40.837288,2697.456364130298
12:10:00,1,216,Freeman St,-73.891865,40.829993,2577.6187572926915
12:10:00,1,217,Simpson St,-73.893064,40.824073,2467.237401360488
12:10:00,1,218,Intervale Av,-73.896736,40.822181,2394.3136725469285
12:10:00,1,219,Prospect Av,-73.90177,40.819585,2308.4323166147256
12:10:00,1,220,Jackson Av,-73.907807,40.81649,2216.373493085314
12:10:00,1,221,3 Av-149 St,-73.917757,40.816109,2094.665159751981
12:10:00,1,222,149 St-Grand Concourse,-73.926718,40.81841,1979.6054582594436
12:00:00,1,224,135 St,-73.94077,40.814229,2039.8583298351061
12:00:00,1,225,125 St,-73.945495,40.807754,1931.7783298351062
12:00:00,1,226,116 St,-73.949625,40.802098,1835.7987379983715
12:00:00,1,227,Central Park North (110 St),-73.951822,40.799075,1767.4262890187797
12:00:00,1,228,Park Place,-74.008811,40.713051,510.39613163882285
12:30:00,1,229,Fulton St,-74.006571,40.709416,401.9307155692162
13:43:30,1,230,Wall St,-74.0091,40.706821,475.20139226094557
13:43:30,1,231,Clark St,-73.993086,40.697466,658.7495404090937
13:43:30,1,232,Borough Hall,-73.989998,40.693219,576.9869565217391
13:43:30,1,233,Hoyt St,-73.985065,40.690545,661.5102725839153
13:43:30,1,234,Nevins St,-73.980492,40.688246,696.9869565217391
13:43:30,1,235,Atlantic Av-Barclays Ctr,-73.977666,40.684359,724.4869565217392
13:43:30,1,236,Bergen St,-73.975098,40.680829,801.6570596145226
13:43:30,1,237,Grand Army Plaza,-73.971046,40.675235,913.765307037203
13:43:30,1,238,Eastern Pkwy-Brooklyn Museum,-73.964375,40.671987,1023.7806916525877
12:37:00,1,239,Franklin Av-Medgar Evers College,-73.958131,40.670682,1005.0801768607222
12:57:00,1,241,President St-Medgar Evers College,-73.950683,40.667883,1190.3171713519541
12:57:00,1,242,Sterling St,-73.95085,40.662742,1280.788325198108
12:57:00,1,243,Winthrop St,-73.9502,40.656652,1365.9407061504887
12:57:00,1,244,Church Av,-73.949575,40.650843,1447.7929788777615
12:57:00,1,245,Beverly Rd,-73.948959,40.645098,1529.2269411419124
12:57:00,1,246,Newkirk Av-Little Haiti,-73.948411,40.639967,1615.2269411419124
12:57:00,1,247,Flatbush Av-Brooklyn College,-73.947642,40.632836,1732.5637832471757
12:57:00,1,248,Nostrand Av,-73.950466,40.669847,1161.8589849791397
12:57:00,1,249,Kingston Av,-73.942161,40.669399,1258.2511418418849
12:37:00,1,250,Crown Hts-Utica Av,-73.932942,40.668897,1274.8844790442618
12:57:00,1,251,Sutter Av-Rutland Rd,-73.92261,40.664717,1400.1344790442618
12:57:00,1,252,Saratoga Av,-73.916327,40.661453,1512.1344790442618
13:50:30,2,253,Rockaway Av,-73.908946,40.662549,1599.8844790442615
12:08:30,2,254,Junius St,-73.902447,40.663515,1683.8844790442615
12:08:30,2,255,Pennsylvania Av,-73.894895,40.664635,1785.3844790442615
12:08:30,2,256,Van Siclen Av,-73.889395,40.665449,1865.1344790442615
12:08:30,2,257,New Lots Av,-73.884079,40.666235,1942.0844666372443
12:28:00,1,301,Harlem-148 St,-73.93647,40.82388,2287.7475403614217
12:28:00,1,302,145 St,-73.936245,40.820421,2173.363329835106
12:39:00,1,401,Woodlawn,-73.878751,40.886037,3323.621379862304
12:39:00,1,402,Mosholu Pkwy,-73.884655,40.87975,3202.0486926376343
12:39:00,1,405,Bedford Park Blvd-Lehman College,-73.890064,40.873412,3064.406451258324
12:39:00,1,406,Kingsbridge Rd,-73.897174,40.86776,2946.9259430953193
12:39:00,1,407,Fordham Rd,-73.901034,40.862803,2855.579537866561
12:39:00,1,408,183 St,-73.903879,40.858407,2774.8801914613323
12:39:00,1,409,Burnside Av,-73.907684,40.853453,2681.7080603137915
12:39:00,1,410,176 St,-73.911794,40.84848,2604.7129050973986
12:39:00,1,411,Mt Eden Av,-73.914685,40.844434,2527.0021612957457
12:39:00,1,412,170 St,-73.917791,40.840075,2447.4608389816963
12:39:00,1,413,167 St,-73.9214,40.835537,2359.55212528875
12:39:00,1,414,161 St-Yankee Stadium,-73.925831,40.827994,2228.043964496715
12:39:00,1,415,149 St-Grand Concourse,-73.927351,40.818375,1998.098964496715
12:39:00,1,416,138 St-Grand Concourse,-73.929849,40.813224,1822.4667721280566
12:37:00,1,418,Fulton St,-74.009509,40.710368,406.5015453753264
12:37:00,1,419,Wall St,-74.011862,40.707557,483.71299911981976
12:37:00,1,420,Bowling Green,-74.014065,40.704817,557.7038248078932
12:37:00,1,423,Borough Hall,-73.990151,40.692404,576.2516628949538
13:38:00,1,501,Eastchester-Dyre Av,-73.830834,40.8883,3718.9474625534535
12:10:00,1,502,Baychester Av,-73.838591,40.878663,3588.584825190816
12:10:00,1,503,Gun Hill Rd,-73.846384,40.869526,3429.816007986515
12:10:00,1,504,Pelham Pkwy,-73.855359,40.858985,3272.4573123343416
12:10:00,1,505,Morris Park,-73.860495,40.854364,3184.775993653023
13:35:00,1,601,Pelham Bay Park,-73.828121,40.852462,3474.8311101997106
13:35:00,1,602,Buhre Av,-73.832569,40.84681,3291.404159845101
13:35:00,1,603,Middletown Rd,-73.836322,40.843863,3182.5708265117673
13:35:00,1,604,Westchester Sq-E Tremont Av,-73.842952,40.839892,3037.8208265117673
13:35:00,1,606,Zerega Av,-73.847036,40.836488,2939.737493178434
13:35:00,1,607,Castle Hill Av,-73.851222,40.834255,2872.404159845101
12:39:00,1,608,Parkchester,-73.860816,40.833226,2716.404159845101
12:39:00,1,609,St Lawrence Av,-73.867618,40.831509,2954.3415263292195
12:39:00,1,610,Morrison Av-Soundview,-73.874516,40.829521,2869.2737972455543
12:39:00,1,611,Elder Av,-73.879159,40.828584,2804.1097972455545
12:39:00,1,612,Whitlock Av,-73.886283,40.826525,2697.7697972455544
12:39:00,1,613,Hunts Point Av,-73.890549,40.820948,2460.0195444604856
12:10:00,1,614,Longwood Av,-73.896435,40.816104,2542.31172769719
12:10:00,1,615,E 149 St,-73.904098,40.812118,2441.2033943638567
12:10:00,1,616,E 143 St-St Mary's St,-73.907657,40.808719,2366.3610707124044
12:10:00,1,617,Cypress Av,-73.914042,40.805368,2267.440568620354
12:10:00,1,618,Brook Av,-73.91924,40.807566,2197.881745090943
12:39:00,1,619,3 Av-138 St,-73.926138,40.810476,2080.9426213835623
12:39:00,1,621,125 St,-73.937594,40.804138,1654.085477164028
12:10:00,1,622,116 St,-73.941617,40.798629,1983.156907097848
12:39:00,1,623,110 St,-73.94425,40.79502,1918.079269653703
12:39:00,1,624,103 St,-73.947478,40.7906,1841.7073398291418
12:39:00,1,625,96 St,-73.95107,40.785672,1755.2371643905453
12:39:00,1,626,86 St,-73.955589,40.779492,1369.6897937107904
12:39:00,1,627,77 St,-73.959874,40.77362,1578.6510362315762
12:39:00,1,628,68 St-Hunter College,-73.96387,40.768141,1488.7770866517442
12:39:00,1,629,59 St,-73.967967,40.762526,1172.5408575405775
12:39:00,1,630,51 St,-73.97192,40.757107,1391.7859975069628
12:39:00,1,631,Grand Central-42 St,-73.976848,40.751776,1012.1366022214286
12:10:00,1,632,33 St,-73.982076,40.746081,1237.8751247029656
12:39:00,1,633,28 St,-73.984264,40.74307,1171.0319043639827
12:39:00,1,634,23 St,-73.986599,40.739864,1099.0234297877114
12:39:00,1,635,14 St-Union Sq,-73.989951,40.734673,775.6084332073441
12:39:00,1,636,Astor Pl,-73.99107,40.730054,1009.7003249387068
12:39:00,1,637,Bleecker St,-73.994659,40.725915,918.9836013892188
12:39:00,1,638,Spring St,-73.997141,40.722301,849.8339415252733
12:39:00,1,639,Canal St,-74.000193,40.718803,774.0649927295387
12:39:00,1,640,Brooklyn Bridge-City Hall,-74.004131,40.713065,515.7063353052462
12:10:00,1,701,Flushing-Main St,-73.83003,40.7596,2821.938687238796
12:10:00,1,702,Mets-Willets Point,-73.845625,40.754622,2611.938687238796
12:10:00,1,705,111 St,-73.855334,40.75173,2628.755171907325
12:10:00,1,706,103 St-Corona Plaza,-73.8627,40.749865,2535.129163429272
12:10:00,1,707,Junction Blvd,-73.869527,40.749145,2364.7958300959385
12:10:00,1,708,90 St-Elmhurst Av,-73.876613,40.748408,2464.522171950828
12:10:00,1,709,82 St-Jackson Hts,-73.883697,40.747659,2385.1418902606874
13:50:30,1,710,74 St-Broadway,-73.891394,40.746848,2242.8935909409597
13:50:30,1,711,69 St,-73.896403,40.746325,2195.4818262350773
12:05:00,1,712,61 St-Woodside,-73.902984,40.74563,2123.573375530852
12:05:00,1,713,52 St,-73.912549,40.744149,2014.4959048408443
12:05:00,1,714,46 St-Bliss St,-73.918435,40.743132,1960.8023115260814
12:05:00,1,715,40 St-Lowery St,-73.924016,40.743781,1909.431837988477
12:05:00,1,716,33 St-Rawson St,-73.930997,40.744587,1841.1515832114067
12:05:00,1,718,Queensboro Plaza,-73.940202,40.750582,1685.7958300959385
12:00:00,2,719,Court Sq,-73.945264,40.747023,1596.7958300959385
12:00:00,2,720,Hunters Point Av,-73.948916,40.742216,1510.7958300959385
12:00:00,2,721,Vernon Blvd-Jackson Av,-73.953581,40.742626,1482.7958300959385
13:43:30,1,723,Grand Central-42 St,-73.976041,40.751431,1279.7958300959385
12:18:00,2,724,5 Av,-73.981963,40.753821,1268.1783660742503
13:50:30,1,725,Times Sq-42 St,-73.987691,40.755477,1183.8783660742502
13:46:00,1,726,34 St-Hudson Yards,-74.00191,40.755882,1363.0161133620006
12:00:00,2,901,Grand Central-42 St,-73.979189,40.752769,1232.6386751537384
12:00:00,2,902,Times Sq-42 St,-73.986229,40.755983,1136.785341820405
13:28:00,0,A02,Inwood-207 St,-73.919899,40.868072,2653.1227585218658
12:50:00,0,A03,Dyckman St,-73.927271,40.865491,2563.0497658211357
12:50:00,0,A05,190 St,-73.93418,40.859022,2439.457374516788
12:50:00,0,A06,181 St,-73.937969,40.851695,2326.222080399141
12:50:00,0,A07,175 St,-73.939704,40.847391,2229.501650291614
12:00:00,0,A09,168 St,-73.939561,40.840719,2102.0631476178173
13:35:00,0,A10,163 St-Amsterdam Av,-73.939892,40.836013,2123.016743457285
13:35:00,0,A11,155 St,-73.941514,40.830518,2041.183410123952
12:00:00,0,A12,145 St,-73.944216,40.824783,1857.1861422702236
12:37:00,0,A14,135 St,-73.947649,40.817894,1779.0219458157046
12:00:00,0,A15,125 St,-73.952343,40.811109,1631.5624863562452
12:30:00,0,A16,116 St,-73.954882,40.805085,1755.3980685869471
12:30:00,0,A17,Cathedral Pkwy (110 St),-73.958161,40.800603,1770.3897381395116
12:30:00,0,A18,103 St,-73.961454,40.796092,1696.4766946612508
12:30:00,0,A19,96 St,-73.964696,40.791642,1607.9447797676337
12:30:00,0,A20,86 St,-73.968916,40.785868,1512.9665188980684
12:30:00,0,A21,81 St-Museum of Natural History,-73.972143,40.781433,1421.1665188980685
12:30:00,0,A22,72 St,-73.97641,40.775594,1330.5578232458945
12:00:00,0,A24,59 St-Columbus Circle,-73.981736,40.768296,1118.7907472258103
12:30:00,0,A25,50 St,-73.985984,40.762456,1092.188258028503
12:00:00,0,A27,42 St-Port Authority Bus Terminal,-73.989735,40.757308,956.785341820405
12:00:00,0,A28,34 St-Penn Station,-73.993391,40.752287,860.4950192397598
13:43:30,0,A30,23 St,-73.998041,40.745906,769.3315351499296
12:00:00,0,A31,14 St,-74.00169,40.740893,681.7537573721518
12:00:00,0,A32,W 4 St-Wash Sq,-74.000495,40.732338,562.1442335626281
12:08:00,0,A33,Spring St,-74.003739,40.726227,520.1453651043537
12:00:00,0,A34,Canal St,-74.005229,40.720824,393.91379310344826
12:00:00,0,A36,Chambers St,-74.008585,40.714111,282.10344827586204
12:00:00,0,A38,Fulton St,-74.007691,40.710197,183.57391304347826
12:35:00,0,A40,High St,-73.990531,40.699337,0.0
12:05:00,0,A41,Jay St-MetroTech,-73.987342,40.692338,124.48695652173912
12:05:00,0,A42,Hoyt-Schermerhorn Sts,-73.985001,40.688484,240.4530582166544
12:05:00,0,A43,Lafayette Av,-73.973946,40.686113,376.23793766833404
12:05:00,0,A44,Clinton-Washington Avs,-73.965838,40.683263,460.9015740319704
12:05:00,0,A45,Franklin Av,-73.956848,40.68138,567.0265740319704
12:08:30,0,A46,Nostrand Av,-73.950426,40.680438,552.5429737167086
12:08:30,0,A47,Kingston-Throop Avs,-73.940858,40.679921,652.8971403833752
12:08:30,0,A48,Utica Av,-73.930729,40.679364,723.3631984358097
12:08:30,0,A49,Ralph Av,-73.920786,40.678822,834.0805897401575
12:08:30,0,A50,Rockaway Av,-73.911946,40.67834,946.6763344210086
12:08:30,0,A51,Broadway Junction,-73.905316,40.678334,957.5531425698879
13:50:30,0,A52,Liberty Av,-73.896548,40.674542,1078.9408976719287
13:50:30,0,A53,Van Siclen Av,-73.890358,40.67271,1163.1008976719286
13:50:30,0,A54,Shepherd Av,-73.88075,40.67413,1268.1008976719286
12:08:30,0,A55,Euclid Av,-73.872106,40.675377,1266.1020696553599
12:08:30,0,A57,Grant Av,-73.86505,40.677044,1388.284642269468
12:08:30,0,A59,80 St,-73.858992,40.679371,1485.636642269468
12:08:30,0,A60,88 St,-73.85147,40.679843,1581.5968016320178
12:08:30,0,A61,Rockaway Blvd,-73.843853,40.680429,1671.9420397272559
12:08:30,0,A63,104 St,-73.837683,40.681711,1755.6140397272559
13:08:00,0,A64,111 St,-73.832163,40.684331,1841.7451872682395
13:08:00,0,A65,Ozone Park-Lefferts Blvd,-73.825798,40.685951,1930.8084784074802
12:00:00,1,B04,21 St-Queensbridge,-73.942836,40.754203,1764.3112799080868
12:00:00,1,B06,Roosevelt Island,-73.95326,40.759145,1617.6905902529145
12:00:00,1,B08,Lexington Av/63 St,-73.966113,40.764629,1532.5408575405775
12:00:00,1,B10,57 St,-73.97745,40.763972,1432.4656623384155
12:08:30,1,B12,9 Av,-73.994324,40.646292,1399.1493647830987
12:08:30,1,B13,Fort Hamilton Pkwy,-73.994304,40.640914,1500.251928885663
12:08:30,1,B14,50 St,-73.994791,40.63626,1579.2774065926692
12:08:30,1,B15,55 St,-73.995476,40.631435,1679.0353683761086
12:08:30,1,B16,62 St,-73.996895,40.626472,1745.0073963481366
12:08:30,1,B17,71 St,-73.998864,40.619589,1847.4978422080092
12:08:30,1,B18,79 St,-74.00061,40.613501,1954.0583517621492
12:08:30,1,B19,18 Av,-74.001736,40.607954,2035.6519001492459
12:08:30,1,B20,20 Av,-73.998168,40.604556,2117.6454066427523
12:08:30,1,B21,Bay Pkwy,-73.993728,40.601875,2195.190861188207
12:08:30,1,B22,25 Av,-73.986829,40.597704,2314.3005386075615
12:08:30,1,B23,Bay 50 St,-73.983765,40.588841,2512.87196717899
12:00:00,0,D01,Norwood-205 St,-73.878855,40.874811,3140.1620898414844
12:00:00,0,D03,Bedford Park Blvd,-73.887138,40.873244,2968.675603354998
12:00:00,0,D04,Kingsbridge Rd,-73.893509,40.866978,2851.519353354998
12:00:00,0,D05,Fordham Rd,-73.897749,40.861296,2756.98788482353
12:00:00,0,D06,182-183 Sts,-73.900741,40.856093,2670.0539780223667
14:00:00,0,D07,Tremont Av,-73.905227,40.85041,2591.938933774579
14:00:00,0,D08,174-175 Sts,-73.910136,40.8459,2511.6632525023715
14:00:00,0,D09,170 St,-73.9134,40.839306,2418.345131740716
14:00:00,0,D10,167 St,-73.91844,40.833771,2307.1695025023714
14:00:00,0,D11,161 St-Yankee Stadium,-73.925651,40.827905,2161.9945025023712
14:00:00,0,D12,155 St,-73.938209,40.830135,2037.2661074406428
12:37:00,0,D13,145 St,-73.944216,40.824783,1922.1784650740492
13:28:00,0,D14,7 Av,-73.981637,40.762862,1274.5051077999965
13:50:30,0,D15,47-50 Sts-Rockefeller Ctr,-73.981329,40.758663,1169.9212568683197
13:50:30,0,D16,42 St-Bryant Pk,-73.984569,40.754222,1076.2525068683196
13:50:30,0,D17,34 St-Herald Sq,-73.987823,40.749719,993.0198024658039
12:00:00,1,D18,23 St,-73.992821,40.742878,1012.5722613231869
12:16:00,1,D19,14 St,-73.996209,40.738228,898.7989956717488
13:50:30,0,D20,W 4 St-Wash Sq,-74.000495,40.732338,802.1442335626281
13:28:00,0,D21,Broadway-Lafayette St,-73.996204,40.725297,794.5670001513741
13:50:30,0,D22,Grand St,-73.993753,40.718267,1037.8226925091335
12:28:30,1,D24,Atlantic Av-Barclays Ctr,-73.97689,40.68446,778.2044474408726
12:28:30,1,D25,7 Av,-73.972367,40.67705,908.6655873372457
12:28:30,1,D26,Prospect Park,-73.962246,40.661614,1089.8054837103027
12:28:30,1,D27,Parkside Av,-73.961495,40.655292,1171.6863127258468
12:28:30,1,D28,Church Av,-73.962982,40.650527,1231.1032410804123
12:28:30,1,D29,Beverley Rd,-73.964492,40.644031,1337.9749686900468
12:28:30,1,D30,Cortelyou Rd,-73.963891,40.640927,1416.1704994163038
12:28:30,1,D31,Newkirk Plaza,-73.962793,40.635082,1410.658796635968
12:28:30,1,D32,Avenue H,-73.961639,40.62927,1527.481903112947
12:28:30,1,D33,Avenue J,-73.960803,40.625039,1614.8025450465107
12:28:30,1,D34,Avenue M,-73.959399,40.617618,1718.9204937644593
12:08:30,1,D35,Kings Hwy,-73.957734,40.60867,1658.8143521915235
12:28:30,1,D37,Avenue U,-73.955929,40.5993,1872.2837399466257
12:28:30,1,D38,Neck Rd,-73.955161,40.595246,1971.8198224208527
12:08:30,1,D39,Sheepshead Bay,-73.954155,40.586896,1895.1810188581903
12:28:30,1,D40,Brighton Beach,-73.961376,40.577621,2031.7226855248568
12:28:30,1,D41,Ocean Pkwy,-73.968501,40.576312,2164.7336781834015
12:28:30,1,D42,W 8 St-NY Aquarium,-73.975939,40.576127,2075.5938003336714
13:44:30,0,D43,Coney Island-Stillwell Av,-73.981233,40.577422,2182.2837228142917
12:39:00,0,E01,World Trade Center,-74.009781,40.712582,573.0553807436465
12:10:00,0,F01,Jamaica-179 St,-73.783817,40.712646,3269.106496182014
12:10:00,0,F02,169 St,-73.793604,40.71047,3191.385197163219
12:10:00,0,F03,Parsons Blvd,-73.803326,40.707564,3101.385197163219
12:10:00,0,F04,Sutphin Blvd,-73.810708,40.70546,3077.5408575405777
12:10:00,0,F05,Briarwood,-73.820574,40.709179,2957.5408575405777
12:10:00,0,F06,Kew Gardens-Union Tpke,-73.831008,40.714441,2837.5408575405777
12:10:00,0,F07,75 Av,-73.837324,40.718331,2702.617490191726
13:43:30,0,F09,Court Sq-23 St,-73.946,40.747846,1702.541868551446
13:43:30,0,F11,Lexington Av/53 St,-73.969055,40.757552,1482.2730006269176
13:43:30,0,F12,5 Av/53 St,-73.975224,40.760167,1389.5890383627666
13:28:00,0,F14,2 Av,-73.989938,40.723402,697.1384287228028
13:28:00,0,F15,Delancey St-Essex St,-73.988114,40.718611,600.296591988109
13:28:00,0,F16,East Broadway,-73.990173,40.713715,512.1240031556216
13:28:00,0,F18,York St,-73.986751,40.701397,349.4869565217391
12:38:00,0,F20,Bergen St,-73.990862,40.686145,394.9832053296462
12:38:00,0,F21,Carroll St,-73.995048,40.680303,503.57056888840043
12:38:00,0,F22,Smith-9 Sts,-73.995959,40.67358,645.984030426862
12:38:00,0,F23,4 Av-9 St,-73.989779,40.670272,729.4497167013717
12:38:00,0,F24,7 Av,-73.980305,40.666271,679.4869565217392
12:38:00,0,F25,15 St-Prospect Park,-73.979493,40.660365,847.3965399260683
12:38:00,0,F26,Fort Hamilton Pkwy,-73.975776,40.650782,1009.0557578031633
12:38:00,0,F27,Church Av,-73.979678,40.644041,919.4869565217392
13:44:30,0,F29,Ditmas Av,-73.978172,40.636119,1039.486956521739
13:44:30,0,F30,18 Av,-73.976971,40.629755,1159.486956521739
13:44:30,0,F31,Avenue I,-73.976127,40.625322,1219.486956521739
13:44:30,0,F32,Bay Pkwy,-73.975264,40.620769,1279.486956521739
13:44:30,0,F33,Avenue N,-73.974197,40.61514,1399.486956521739
13:44:30,0,F34,Avenue P,-73.973022,40.608944,1489.486956521739
13:44:30,0,F35,Kings Hwy,-73.972361,40.603217,1663.1490785095318
13:44:30,0,F36,Avenue U,-73.973357,40.596063,1771.7501423393192
13:44:30,0,F38,Avenue X,-73.97425,40.58962,1864.953350895469
13:44:30,0,F39,Neptune Av,-73.974574,40.581011,1979.4252610078286
13:35:00,0,G05,Jamaica Center-Parsons/Archer,-73.801109,40.702147,2534.2922725900294
13:42:30,1,G06,Sutphin Blvd-Archer Av-JFK Airport,-73.807969,40.700486,2474.2922725900294
13:43:30,0,G07,Jamaica-Van Wyck,-73.816859,40.702566,2893.644124441881
12:10:00,0,G08,Forest Hills-71 Av,-73.844521,40.721691,2603.11281729453
13:28:00,0,G09,67 Av,-73.852719,40.726523,2738.443252077139
13:28:00,0,G10,63 Dr-Rego Park,-73.861604,40.729846,2756.325261191255
13:28:00,0,G11,Woodhaven Blvd,-73.869229,40.733106,2652.6951242049536
13:28:00,0,G12,Grand Av-Newtown,-73.877223,40.737015,2529.8201242049536
13:28:00,0,G13,Elmhurst Av,-73.882017,40.742454,2430.2858776296116
12:10:00,0,G14,Jackson Hts-Roosevelt Av,-73.891338,40.746644,2160.180701928628
13:28:00,0,G15,65 St,-73.898453,40.749669,2347.2699565092025
13:50:30,0,G16,Northern Blvd,-73.906006,40.752885,2254.9964522356977
13:50:30,0,G18,46 St,-73.913333,40.756312,2163.5434607827065
13:50:30,0,G19,Steinway St,-73.92074,40.756879,2065.6358977574964
13:50:30,0,G20,36 St,-73.928781,40.752039,1944.0608977574966
13:43:30,0,G21,Queens Plaza,-73.937243,40.748973,1835.374947344273
12:25:00,0,G22,Court Sq,-73.943832,40.746554,1669.8310090859918
12:25:00,0,G24,21 St,-73.949724,40.744065,1580.518031986755
12:25:00,0,G26,Greenpoint Av,-73.954449,40.731352,1439.121582282613
12:25:00,0,G28,Nassau Av,-73.951277,40.724635,1332.2020420527278
12:25:00,0,G29,Metropolitan Av,-73.951418,40.712792,1193.5410251035753
12:25:00,0,G30,Broadway,-73.950308,40.706092,1107.7626160126663
12:25:00,0,G31,Flushing Av,-73.950234,40.700377,1015.3137523763028
12:25:00,0,G32,Myrtle-Willoughby Avs,-73.949046,40.694568,929.1432978308482
12:25:00,0,G33,Bedford-Nostrand Avs,-73.953522,40.689627,827.5182978308483
12:25:00,0,G34,Classon Av,-73.96007,40.688873,750.5238226927266
12:25:00,0,G35,Clinton-Washington Avs,-73.966839,40.688089,669.4309265178632
12:25:00,0,G36,Fulton St,-73.975375,40.687119,577.1467735123988
12:58:00,0,H01,Aqueduct Racetrack,-73.834058,40.668234,1877.9737857590019
12:18:00,0,H02,Aqueduct-N Conduit Av,-73.834058,40.668234,1894.3847967699144
12:18:00,0,H03,Howard Beach-JFK Airport,-73.830301,40.660476,2031.3670976548701
12:18:00,0,H04,Broad Channel,-73.815925,40.608382,2459.7881502864493
12:18:00,0,H06,Beach 67 St,-73.796924,40.590927,2754.7969998439717
12:58:00,0,H07,Beach 60 St,-73.788522,40.592374,2866.989982300112
12:58:00,0,H08,Beach 44 St,-73.776013,40.592943,2980.3052976154277
12:58:00,0,H09,Beach 36 St,-73.768175,40.595398,3075.680297615427
12:58:00,0,H10,Beach 25 St,-73.761353,40.600066,3182.959730805269
12:58:00,0,H11,Far Rockaway-Mott Av,-73.755405,40.603995,3263.339689149819
12:18:00,0,H12,Beach 90 St,-73.813641,40.588034,2718.4142875511166
12:18:00,0,H13,Beach 98 St,-73.820558,40.585307,2796.814287551116
12:18:00,0,H14,Beach 105 St,-73.827559,40.583209,2872.9253986622275
12:18:00,0,H15,Rockaway Park-Beach 116 St,-73.835592,40.580903,2977.1253986622273
13:42:30,1,J12,121 St,-73.828294,40.700492,2234.2922725900294
13:42:30,1,J13,111 St,-73.836345,40.697418,2390.941957152767
13:42:30,1,J14,104 St,-73.84433,40.695178,2054.2922725900294
13:42:30,1,J15,Woodhaven Blvd,-73.851576,40.693879,1942.45710841505
13:42:30,1,J16,85 St-Forest Pkwy,-73.86001,40.692435,1951.9215846804902
13:42:30,1,J17,75 St-Elderts Ln,-73.867139,40.691324,1762.4571084150498
13:42:30,1,J19,Cypress Hills,-73.87255,40.689941,1749.6715846804902
13:42:30,1,J20,Crescent St,-73.873785,40.683194,1612.4571084150498
13:42:30,1,J21,Norwood Av,-73.880039,40.68141,1544.2922725900294
13:42:30,1,J22,Cleveland St,-73.884639,40.679947,1509.2883494381763
13:42:30,1,J23,Van Siclen Av,-73.891688,40.678024,1394.2922725900294
13:42:30,1,J24,Alabama Av,-73.898654,40.676992,1303.4571084150498
13:42:30,1,J27,Broadway Junction,-73.904512,40.679498,1190.790441748383
13:42:30,1,J28,Chauncey St,-73.910456,40.682893,1279.2071084150498
13:42:30,1,J29,Halsey St,-73.916559,40.68637,1410.0356804158257
13:42:30,1,J30,Gates Av,-73.92227,40.68963,1425.1237750817163
13:42:30,1,J31,Kosciuszko St,-73.928814,40.693342,1592.185381014628
12:16:00,2,L01,8 Av,-74.002578,40.739777,845.5751875784506
13:43:30,1,L02,6 Av,-73.996786,40.737335,945.4706248420313
13:43:30,1,L03,14 St-Union Sq,-73.99073,40.734789,989.5694729889145
13:43:30,1,L05,3 Av,-73.986122,40.732849,1066.7247524920201
13:43:30,1,L06,1 Av,-73.981628,40.730953,1094.9580858253535
12:05:00,1,L08,Bedford Av,-73.956872,40.717304,1292.869939928697
13:43:30,1,L10,Lorimer St,-73.950275,40.714063,1380.7301222995177
12:05:00,1,L11,Graham Av,-73.944053,40.714565,1418.1009429682108
12:05:00,1,L12,Grand St,-73.94067,40.711926,1498.6233310279122
12:05:00,1,L13,Montrose Av,-73.93985,40.707739,1537.046818572396
12:05:00,1,L14,Morgan Av,-73.933147,40.706152,1604.4563141213575
13:50:30,1,L15,Jefferson St,-73.922913,40.706607,1636.116228744539
13:50:30,1,L16,DeKalb Av,-73.918425,40.703811,1570.4144215156234
13:50:30,1,L17,Myrtle-Wyckoff Avs,-73.911586,40.699814,1499.4053580715147
13:50:30,1,L19,Halsey St,-73.904084,40.695602,1455.3413850075417
13:50:30,1,L20,Wilson Av,-73.904046,40.688764,1338.362989945813
13:50:30,1,L21,Bushwick Av-Aberdeen St,-73.905249,40.682829,1254.0261843902576
13:50:30,1,L22,Broadway Junction,-73.90324,40.678856,1183.4293301074529
13:50:30,1,L24,Atlantic Av,-73.903097,40.675345,1254.6473231870377
13:50:30,1,L25,Sutter Av,-73.901975,40.669367,1331.879141368856
13:50:30,1,L26,Livonia Av,-73.900571,40.664038,1390.8344678293372
13:50:30,1,L27,New Lots Av,-73.899232,40.658733,1476.0818905097497
13:50:30,1,L28,East 105 St,-73.899485,40.650573,1586.0936906270047
13:50:30,1,L29,Canarsie-Rockaway Pkwy,-73.90185,40.646654,1661.9977597377651
13:50:30,0,M01,Middle Village-Metropolitan Av,-73.889601,40.711396,2124.856919632379
13:50:30,0,M04,Fresh Pond Rd,-73.895877,40.706186,2007.5739007644543
13:50:30,0,M05,Forest Av,-73.903077,40.704423,1914.9875670292934
13:50:30,0,M06,Seneca Av,-73.90774,40.702762,1820.6233286186973
13:50:30,0,M08,Myrtle-Wyckoff Avs,-73.912385,40.69943,1724.4053580715147
13:50:30,0,M09,Knickerbocker Av,-73.919711,40.698664,1695.9256159021952
13:50:30,0,M10,Central Av,-73.927397,40.697857,1603.7449707409048
13:50:30,0,M11,Myrtle Av,-73.935657,40.697207,1439.5860805860807
13:50:30,0,M12,Flushing Av,-73.941126,40.70026,1442.8950459713128
13:50:30,0,M13,Lorimer St,-73.947408,40.703869,1351.112867753491
13:50:30,0,M14,Hewes St,-73.953431,40.70687,1252.375494016117
12:18:00,1,M16,Marcy Av,-73.957757,40.708359,1160.7654940161171
12:37:00,1,M18,Delancey St-Essex St,-73.987437,40.718315,798.9230697736931
12:37:00,1,M19,Bowery,-73.993915,40.72028,718.7872673045573
12:37:00,1,M20,Canal St,-73.999892,40.718092,620.7994624265085
12:37:00,1,M21,Chambers St,-74.003401,40.713243,512.5024927295387
12:37:00,1,M22,Fulton St,-74.007582,40.710374,414.39915603969405
12:10:00,1,M23,Broad St,-74.011056,40.706476,487.53978103969405
12:08:30,1,N02,8 Av,-74.011719,40.635064,1574.486956521739
12:08:30,1,N03,Fort Hamilton Pkwy,-74.005351,40.631386,1669.486956521739
12:08:30,1,N04,New Utrecht Av,-73.996353,40.624842,1809.486956521739
12:08:30,1,N05,18 Av,-73.990414,40.620671,1899.486956521739
12:08:30,1,N06,20 Av,-73.985026,40.61741,1969.4869565217389
12:08:30,1,N07,Bay Pkwy,-73.981848,40.611815,2059.486956521739
12:08:30,1,N08,Kings Hwy,-73.980353,40.603923,2179.486956521739
12:08:30,1,N09,Avenue U,-73.979137,40.597473,2279.4869565217386
12:08:30,1,N10,86 St,-73.97823,40.592721,2339.4869565217386
12:28:30,1,Q01,Canal St,-74.00046,40.718383,846.5206154473673
12:00:00,1,Q03,72 St,-73.958424,40.768799,1652.5408575405775
12:00:00,1,Q04,86 St,-73.951787,40.777891,1784.5099297055258
12:00:00,1,Q05,96 St,-73.947152,40.784318,1865.5408575405777
12:00:00,2,R01,Astoria-Ditmars Blvd,-73.912034,40.775036,2365.730620958572
12:00:00,2,R03,Astoria Blvd,-73.917843,40.770258,2264.55240313679
12:00:00,2,R04,30 Av,-73.921479,40.766779,2164.699069803457
12:00:00,2,R05,Broadway,-73.925508,40.76182,2059.9432420828266
12:00:00,2,R06,36 Av,-73.929575,40.756804,1937.226374612947
12:00:00,2,R08,39 Av-Dutch Kills,-73.932755,40.752882,1844.9921973977573
12:00:00,2,R09,Queensboro Plaza,-73.940202,40.750582,1651.6767212072812
12:00:00,1,R11,Lexington Av/59 St,-73.967258,40.76266,1402.0554194321332
12:18:00,2,R13,5 Av/59 St,-73.973347,40.764811,1490.5077985839425
12:00:00,1,R14,57 St-7 Av,-73.980658,40.764664,1486.3847170883325
12:00:00,1,R15,49 St,-73.984139,40.759901,1390.9853418204052
12:00:00,2,R16,Times Sq-42 St,-73.986754,40.754672,1301.785341820405
12:18:00,2,R17,34 St-Herald Sq,-73.98795,40.749567,1203.5254203227832
12:00:00,2,R18,28 St,-73.988691,40.745494,1181.5850212483542
12:18:00,2,R19,23 St,-73.989344,40.741303,1100.401922656805
12:16:00,2,R20,14 St-Union Sq,-73.990568,40.735736,1000.6084332073441
12:10:00,2,R21,8 St-NYU,-73.992629,40.730328,1101.5928082073442
12:08:00,1,R22,Prince St,-73.997702,40.724329,1066.3190650597705
12:08:00,1,R23,Canal St,-74.001775,40.719527,966.5206154473674
12:08:00,1,R24,City Hall,-74.006978,40.713282,846.5461963674651
12:55:00,1,R25,Cortlandt St,-74.011029,40.710668,732.1034482758621
12:55:00,1,R26,Rector St,-74.013342,40.70722,658.872935059376
12:55:00,1,R27,Whitehall St-South Ferry,-74.012994,40.703087,592.1432053296463
12:55:00,1,R28,Court St,-73.991777,40.6941,336.98695652173916
12:05:00,1,R29,Jay St-MetroTech,-73.985942,40.69218,259.4869565217391
13:42:30,1,R30,DeKalb Av,-73.981824,40.690635,356.6175643040052
12:08:30,1,R31,Atlantic Av-Barclays Ctr,-73.97881,40.683666,499.48695652173916
12:08:30,1,R32,Union St,-73.98311,40.677316,621.9869565217391
12:08:30,1,R33,4 Av-9 St,-73.988302,40.670847,744.4869565217391
12:08:30,1,R34,Prospect Av,-73.992872,40.665414,811.4869565217391
12:08:30,1,R35,25 St,-73.998091,40.660397,889.4869565217392
12:08:30,1,R36,36 St,-74.003549,40.655144,1014.4869565217391
12:08:30,1,R39,45 St,-74.010006,40.648939,1192.8018536395837
12:08:30,1,R40,53 St,-74.014034,40.645069,1287.9863774491075
12:08:30,1,R41,59 St,-74.017881,40.641362,1419.486956521739
12:08:30,1,R42,Bay Ridge Av,-74.023377,40.634967,1544.6052361173133
12:08:30,1,R43,77 St,-74.02551,40.629742,1624.8779633900406
12:08:30,1,R44,86 St,-74.028398,40.622687,1795.9346579497328
12:08:30,1,R45,Bay Ridge-95 St,-74.030876,40.616622,1878.244901897727
12:05:00,1,S01,Franklin Av,-73.955827,40.680596,747.0265740319704
12:05:00,1,S03,Park Pl,-73.957624,40.674772,869.9015740319704
12:05:00,1,S04,Botanic Garden,-73.959245,40.670343,973.96226545311
