start_time,ntransfers,stop_id,stop_name,stop_lon,stop_lat,duration
13:15:30,1,101,Van Cortlandt Park-242 St,-73.898583,40.889248,4453.8057575346675
13:15:30,1,103,238 St,-73.90087,40.884667,4327.994946723857
13:15:30,1,104,231 St,-73.904834,40.878856,4224.362659728341
13:15:30,1,106,Marble Hill-225 St,-73.909831,40.874561,4126.880677746359
13:15:30,1,107,215 St,-73.915279,40.869444,4038.087884953566
13:15:30,1,108,207 St,-73.918822,40.864621,3948.364941230622
13:15:30,1,109,Dyckman St,-73.925536,40.860531,3848.0521659002256
13:15:30,1,110,191 St,-73.929412,40.855225,3764.2073383140187
13:15:30,1,111,181 St,-73.933596,40.849505,3673.1772953955638
13:15:30,1,112,168 St-Washington Hts,-73.940133,40.840556,3553.9755786573664
13:15:30,1,113,157 St,-73.94489,40.834041,3454.6566131401255
13:15:30,1,114,145 St,-73.95036,40.826551,3337.403394256005
13:15:30,1,115,137 St-City College,-73.953676,40.822008,3236.527325879937
13:15:30,1,116,125 St,-73.958372,40.815581,3141.202325879937
13:15:30,1,117,116 St-Columbia University,-73.96411,40.807722,3026.9731592132703
13:15:30,1,118,Cathedral Pkwy (110 St),-73.966847,40.803967,2948.018613758725
13:15:30,1,119,103 St,-73.968379,40.799446,2868.4899252341347
12:08:30,1,120,96 St,-73.972323,40.793919,2619.8143540766287
12:08:30,1,121,86 St,-73.976218,40.788644,2658.088285889872
12:08:30,1,122,79 St,-73.979917,40.783934,2581.214302150035
12:08:30,1,123,72 St,-73.98197,40.778453,2452.7633336684653
13:24:00,1,124,66 St-Lincoln Center,-73.982209,40.77344,2568.1652895085417
13:24:00,1,125,59 St-Columbus Circle,-73.981929,40.768247,2565.2011539612777
13:24:00,1,126,50 St,-73.983849,40.761728,2461.5319810289466
12:08:30,1,127,Times Sq-42 St,-73.987495,40.75529,2227.379152877505
12:08:30,1,128,34 St-Penn Station,-73.991057,40.750373,2126.0201785185304
13:15:30,1,129,28 St,-73.993365,40.747215,2167.617241349559
13:15:30,1,130,23 St,-73.995657,40.744081,2098.4689523761754
13:15:30,1,131,18 St,-73.997871,40.74104,2030.290922073145
12:08:30,1,132,14 St,-74.000201,40.737826,1955.7040494862724
12:08:30,1,133,Christopher St-Sheridan Sq,-74.002906,40.733422,2046.4262717084948
12:08:30,1,134,Houston St,-74.005367,40.728251,2132.307224089447
12:08:30,1,135,Canal St,-74.006277,40.722854,2180.4167204877544
12:08:30,1,136,Franklin St,-74.006886,40.719318,2116.626206653762
12:08:30,1,137,Chambers St,-74.009266,40.715478,1865.3649064366973
13:24:00,1,138,WTC Cortlandt,-74.012188,40.711835,1966.7134042858513
13:24:00,1,139,Rector St,-74.013783,40.707513,1890.2032828283611
13:24:00,1,142,South Ferry,-74.013664,40.702068,1787.1123737374521
13:26:30,1,201,Wakefield-241 St,-73.85062,40.903125,5200.950770723968
13:26:30,1,204,Nereid Av,-73.854376,40.898379,4903.934957362004
13:26:30,1,205,233 St,-73.857473,40.893193,4813.934957362004
13:26:30,1,206,225 St,-73.860341,40.888022,4723.934957362004
13:26:30,1,207,219 St,-73.862633,40.883895,4633.934957362004
13:26:30,1,208,Gun Hill Rd,-73.866256,40.87785,4528.934957362004
13:26:30,1,209,Burke Av,-73.867164,40.871356,4519.7813274017035
13:26:30,1,210,Allerton Av,-73.867352,40.865462,4427.6508926190945
13:26:30,1,211,Pelham Pkwy,-73.867615,40.857192,4323.303066532138
13:26:30,1,212,Bronx Park East,-73.868457,40.848828,4198.4769795756165
13:26:30,1,213,E 180 St,-73.873488,40.841894,3988.1726317495295
13:26:30,1,214,West Farms Sq-E Tremont Av,-73.880049,40.840295,3935.3010904413845
13:26:30,1,215,174 St,-73.887734,40.837288,3805.214883544833
13:26:30,1,216,Freeman St,-73.891865,40.829993,3685.3772767072264
13:26:30,1,217,Simpson St,-73.893064,40.824073,3574.995920775023
13:26:30,1,218,Intervale Av,-73.896736,40.822181,3502.072191961464
13:26:30,1,219,Prospect Av,-73.90177,40.819585,3416.1908360292605
13:26:30,1,220,Jackson Av,-73.907807,40.81649,3324.132012499849
13:26:30,1,221,3 Av-149 St,-73.917757,40.816109,3202.4236791665157
13:26:30,1,222,149 St-Grand Concourse,-73.926718,40.81841,3084.558666697178
12:08:30,1,224,135 St,-73.94077,40.814229,3143.950476525608
12:08:30,1,225,125 St,-73.945495,40.807754,3035.870476525608
12:08:30,1,226,116 St,-73.949625,40.802098,2939.8908846888735
12:08:30,1,227,Central Park North (110 St),-73.951822,40.799075,2871.5184357092817
12:08:30,1,228,Park Place,-74.008811,40.713051,1778.2449064366972
13:24:00,1,229,Fulton St,-74.006571,40.709416,1668.032785224576
13:24:00,1,230,Wall St,-74.0091,40.706821,1741.3034619163052
13:24:00,1,231,Clark St,-73.993086,40.697466,1686.4883151197669
12:08:30,2,232,Borough Hall,-73.989998,40.693219,1591.3980895558573
12:08:30,2,233,Hoyt St,-73.985065,40.690545,1675.9214056180333
12:08:30,2,234,Nevins St,-73.980492,40.688246,1711.3980895558573
12:08:30,2,235,Atlantic Av-Barclays Ctr,-73.977666,40.684359,1738.8980895558573
12:08:30,2,236,Bergen St,-73.975098,40.680829,1816.068192648641
12:17:30,2,237,Grand Army Plaza,-73.971046,40.675235,1725.7836200390748
12:17:30,2,238,Eastern Pkwy-Brooklyn Museum,-73.964375,40.671987,1616.6534830527735
13:45:30,2,239,Franklin Av-Medgar Evers College,-73.958131,40.670682,1502.4052071907045
13:08:30,2,241,President St-Medgar Evers College,-73.950683,40.667883,1683.99482674899
13:08:30,2,242,Sterling St,-73.95085,40.662742,1776.5764594020511
13:08:30,2,243,Winthrop St,-73.9502,40.656652,1861.993985175247
13:08:30,2,244,Church Av,-73.949575,40.650843,1943.016084622761
13:08:30,2,245,Beverly Rd,-73.948959,40.645098,2026.4374044197152
13:08:30,2,246,Newkirk Av-Little Haiti,-73.948411,40.639967,2110.21913030804
13:08:30,2,247,Flatbush Av-Brooklyn College,-73.947642,40.632836,2227.589916824894
13:45:30,2,248,Nostrand Av,-73.950466,40.669847,1632.863532515003
13:45:30,2,249,Kingston Av,-73.942161,40.669399,1535.4791901344202
13:45:30,2,250,Crown Hts-Utica Av,-73.932942,40.668897,1455.9424254285377
13:45:30,2,251,Sutter Av-Rutland Rd,-73.92261,40.664717,1326.7223194625044
13:45:30,2,252,Saratoga Av,-73.916327,40.661453,1226.105652795838
13:45:30,2,253,Rockaway Av,-73.908946,40.662549,1142.938986129171
13:45:30,2,254,Junius St,-73.902447,40.663515,1056.8190672264561
13:24:00,2,255,Pennsylvania Av,-73.894895,40.664635,1158.1056527958378
13:24:00,2,256,Van Siclen Av,-73.889395,40.665449,1232.1056527958378
13:24:00,2,257,New Lots Av,-73.884079,40.666235,1276.6056527958378
12:08:30,1,301,Harlem-148 St,-73.93647,40.82388,3391.8396870519236
12:08:30,1,302,145 St,-73.936245,40.820421,3277.455476525608
13:15:30,1,401,Woodlawn,-73.878751,40.886037,4439.2487885214705
13:15:30,1,402,Mosholu Pkwy,-73.884655,40.87975,4293.753943160646
13:15:30,1,405,Bedford Park Blvd-Lehman College,-73.890064,40.873412,4172.243453650156
13:15:30,1,406,Kingsbridge Rd,-73.897174,40.86776,4037.694434042313
13:15:30,1,407,Fordham Rd,-73.901034,40.862803,3946.3480288135547
13:15:30,1,408,183 St,-73.903879,40.858407,3865.648682408326
13:15:30,1,409,Burnside Av,-73.907684,40.853453,3772.476551260785
13:15:30,1,410,176 St,-73.911794,40.84848,3698.125604651612
13:15:30,1,411,Mt Eden Av,-73.914685,40.844434,3622.3805066123964
13:15:30,1,412,170 St,-73.917791,40.840075,3544.8576307954027
13:15:30,1,413,167 St,-73.9214,40.835537,3464.327018550505
13:15:30,1,414,161 St-Yankee Stadium,-73.925831,40.827994,3318.8124554437086
13:15:30,1,415,149 St-Grand Concourse,-73.927351,40.818375,3088.867455443709
13:15:30,1,416,138 St-Grand Concourse,-73.929849,40.813224,2919.5526426007928
13:54:00,1,418,Fulton St,-74.009509,40.710368,1673.7063189026308
13:54:00,1,419,Wall St,-74.011862,40.707557,1750.9177726471241
13:54:00,1,420,Bowling Green,-74.014065,40.704817,1824.9085983351974
12:08:30,2,423,Borough Hall,-73.990151,40.692404,1590.662795929072
13:56:30,1,501,Eastchester-Dyre Av,-73.830834,40.8883,4763.772672078531
13:26:30,1,502,Baychester Av,-73.838591,40.878663,4633.410034715894
13:26:30,1,503,Gun Hill Rd,-73.846384,40.869526,4474.641217511593
13:26:30,1,504,Pelham Pkwy,-73.855359,40.858985,4317.282521859419
13:26:30,1,505,Morris Park,-73.860495,40.854364,4229.601203178101
13:15:30,1,601,Pelham Bay Park,-73.828121,40.852462,4582.5896296142455
13:15:30,1,602,Buhre Av,-73.832569,40.84681,4399.162679259635
13:15:30,1,603,Middletown Rd,-73.836322,40.843863,4290.329345926302
13:15:30,1,604,Westchester Sq-E Tremont Av,-73.842952,40.839892,4145.579345926302
13:15:30,1,606,Zerega Av,-73.847036,40.836488,4047.4960125929692
13:15:30,1,607,Castle Hill Av,-73.851222,40.834255,3980.162679259636
13:15:30,1,608,Parkchester,-73.860816,40.833226,3824.162679259636
13:15:30,1,609,St Lawrence Av,-73.867618,40.831509,4062.100045743756
13:15:30,1,610,Morrison Av-Soundview,-73.874516,40.829521,3977.03231666009
13:15:30,1,611,Elder Av,-73.879159,40.828584,3911.86831666009
13:15:30,1,612,Whitlock Av,-73.886283,40.826525,3805.52831666009
13:15:30,1,613,Hunts Point Av,-73.890549,40.820948,3567.778063875021
13:26:30,1,614,Longwood Av,-73.896435,40.816104,3650.070247111725
13:26:30,1,615,E 149 St,-73.904098,40.812118,3548.961913778392
13:26:30,1,616,E 143 St-St Mary's St,-73.907657,40.808719,3474.11959012694
13:26:30,1,617,Cypress Av,-73.914042,40.805368,3375.19908803489
13:26:30,1,618,Brook Av,-73.91924,40.807566,3305.640264505478
13:15:30,1,619,3 Av-138 St,-73.926138,40.810476,3188.701140798098
13:15:30,1,621,125 St,-73.937594,40.804138,2761.8439965785633
13:26:30,1,622,116 St,-73.941617,40.798629,3088.2428521721745
13:15:30,1,623,110 St,-73.94425,40.79502,3008.2919749791918
13:15:30,1,624,103 St,-73.947478,40.7906,2931.9200451546303
13:15:30,1,625,96 St,-73.95107,40.785672,2845.449869716034
13:15:30,1,626,86 St,-73.955589,40.779492,2477.4483131253264
13:15:30,1,627,77 St,-73.959874,40.77362,2650.3042984708472
13:15:30,1,628,68 St-Hunter College,-73.96387,40.768141,2560.6792984708472
13:15:30,1,629,59 St,-73.967967,40.762526,2280.2993769551135
13:15:30,1,630,51 St,-73.97192,40.757107,2367.7576542756437
13:15:30,1,631,Grand Central-42 St,-73.976848,40.751776,2119.8951216359646
13:15:30,1,632,33 St,-73.982076,40.746081,2129.9805889855165
13:15:30,1,633,28 St,-73.984264,40.74307,2059.082861712789
13:15:30,1,634,23 St,-73.986599,40.739864,1983.3101344400618
13:15:30,1,635,14 St-Union Sq,-73.989951,40.734673,1883.36695262188
13:54:00,1,636,Astor Pl,-73.99107,40.730054,1959.0576742713645
12:08:30,1,637,Bleecker St,-73.994659,40.725915,2049.7743978208528
12:08:30,1,638,Spring St,-73.997141,40.722301,2037.0973410005981
13:15:30,1,639,Canal St,-74.000193,40.718803,1973.6449600482172
13:15:30,1,640,Brooklyn Bridge-City Hall,-74.004131,40.713065,1782.9111088325506
13:24:00,1,701,Flushing-Main St,-73.83003,40.7596,3390.821330649597
13:24:00,1,702,Mets-Willets Point,-73.845625,40.754622,3214.511806840073
13:24:00,1,705,111 St,-73.855334,40.75173,3234.4675617165453
13:24:00,1,706,103 St-Corona Plaza,-73.8627,40.749865,3140.841553238492
13:24:00,1,707,Junction Blvd,-73.869527,40.749145,2970.508219905159
13:24:00,1,708,90 St-Elmhurst Av,-73.876613,40.748408,3025.2565392868496
13:24:00,1,709,82 St-Jackson Hts,-73.883697,40.747659,2945.8762575967085
13:24:00,1,710,74 St-Broadway,-73.891394,40.746848,2803.6279582769807
13:24:00,1,711,69 St,-73.896403,40.746325,2756.2161935710983
13:24:00,1,712,61 St-Woodside,-73.902984,40.74563,2684.307742866873
13:24:00,1,713,52 St,-73.912549,40.744149,2595.122557681688
13:24:00,1,714,46 St-Bliss St,-73.918435,40.743132,2537.2920492071116
13:24:00,1,715,40 St-Lowery St,-73.924016,40.743781,2481.9801848003317
13:24:00,1,716,33 St-Rawson St,-73.930997,40.744587,2417.812949305451
13:24:00,1,718,Queensboro Plaza,-73.940202,40.750582,2291.5082199051585
13:24:00,1,719,Court Sq,-73.945264,40.747023,2202.5082199051585
13:24:00,1,720,Hunters Point Av,-73.948916,40.742216,2288.5082199051585
13:24:00,1,721,Vernon Blvd-Jackson Av,-73.953581,40.742626,2316.5082199051585
13:24:00,1,723,Grand Central-42 St,-73.976041,40.751431,2355.5657103858553
13:24:00,1,724,5 Av,-73.981963,40.753821,2453.236928031773
12:08:30,1,725,Times Sq-42 St,-73.987691,40.755477,2377.0968189809882
13:26:30,1,726,34 St-Hudson Yards,-74.00191,40.755882,2543.834421183838
13:24:00,1,901,Grand Central-42 St,-73.979189,40.752769,2310.5657103858553
13:24:00,1,902,Times Sq-42 St,-73.986229,40.755983,2330.003794727143
13:08:30,0,A02,Inwood-207 St,-73.919899,40.868072,3962.5654038541848
13:08:30,0,A03,Dyckman St,-73.927271,40.865491,3872.4924111534547
13:08:30,0,A05,190 St,-73.93418,40.859022,3748.9000198491067
13:08:30,0,A06,181 St,-73.937969,40.851695,3635.6647257314594
13:08:30,0,A07,175 St,-73.939704,40.847391,3538.9442956239327
12:17:30,0,A09,168 St,-73.939561,40.840719,3411.505792950136
13:15:30,0,A10,163 St-Amsterdam Av,-73.939892,40.836013,3425.6237975049357
13:15:30,0,A11,155 St,-73.941514,40.830518,3339.64507410068
12:17:30,0,A12,145 St,-73.944216,40.824783,3166.6287876025426
12:17:30,0,A14,135 St,-73.947649,40.817894,3088.4645911480234
12:17:30,0,A15,125 St,-73.952343,40.811109,2941.005131688564
13:15:30,0,A16,116 St,-73.954882,40.805085,3064.840713919266
12:08:30,0,A17,Cathedral Pkwy (110 St),-73.958161,40.800603,3036.491807794872
12:08:30,0,A18,103 St,-73.961454,40.796092,2962.578764316611
12:08:30,0,A19,96 St,-73.964696,40.791642,2874.046849422994
12:08:30,0,A20,86 St,-73.968916,40.785868,2779.0685885534285
12:08:30,0,A21,81 St-Museum of Natural History,-73.972143,40.781433,2687.2685885534283
12:08:30,0,A22,72 St,-73.97641,40.775594,2596.659892901255
12:17:30,0,A24,59 St-Columbus Circle,-73.981736,40.768296,2428.2333925581293
13:08:30,0,A25,50 St,-73.985984,40.762456,2358.2903276838633
12:17:30,0,A27,42 St-Port Authority Bus Terminal,-73.989735,40.757308,2254.3347721283076
12:17:30,0,A28,34 St-Penn Station,-73.993391,40.752287,2142.306063994336
13:24:00,0,A30,23 St,-73.998041,40.745906,2035.4336048052894
12:17:30,0,A31,14 St,-74.00169,40.740893,1947.8558270275114
12:17:30,0,A32,W 4 St-Wash Sq,-74.000495,40.732338,1828.2463032179876
13:15:30,0,A33,Spring St,-74.003739,40.726227,1786.2474347597133
12:08:30,0,A34,Canal St,-74.005229,40.720824,1676.2760061882846
12:08:30,0,A36,Chambers St,-74.008585,40.714111,1563.231888541226
12:08:30,0,A38,Fulton St,-74.007691,40.710197,1450.7786865707826
12:08:30,0,A40,High St,-73.990531,40.699337,1266.1020696553596
12:08:30,0,A41,Jay St-MetroTech,-73.987342,40.692338,1138.8980895558573
12:08:30,0,A42,Hoyt-Schermerhorn Sts,-73.985001,40.688484,1018.6232080392696
12:08:30,0,A43,Lafayette Av,-73.973946,40.686113,1041.6776669919986
12:08:30,0,A44,Clinton-Washington Avs,-73.965838,40.683263,957.0140306283623
12:08:30,0,A45,Franklin Av,-73.956848,40.68138,850.8890306283623
12:08:30,0,A46,Nostrand Av,-73.950426,40.680438,685.6562269071941
12:08:30,0,A47,Kingston-Throop Avs,-73.940858,40.679921,675.7581715791546
12:08:30,0,A48,Utica Av,-73.930729,40.679364,523.5674418604651
12:08:30,0,A49,Ralph Av,-73.920786,40.678822,554.7144141099487
12:08:30,0,A50,Rockaway Av,-73.911946,40.67834,442.1186694290976
12:08:30,0,A51,Broadway Junction,-73.905316,40.678334,300.31162790697675
12:03:30,0,A52,Liberty Av,-73.896548,40.674542,256.4792715073089
12:03:30,0,A53,Van Siclen Av,-73.890358,40.67271,170.105439731608
12:03:30,0,A54,Shepherd Av,-73.88075,40.67413,64.87179487179488
13:17:00,0,A55,Euclid Av,-73.872106,40.675377,0.0
12:07:30,0,A57,Grant Av,-73.86505,40.677044,104.81447963800905
12:07:30,0,A59,80 St,-73.858992,40.679371,208.78391195241954
12:07:30,0,A60,88 St,-73.85147,40.679843,295.42583334979946
12:07:30,0,A61,Rockaway Blvd,-73.843853,40.680429,405.8399700718958
12:07:30,0,A63,104 St,-73.837683,40.681711,489.5119700718958
13:27:00,0,A64,111 St,-73.832163,40.684331,575.6431176128795
13:27:00,0,A65,Ozone Park-Lefferts Blvd,-73.825798,40.685951,664.70640875212
12:08:30,0,B04,21 St-Queensbridge,-73.942836,40.754203,2872.069799322623
12:08:30,0,B06,Roosevelt Island,-73.95326,40.759145,2725.4491096674506
12:08:30,0,B08,Lexington Av/63 St,-73.966113,40.764629,2501.4522118391524
12:08:30,0,B10,57 St,-73.97745,40.763972,2465.704049486272
12:08:30,1,B12,9 Av,-73.994324,40.646292,2413.560497817217
12:08:30,1,B13,Fort Hamilton Pkwy,-73.994304,40.640914,2514.6630619197813
12:08:30,1,B14,50 St,-73.994791,40.63626,2593.6885396267876
12:08:30,1,B15,55 St,-73.995476,40.631435,2693.446501410227
12:08:30,1,B16,62 St,-73.996895,40.626472,2759.418529382255
12:08:30,1,B17,71 St,-73.998864,40.619589,2861.908975242128
12:08:30,1,B18,79 St,-74.00061,40.613501,2968.4694847962683
12:08:30,1,B19,18 Av,-74.001736,40.607954,3050.063033183365
12:08:30,1,B20,20 Av,-73.998168,40.604556,3132.0565396768716
12:08:30,1,B21,Bay Pkwy,-73.993728,40.601875,3209.6019942223256
12:08:30,1,B22,25 Av,-73.986829,40.597704,3328.7116716416804
12:08:30,1,B23,Bay 50 St,-73.983765,40.588841,3294.812627320366
12:08:30,0,D01,Norwood-205 St,-73.878855,40.874811,4449.604735173804
12:08:30,0,D03,Bedford Park Blvd,-73.887138,40.873244,4278.118248687318
12:08:30,0,D04,Kingsbridge Rd,-73.893509,40.866978,4160.961998687318
12:08:30,0,D05,Fordham Rd,-73.897749,40.861296,4066.4305301558493
12:08:30,0,D06,182-183 Sts,-73.900741,40.856093,3979.4966233546857
13:08:30,0,D07,Tremont Av,-73.905227,40.85041,3901.3815791068982
13:08:30,0,D08,174-175 Sts,-73.910136,40.8459,3821.10589783469
13:08:30,0,D09,170 St,-73.9134,40.839306,3727.7877770730342
13:08:30,0,D10,167 St,-73.91844,40.833771,3616.6121478346904
13:08:30,0,D11,161 St-Yankee Stadium,-73.925651,40.827905,3471.43714783469
13:08:30,0,D12,155 St,-73.938209,40.830135,3346.708752772962
12:17:30,0,D13,145 St,-73.944216,40.824783,3231.6211104063677
13:08:30,0,D14,7 Av,-73.981637,40.762862,2540.607177455356
12:08:30,0,D15,47-50 Sts-Rockefeller Ctr,-73.981329,40.758663,2327.309610819309
12:08:30,0,D16,42 St-Bryant Pk,-73.984569,40.754222,2234.8376482024864
12:08:30,0,D17,34 St-Herald Sq,-73.987823,40.749719,2158.061947267907
12:08:30,0,D18,23 St,-73.992821,40.742878,2047.3201632303483
12:08:30,0,D19,14 St,-73.996209,40.738228,1970.7040494862724
12:08:30,0,D20,W 4 St-Wash Sq,-74.000495,40.732338,1999.1307917143222
12:08:30,0,D21,Broadway-Lafayette St,-73.996204,40.725297,1839.4895875292882
12:56:30,0,D22,Grand St,-73.993753,40.718267,2052.6032177609854
12:08:30,1,D24,Atlantic Av-Barclays Ctr,-73.97689,40.68446,1793.1736158486785
12:08:30,1,D25,7 Av,-73.972367,40.67705,1768.4885790061223
12:08:30,1,D26,Prospect Park,-73.962246,40.661614,1389.6629276871859
13:08:30,1,D27,Parkside Av,-73.961495,40.655292,1721.0675656588762
13:08:30,1,D28,Church Av,-73.962982,40.650527,1733.3899874568265
13:08:30,1,D29,Beverley Rd,-73.964492,40.644031,1840.261715066461
13:08:30,1,D30,Cortelyou Rd,-73.963891,40.640927,1918.457245792718
12:08:30,1,D31,Newkirk Plaza,-73.962793,40.635082,1904.8328445996838
13:08:30,1,D32,Avenue H,-73.961639,40.62927,2021.6559510766629
13:08:30,1,D33,Avenue J,-73.960803,40.625039,2115.6389056221174
13:08:30,1,D34,Avenue M,-73.959399,40.617618,2227.0299670746317
12:08:30,1,D35,Kings Hwy,-73.957734,40.60867,2142.96519754086
12:08:30,1,D37,Avenue U,-73.955929,40.5993,2358.4448973763456
12:08:30,1,D38,Neck Rd,-73.955161,40.595246,2457.9809798505726
12:08:30,1,D39,Sheepshead Bay,-73.954155,40.586896,2380.9502721677254
12:08:30,1,D40,Brighton Beach,-73.961376,40.577621,2530.6775448949984
12:08:30,1,D41,Ocean Pkwy,-73.968501,40.576312,2713.024506480632
12:08:30,1,D42,W 8 St-NY Aquarium,-73.975939,40.576127,2827.476119383858
12:08:30,1,D43,Coney Island-Stillwell Av,-73.981233,40.577422,2907.4316749394134
12:56:30,0,E01,World Trade Center,-74.009781,40.712582,1852.9802702236125
12:28:30,1,F01,Jamaica-179 St,-73.783817,40.712646,2876.729444906515
12:28:30,1,F02,169 St,-73.793604,40.71047,2786.729444906515
13:24:00,1,F03,Parsons Blvd,-73.803326,40.707564,2696.729444906515
13:24:00,1,F04,Sutphin Blvd,-73.810708,40.70546,2606.729444906515
13:24:00,1,F05,Briarwood,-73.820574,40.709179,2386.4222198628995
13:24:00,1,F06,Kew Gardens-Union Tpke,-73.831008,40.714441,2507.020714553997
13:24:00,1,F07,75 Av,-73.837324,40.718331,2621.0591760924585
13:24:00,0,F09,Court Sq-23 St,-73.946,40.747846,2202.5082199051585
13:24:00,0,F11,Lexington Av/53 St,-73.969055,40.757552,2406.0796484765874
13:24:00,0,F12,5 Av/53 St,-73.975224,40.760167,2478.9267530513894
12:08:30,0,F14,2 Av,-73.989938,40.723402,1742.0610161007166
12:08:30,0,F15,Delancey St-Essex St,-73.988114,40.718611,1633.8980895558573
12:08:30,0,F16,East Broadway,-73.990173,40.713715,1543.8980895558573
12:08:30,0,F18,York St,-73.986751,40.701397,1363.8980895558573
12:17:30,0,F20,Bergen St,-73.990862,40.686145,1363.1601957916002
12:17:30,0,F21,Carroll St,-73.995048,40.680303,1489.0031277287728
12:17:30,0,F22,Smith-9 Sts,-73.995959,40.67358,1616.1385443954396
12:17:30,0,F23,4 Av-9 St,-73.989779,40.670272,1708.7551247063204
12:17:30,0,F24,7 Av,-73.980305,40.666271,1693.8980895558573
12:17:30,0,F25,15 St-Prospect Park,-73.979493,40.660365,1861.8076729601862
12:17:30,0,F26,Fort Hamilton Pkwy,-73.975776,40.650782,2023.466890837281
12:17:30,0,F27,Church Av,-73.979678,40.644041,1933.8980895558573
13:56:30,0,F29,Ditmas Av,-73.978172,40.636119,2053.898089555857
13:56:30,0,F30,18 Av,-73.976971,40.629755,2173.898089555857
13:56:30,0,F31,Avenue I,-73.976127,40.625322,2233.898089555857
13:56:30,0,F32,Bay Pkwy,-73.975264,40.620769,2293.898089555857
13:56:30,0,F33,Avenue N,-73.974197,40.61514,2413.898089555857
13:56:30,0,F34,Avenue P,-73.973022,40.608944,2503.898089555857
13:56:30,0,F35,Kings Hwy,-73.972361,40.603217,2677.5602115436504
13:26:30,0,F36,Avenue U,-73.973357,40.596063,2786.1612753734375
13:26:30,0,F38,Avenue X,-73.97425,40.58962,2879.3644839295875
12:08:30,1,F39,Neptune Av,-73.974574,40.581011,2993.8363940419467
13:54:00,1,G05,Jamaica Center-Parsons/Archer,-73.801109,40.702147,1900.3475957338198
13:54:00,1,G06,Sutphin Blvd-Archer Av-JFK Airport,-73.807969,40.700486,1840.3475957338198
13:24:00,1,G07,Jamaica-Van Wyck,-73.816859,40.702566,2259.699447585672
13:24:00,1,G08,Forest Hills-71 Av,-73.844521,40.721691,2718.728679155767
12:17:30,1,G09,67 Av,-73.852719,40.726523,2867.4984187670193
12:17:30,1,G10,63 Dr-Rego Park,-73.861604,40.729846,2979.291522215295
13:08:30,0,G11,Woodhaven Blvd,-73.869229,40.733106,3073.8654352587732
13:08:30,0,G12,Grand Av-Newtown,-73.877223,40.737015,3029.786475558666
13:08:30,0,G13,Elmhurst Av,-73.882017,40.742454,2930.252228983324
13:08:30,0,G14,Jackson Hts-Roosevelt Av,-73.891338,40.746644,2771.961114684146
13:08:30,0,G15,65 St,-73.898453,40.749669,2892.5208435113022
13:08:30,0,G16,Northern Blvd,-73.906006,40.752885,2798.1909466040856
13:08:30,0,G18,46 St,-73.913333,40.756312,2708.1909466040856
13:08:30,0,G19,Steinway St,-73.92074,40.756879,2591.2837301092404
13:08:30,0,G20,36 St,-73.928781,40.752039,2471.2837301092404
13:24:00,0,G21,Queens Plaza,-73.937243,40.748973,2325.8755668439344
13:24:00,0,G22,Court Sq,-73.943832,40.746554,1991.5896755475226
13:24:00,0,G24,21 St,-73.949724,40.744065,1925.727356706943
13:24:00,0,G26,Greenpoint Av,-73.954449,40.731352,1717.9041522870536
13:24:00,0,G28,Nassau Av,-73.951277,40.724635,1623.541514924416
13:24:00,0,G29,Metropolitan Av,-73.951418,40.712792,1491.4595477113014
13:24:00,0,G30,Broadway,-73.950308,40.706092,1592.0410694504317
13:24:00,0,G31,Flushing Av,-73.950234,40.700377,1678.4356640450264
13:24:00,0,G32,Myrtle-Willoughby Avs,-73.949046,40.694568,1737.0706093552585
13:24:00,0,G33,Bedford-Nostrand Avs,-73.953522,40.689627,1625.1405018283767
13:24:00,0,G34,Classon Av,-73.96007,40.688873,1543.2130406884803
13:24:00,0,G35,Clinton-Washington Avs,-73.966839,40.688089,1459.3470613070372
13:24:00,0,G36,Fulton St,-73.975375,40.687119,1360.9009074608832
13:17:00,0,H01,Aqueduct Racetrack,-73.834058,40.668234,611.8717161036418
12:17:30,0,H02,Aqueduct-N Conduit Av,-73.834058,40.668234,584.9421514375954
12:17:30,0,H03,Howard Beach-JFK Airport,-73.830301,40.660476,721.9244523225511
12:17:30,0,H04,Broad Channel,-73.815925,40.608382,1150.34550495413
12:17:30,0,H06,Beach 67 St,-73.796924,40.590927,1445.3543545116522
13:17:00,0,H07,Beach 60 St,-73.788522,40.592374,1557.5473369677925
13:17:00,0,H08,Beach 44 St,-73.776013,40.592943,1670.862652283108
13:17:00,0,H09,Beach 36 St,-73.768175,40.595398,1766.237652283108
13:17:00,0,H10,Beach 25 St,-73.761353,40.600066,1880.4340808545367
13:17:00,0,H11,Far Rockaway-Mott Av,-73.755405,40.603995,1953.8970438174993
12:17:30,0,H12,Beach 90 St,-73.813641,40.588034,1452.3122178957565
12:17:30,0,H13,Beach 98 St,-73.820558,40.585307,1530.7122178957566
12:17:30,0,H14,Beach 105 St,-73.827559,40.583209,1606.8233290068679
12:17:30,0,H15,Rockaway Park-Beach 116 St,-73.835592,40.580903,1711.023329006868
13:54:00,1,J12,121 St,-73.828294,40.700492,1600.3475957338198
13:54:00,1,J13,111 St,-73.836345,40.697418,1725.46314331136
13:54:00,1,J14,104 St,-73.84433,40.695178,1420.3475957338198
13:54:00,1,J15,Woodhaven Blvd,-73.851576,40.693879,1276.9782945736433
13:54:00,1,J16,85 St-Forest Pkwy,-73.86001,40.692435,1286.4427708390838
13:54:00,1,J17,75 St-Elderts Ln,-73.867139,40.691324,1096.9782945736433
13:54:00,1,J19,Cypress Hills,-73.87255,40.689941,1084.1927708390838
13:54:00,1,J20,Crescent St,-73.873785,40.683194,946.9782945736433
13:54:00,1,J21,Norwood Av,-73.880039,40.68141,902.9782945736434
13:54:00,1,J22,Cleveland St,-73.884639,40.679947,843.8095355967697
13:54:00,1,J23,Van Siclen Av,-73.891688,40.678024,760.34759573382
13:54:00,1,J24,Alabama Av,-73.898654,40.676992,637.9782945736434
13:24:00,1,J27,Broadway Junction,-73.904512,40.679498,525.3116279069767
12:48:30,1,J28,Chauncey St,-73.910456,40.682893,613.7282945736434
12:48:30,1,J29,Halsey St,-73.916559,40.68637,744.5568665744194
12:48:30,1,J30,Gates Av,-73.92227,40.68963,759.6449612403102
12:48:30,1,J31,Kosciuszko St,-73.928814,40.693342,926.7065671732217
13:15:30,1,L01,8 Av,-74.002578,40.739777,1872.325804266043
13:15:30,1,L02,6 Av,-73.996786,40.737335,1745.7040494862722
13:15:30,1,L03,14 St-Union Sq,-73.99073,40.734789,1669.4059128403096
13:15:30,1,L05,3 Av,-73.986122,40.732849,1592.250633337204
13:15:30,1,L06,1 Av,-73.981628,40.730953,1564.0173000038706
13:15:30,1,L08,Bedford Av,-73.956872,40.717304,1366.1054459005272
13:15:30,1,L10,Lorimer St,-73.950275,40.714063,1278.2452635297066
13:15:30,1,L11,Graham Av,-73.944053,40.714565,1240.8744428610134
13:15:30,1,L12,Grand St,-73.94067,40.711926,1160.352054801312
13:15:30,1,L13,Montrose Av,-73.93985,40.707739,1121.9285672568278
13:15:30,1,L14,Morgan Av,-73.933147,40.706152,1054.5190717078665
13:15:30,1,L15,Jefferson St,-73.922913,40.706607,970.6374149031328
13:15:30,1,L16,DeKalb Av,-73.918425,40.703811,904.9356076742171
13:15:30,1,L17,Myrtle-Wyckoff Avs,-73.911586,40.699814,833.9265442301083
13:15:30,1,L19,Halsey St,-73.904084,40.695602,789.8625711661352
13:15:30,1,L20,Wilson Av,-73.904046,40.688764,672.8841761044068
13:15:30,1,L21,Bushwick Av-Aberdeen St,-73.905249,40.682829,588.5473705488513
12:08:30,1,L22,Broadway Junction,-73.90324,40.678856,517.9505162660465
12:08:30,1,L24,Atlantic Av,-73.903097,40.675345,589.1685093456313
12:08:30,1,L25,Sutter Av,-73.901975,40.669367,666.4003275274495
12:08:30,1,L26,Livonia Av,-73.900571,40.664038,725.3556539879306
12:08:30,1,L27,New Lots Av,-73.899232,40.658733,810.603076668343
12:08:30,1,L28,East 105 St,-73.899485,40.650573,920.6148767855982
12:08:30,1,L29,Canarsie-Rockaway Pkwy,-73.90185,40.646654,996.5189458963586
13:45:30,2,M01,Middle Village-Metropolitan Av,-73.889601,40.711396,1459.378105790972
13:45:30,2,M04,Fresh Pond Rd,-73.895877,40.706186,1342.0950869230476
13:45:30,2,M05,Forest Av,-73.903077,40.704423,1249.508753187887
13:45:30,2,M06,Seneca Av,-73.90774,40.702762,1155.144514777291
13:38:30,1,M08,Myrtle-Wyckoff Avs,-73.912385,40.69943,1058.9265442301082
12:03:30,2,M09,Knickerbocker Av,-73.919711,40.698664,1154.125374639465
13:38:30,1,M10,Central Av,-73.927397,40.697857,1090.9705180618012
12:48:30,1,M11,Myrtle Av,-73.935657,40.697207,926.8116279069768
12:48:30,1,M12,Flushing Av,-73.941126,40.70026,1110.7922128154344
12:48:30,1,M13,Lorimer St,-73.947408,40.703869,1202.5743910332562
12:48:30,1,M14,Hewes St,-73.953431,40.70687,1301.3117647706301
12:08:30,1,M16,Marcy Av,-73.957757,40.708359,1174.9782945736436
12:08:30,1,M18,Delancey St-Essex St,-73.987437,40.718315,1556.5616279069768
12:17:30,1,M19,Bowery,-73.993915,40.72028,1633.64496124031
12:17:30,1,M20,Canal St,-73.999892,40.718092,1736.14496124031
12:17:30,1,M21,Chambers St,-74.003401,40.713243,1813.1129116029267
12:17:30,1,M22,Fulton St,-74.007582,40.710374,1681.6039295669984
12:28:30,1,M23,Broad St,-74.011056,40.706476,1754.7445545669984
12:08:30,1,N02,8 Av,-74.011719,40.635064,2588.8980895558575
12:08:30,1,N03,Fort Hamilton Pkwy,-74.005351,40.631386,2683.898089555857
12:08:30,1,N04,New Utrecht Av,-73.996353,40.624842,2823.8980895558575
12:08:30,1,N05,18 Av,-73.990414,40.620671,2913.8980895558575
12:08:30,1,N06,20 Av,-73.985026,40.61741,2983.898089555857
12:08:30,1,N07,Bay Pkwy,-73.981848,40.611815,3073.898089555857
12:08:30,1,N08,Kings Hwy,-73.980353,40.603923,3193.898089555857
12:08:30,1,N09,Avenue U,-73.979137,40.597473,3261.4316749394134
12:08:30,1,N10,86 St,-73.97823,40.592721,3201.4316749394134
12:08:30,1,Q01,Canal St,-74.00046,40.718383,1973.6449600482172
12:08:30,0,Q03,72 St,-73.958424,40.768799,2634.9315932824516
12:08:30,0,Q04,86 St,-73.951787,40.777891,2753.4212840041014
12:08:30,0,Q05,96 St,-73.947152,40.784318,2844.6637082465254
12:08:30,1,R01,Astoria-Ditmars Blvd,-73.912034,40.775036,2977.4671925839248
12:08:30,1,R03,Astoria Blvd,-73.917843,40.770258,2876.288974762143
12:08:30,1,R04,30 Av,-73.921479,40.766779,2776.4356414288095
12:08:30,1,R05,Broadway,-73.925508,40.76182,2679.9031738963417
12:08:30,1,R06,36 Av,-73.929575,40.756804,2585.0610686331843
12:08:30,1,R08,39 Av-Dutch Kills,-73.932755,40.752882,2479.741068633184
12:08:30,1,R09,Queensboro Plaza,-73.940202,40.750582,2343.2005280926433
12:08:30,1,R11,Lexington Av/59 St,-73.967258,40.76266,2509.8139388466693
12:08:30,1,R13,5 Av/59 St,-73.973347,40.764811,2529.1409631989686
12:08:30,1,R14,57 St-7 Av,-73.980658,40.764664,2323.2760460360437
12:08:30,1,R15,49 St,-73.984139,40.759901,2290.717049040386
12:08:30,1,R16,Times Sq-42 St,-73.986754,40.754672,2150.003794727143
13:26:30,2,R17,34 St-Herald Sq,-73.98795,40.749567,2049.96695262188
12:03:30,2,R18,28 St,-73.988691,40.745494,2050.2894878331476
13:15:30,2,R19,23 St,-73.989344,40.741303,1969.1063892415984
13:38:30,1,R20,14 St-Union Sq,-73.990568,40.735736,1883.36695262188
13:38:30,1,R21,8 St-NYU,-73.992629,40.730328,1984.35132762188
13:38:30,1,R22,Prince St,-73.997702,40.724329,2070.03882762188
13:38:30,1,R23,Canal St,-74.001775,40.719527,2072.5804165572144
13:38:30,1,R24,City Hall,-74.006978,40.713282,1921.028177751244
13:38:30,1,R25,Cortlandt St,-74.011029,40.710668,1810.8639986467665
13:38:30,1,R26,Rector St,-74.013342,40.70722,1673.8421034671817
13:38:30,1,R27,Whitehall St-South Ferry,-74.012994,40.703087,1607.1123737374521
13:38:30,1,R28,Court St,-73.991777,40.6941,1351.3980895558573
12:08:30,1,R29,Jay St-MetroTech,-73.985942,40.69218,1273.8980895558573
12:56:30,1,R30,DeKalb Av,-73.981824,40.690635,1371.3980895558573
12:08:30,1,R31,Atlantic Av-Barclays Ctr,-73.97881,40.683666,1513.8980895558573
12:08:30,1,R32,Union St,-73.98311,40.677316,1636.3980895558573
12:08:30,1,R33,4 Av-9 St,-73.988302,40.670847,1758.8980895558573
12:08:30,1,R34,Prospect Av,-73.992872,40.665414,1825.8980895558575
12:08:30,1,R35,25 St,-73.998091,40.660397,1903.8980895558575
12:08:30,1,R36,36 St,-74.003549,40.655144,2028.8980895558573
12:08:30,1,R39,45 St,-74.010006,40.648939,2207.212986673702
12:08:30,1,R40,53 St,-74.014034,40.645069,2302.3975104832257
12:08:30,1,R41,59 St,-74.017881,40.641362,2433.8980895558575
12:08:30,1,R42,Bay Ridge Av,-74.023377,40.634967,2559.0163691514313
12:08:30,1,R43,77 St,-74.02551,40.629742,2639.2890964241583
12:08:30,1,R44,86 St,-74.028398,40.622687,2810.903826357538
12:48:30,1,R45,Bay Ridge-95 St,-74.030876,40.616622,2892.6560349318447
12:08:30,1,S01,Franklin Av,-73.955827,40.680596,1030.8890306283622
12:08:30,1,S03,Park Pl,-73.957624,40.674772,1153.7640306283622
12:08:30,1,S04,Botanic Garden,-73.959245,40.670343,1261.3076472618104
