start_time,ntransfers,stop_id,stop_name,stop_lon,stop_lat,duration
12:07:00,1,101,Van Cortlandt Park-242 St,-73.898583,40.889248,3669.3694564653615
12:07:00,1,103,238 St,-73.90087,40.884667,3543.5586456545507
12:07:00,1,104,231 St,-73.904834,40.878856,3439.926358659035
12:07:00,1,106,Marble Hill-225 St,-73.909831,40.874561,3342.4443766770532
12:07:00,1,107,215 St,-73.915279,40.869444,3253.6515838842606
12:07:00,1,108,207 St,-73.918822,40.864621,3163.9286401613167
12:07:00,1,109,Dyckman St,-73.925536,40.860531,3063.61586483092
12:07:00,1,110,191 St,-73.929412,40.855225,2979.7710372447136
12:07:00,1,111,181 St,-73.933596,40.849505,2888.7409943262587
12:07:00,1,112,168 St-Washington Hts,-73.940133,40.840556,2769.5392775880614
12:07:00,1,113,157 St,-73.94489,40.834041,2670.22031207082
12:07:00,1,114,145 St,-73.95036,40.826551,2552.9670931867
12:07:00,1,115,137 St-City College,-73.953676,40.822008,2452.0910248106316
12:07:00,1,116,125 St,-73.958372,40.815581,2356.7660248106317
12:07:00,1,117,116 St-Columbia University,-73.96411,40.807722,2242.536858143965
12:07:00,1,118,Cathedral Pkwy (110 St),-73.966847,40.803967,2163.5823126894197
12:07:00,1,119,103 St,-73.968379,40.799446,2084.0536241648297
12:15:30,1,120,96 St,-73.972323,40.793919,1825.5062499922078
12:23:00,1,121,86 St,-73.976218,40.788644,1873.6519848205673
12:23:00,1,122,79 St,-73.979917,40.783934,1796.7780010807298
12:15:30,1,123,72 St,-73.98197,40.778453,1645.9717672335873
12:15:30,1,124,66 St-Lincoln Center,-73.982209,40.77344,1704.665417009237
12:15:30,1,125,59 St-Columbus Circle,-73.981929,40.768247,1627.3171024024953
12:15:30,1,126,50 St,-73.983849,40.761728,1523.6479294701646
13:07:00,1,127,Times Sq-42 St,-73.987495,40.75529,1398.2694409761232
12:03:00,1,128,34 St-Penn Station,-73.991057,40.750373,1476.9599520174347
12:07:00,1,129,28 St,-73.993365,40.747215,1579.8086806602616
13:39:30,1,130,23 St,-73.995657,40.744081,1543.5618669664082
13:39:30,1,131,18 St,-73.997871,40.74104,1475.3838366633777
12:07:00,2,132,14 St,-74.000201,40.737826,1316.6742377317205
12:19:30,1,133,Christopher St-Sheridan Sq,-74.002906,40.733422,1491.5191862987274
12:07:00,2,134,Houston St,-74.005367,40.728251,1489.2577734578724
12:07:00,2,135,Canal St,-74.006277,40.722854,1402.2500514501503
12:07:00,2,136,Franklin St,-74.006886,40.719318,1338.0571380643237
12:07:00,2,137,Chambers St,-74.009266,40.715478,1056.3333286408113
12:19:30,1,138,WTC Cortlandt,-74.012188,40.711835,1205.6622726596254
12:19:30,1,139,Rector St,-74.013783,40.707513,1129.1521512021354
12:19:30,1,142,South Ferry,-74.013664,40.702068,1026.0612421112264
13:57:00,1,201,Wakefield-241 St,-73.85062,40.903125,4552.165089485192
13:57:00,1,204,Nereid Av,-73.854376,40.898379,4255.1492761232275
13:57:00,1,205,233 St,-73.857473,40.893193,4165.1492761232275
13:57:00,1,206,225 St,-73.860341,40.888022,4075.1492761232275
13:57:00,1,207,219 St,-73.862633,40.883895,3985.1492761232275
13:57:00,1,208,Gun Hill Rd,-73.866256,40.87785,3880.1492761232275
13:57:00,1,209,Burke Av,-73.867164,40.871356,3850.4748875340815
13:57:00,1,210,Allerton Av,-73.867352,40.865462,3758.3444527514725
13:57:00,1,211,Pelham Pkwy,-73.867615,40.857192,3653.996626664516
13:57:00,1,212,Bronx Park East,-73.868457,40.848828,3529.170539707994
13:57:00,1,213,E 180 St,-73.873488,40.841894,3318.866191881907
12:37:00,1,214,West Farms Sq-E Tremont Av,-73.880049,40.840295,3281.3763187506624
12:37:00,1,215,174 St,-73.887734,40.837288,3156.4292023060566
12:37:00,1,216,Freeman St,-73.891865,40.829993,3036.5915954684497
12:37:00,1,217,Simpson St,-73.893064,40.824073,2926.2102395362463
13:57:00,1,218,Intervale Av,-73.896736,40.822181,2851.847253844172
13:57:00,1,219,Prospect Av,-73.90177,40.819585,2767.4051547904837
12:37:00,1,220,Jackson Av,-73.907807,40.81649,2674.4533144502325
13:57:00,1,221,3 Av-149 St,-73.917757,40.816109,2540.7492328175795
12:37:00,1,222,149 St-Grand Concourse,-73.926718,40.81841,2415.252226829555
12:15:30,1,224,135 St,-73.94077,40.814229,2371.1074914854166
12:15:30,1,225,125 St,-73.945495,40.807754,2263.315583970966
12:15:30,1,226,116 St,-73.949625,40.802098,2165.2057573813704
12:15:30,1,227,Central Park North (110 St),-73.951822,40.799075,2088.586709762323
12:07:00,2,228,Park Place,-74.008811,40.713051,969.2133286408111
12:37:00,1,229,Fulton St,-74.006571,40.709416,859.0012074286899
12:37:00,1,230,Wall St,-74.0091,40.706821,785.7305307369606
12:37:00,1,231,Clark St,-73.993086,40.697466,598.2304397430086
12:11:30,1,232,Borough Hall,-73.989998,40.693219,484.53934026656884
12:11:30,1,233,Hoyt St,-73.985065,40.690545,400.01602420439264
12:11:30,1,234,Nevins St,-73.980492,40.688246,305.00515463917526
12:11:30,1,235,Atlantic Av-Barclays Ctr,-73.977666,40.684359,225.0
12:11:30,1,236,Bergen St,-73.975098,40.680829,302.1701030927835
12:11:30,1,237,Grand Army Plaza,-73.971046,40.675235,411.77386500846825
12:11:30,1,238,Eastern Pkwy-Brooklyn Museum,-73.964375,40.671987,517.8893542663723
12:11:30,1,239,Franklin Av-Medgar Evers College,-73.958131,40.670682,492.85512362496326
12:11:30,1,241,President St-Medgar Evers College,-73.950683,40.667883,678.092118116195
12:11:30,1,242,Sterling St,-73.95085,40.662742,768.5632719623488
12:11:30,1,243,Winthrop St,-73.9502,40.656652,853.7156529147298
12:11:30,1,244,Church Av,-73.949575,40.650843,935.5679256420025
12:11:30,1,245,Beverly Rd,-73.948959,40.645098,1017.0018879061535
12:11:30,1,246,Newkirk Av-Little Haiti,-73.948411,40.639967,1103.0018879061536
12:11:30,1,247,Flatbush Av-Brooklyn College,-73.947642,40.632836,1220.3387300114168
12:11:30,1,248,Nostrand Av,-73.950466,40.669847,649.6339317433808
12:11:30,1,249,Kingston Av,-73.942161,40.669399,741.1077219994306
12:07:00,1,250,Crown Hts-Utica Av,-73.932942,40.668897,762.6594258085028
12:07:00,1,251,Sutter Av-Rutland Rd,-73.92261,40.664717,887.9094258085028
12:07:00,1,252,Saratoga Av,-73.916327,40.661453,999.9094258085028
12:07:00,1,253,Rockaway Av,-73.908946,40.662549,1087.6594258085026
12:07:00,1,254,Junius St,-73.902447,40.663515,1169.2527204259904
12:07:00,1,255,Pennsylvania Av,-73.894895,40.664635,1266.2527204259904
12:07:00,1,256,Van Siclen Av,-73.889395,40.665449,1340.8360537593237
12:07:00,1,257,New Lots Av,-73.884079,40.666235,1431.9094258085024
12:15:30,1,301,Harlem-148 St,-73.93647,40.82388,2640.301338421598
12:15:30,1,302,145 St,-73.936245,40.820421,2508.066555812902
12:09:30,1,401,Woodlawn,-73.878751,40.886037,3679.4539509277515
12:09:30,1,402,Mosholu Pkwy,-73.884655,40.87975,3557.881263703082
12:09:30,1,405,Bedford Park Blvd-Lehman College,-73.890064,40.873412,3420.2390223237717
12:09:30,1,406,Kingsbridge Rd,-73.897174,40.86776,3308.7497519375056
12:09:30,1,407,Fordham Rd,-73.901034,40.862803,3224.2374568555383
12:09:30,1,408,183 St,-73.903879,40.858407,3144.429293590232
12:09:30,1,409,Burnside Av,-73.907684,40.853453,3049.030953341269
12:09:30,1,410,176 St,-73.911794,40.84848,2960.545476162846
12:09:30,1,411,Mt Eden Av,-73.914685,40.844434,2882.8347323611933
12:09:30,1,412,170 St,-73.917791,40.840075,2803.293410047144
12:09:30,1,413,167 St,-73.9214,40.835537,2715.384696354198
12:15:30,1,414,161 St-Yankee Stadium,-73.925831,40.827994,2607.388880454616
12:15:30,1,415,149 St-Grand Concourse,-73.927351,40.818375,2398.8700520027332
12:37:00,1,416,138 St-Grand Concourse,-73.929849,40.813224,2250.24620273317
12:07:00,1,418,Fulton St,-74.009509,40.710368,857.2906091449734
12:07:00,1,419,Wall St,-74.011862,40.707557,780.07915540048
12:07:00,1,420,Bowling Green,-74.014065,40.704817,706.0883297124066
12:11:30,1,423,Borough Hall,-73.990151,40.692404,437.2619032859802
13:57:00,1,501,Eastchester-Dyre Av,-73.830834,40.8883,4094.4662322109098
13:57:00,1,502,Baychester Av,-73.838591,40.878663,3964.103594848272
13:57:00,1,503,Gun Hill Rd,-73.846384,40.869526,3805.334777643971
13:57:00,1,504,Pelham Pkwy,-73.855359,40.858985,3647.9760819917974
13:57:00,1,505,Morris Park,-73.860495,40.854364,3560.2947633104786
13:59:30,1,601,Pelham Bay Park,-73.828121,40.852462,3930.8105857688524
13:59:30,1,602,Buhre Av,-73.832569,40.84681,3747.383635414243
13:59:30,1,603,Middletown Rd,-73.836322,40.843863,3638.5503020809097
13:59:30,1,604,Westchester Sq-E Tremont Av,-73.842952,40.839892,3493.800302080909
13:59:30,1,606,Zerega Av,-73.847036,40.836488,3395.716968747576
13:59:30,1,607,Castle Hill Av,-73.851222,40.834255,3328.3836354142427
12:39:30,1,608,Parkchester,-73.860816,40.833226,3172.3836354142427
12:39:30,1,609,St Lawrence Av,-73.867618,40.831509,3410.321001898362
12:39:30,1,610,Morrison Av-Soundview,-73.874516,40.829521,3325.2532728146966
12:39:30,1,611,Elder Av,-73.879159,40.828584,3260.0892728146964
12:39:30,1,612,Whitlock Av,-73.886283,40.826525,3153.7492728146963
12:39:30,1,613,Hunts Point Av,-73.890549,40.820948,2915.9990200296274
12:37:00,1,614,Longwood Av,-73.896435,40.816104,2996.4499275743456
12:37:00,1,615,E 149 St,-73.904098,40.812118,2895.3415942410124
12:37:00,1,616,E 143 St-St Mary's St,-73.907657,40.808719,2820.49927058956
12:37:00,1,617,Cypress Av,-73.914042,40.805368,2721.5787684975103
12:37:00,1,618,Brook Av,-73.91924,40.807566,2652.0199449680986
12:37:00,1,619,3 Av-138 St,-73.926138,40.810476,2536.9220969527046
12:37:00,1,621,125 St,-73.937594,40.804138,2110.06495273317
12:37:00,1,622,116 St,-73.941617,40.798629,2320.5788086736657
12:37:00,1,623,110 St,-73.94425,40.79502,2240.627931480683
12:37:00,1,624,103 St,-73.947478,40.7906,2164.2560016561215
12:37:00,1,625,96 St,-73.95107,40.785672,2077.7858262175246
12:37:00,1,626,86 St,-73.955589,40.779492,1828.6626318865492
12:37:00,1,627,77 St,-73.959874,40.77362,1882.6402549723387
12:37:00,1,628,68 St-Hunter College,-73.96387,40.768141,1793.0152549723387
12:37:00,1,629,59 St,-73.967967,40.762526,1631.5136957163363
12:37:00,1,630,51 St,-73.97192,40.757107,1600.0936107771354
12:37:00,1,631,Grand Central-42 St,-73.976848,40.751776,1461.2592705182328
12:15:30,1,632,33 St,-73.982076,40.746081,1362.8044791445936
12:15:30,1,633,28 St,-73.984264,40.74307,1295.9612588056107
12:15:30,1,634,23 St,-73.986599,40.739864,1223.9527842293394
12:19:30,1,635,14 St-Union Sq,-73.989951,40.734673,1115.7029091233712
12:19:30,1,636,Astor Pl,-73.99107,40.730054,1040.0121874738866
12:37:00,1,637,Bleecker St,-73.994659,40.725915,949.2954639243985
12:37:00,1,638,Spring St,-73.997141,40.722301,993.4331560183304
12:19:30,1,639,Canal St,-74.000193,40.718803,919.6561289913031
12:15:30,1,640,Brooklyn Bridge-City Hall,-74.004131,40.713065,968.2465562815371
12:07:00,1,701,Flushing-Main St,-73.83003,40.7596,3075.39244489632
12:07:00,1,702,Mets-Willets Point,-73.845625,40.754622,2899.082921086796
12:07:00,1,705,111 St,-73.855334,40.75173,2940.497649313853
12:07:00,1,706,103 St-Corona Plaza,-73.8627,40.749865,2844.960674053315
12:07:00,1,707,Junction Blvd,-73.869527,40.749145,2676.5383075024665
12:07:00,1,708,90 St-Elmhurst Av,-73.876613,40.748408,2721.8506740533153
12:07:00,1,709,82 St-Jackson Hts,-73.883697,40.747659,2642.470392363174
12:19:30,1,710,74 St-Broadway,-73.891394,40.746848,2500.2220930434464
12:19:30,1,711,69 St,-73.896403,40.746325,2452.810328337564
12:03:00,1,712,61 St-Woodside,-73.902984,40.74563,2380.9018776333387
12:03:00,1,713,52 St,-73.912549,40.744149,2266.35748779817
12:03:00,1,714,46 St-Bliss St,-73.918435,40.743132,2212.6638944834067
12:03:00,1,715,40 St-Lowery St,-73.924016,40.743781,2161.293420945802
12:03:00,1,716,33 St-Rawson St,-73.930997,40.744587,2093.013166168732
12:15:30,1,718,Queensboro Plaza,-73.940202,40.750582,1950.5383058335365
12:15:30,1,719,Court Sq,-73.945264,40.747023,1839.4186477138787
12:15:30,1,720,Hunters Point Av,-73.948916,40.742216,1745.62250446319
12:15:30,1,721,Vernon Blvd-Jackson Av,-73.953581,40.742626,1672.7007556581639
12:15:30,1,723,Grand Central-42 St,-73.976041,40.751431,1457.957165914574
12:15:30,1,724,5 Av,-73.981963,40.753821,1398.8551268498943
12:09:30,1,725,Times Sq-42 St,-73.987691,40.755477,1410.0351475152772
12:03:00,1,726,34 St-Hudson Yards,-74.00191,40.755882,1561.0052562109295
12:03:00,1,901,Grand Central-42 St,-73.979189,40.752769,1499.8574155410108
12:03:00,1,902,Times Sq-42 St,-73.986229,40.755983,1404.0040822076776
13:29:30,0,A02,Inwood-207 St,-73.919899,40.868072,3174.8473423853343
13:29:30,0,A03,Dyckman St,-73.927271,40.865491,3084.7743496846047
13:29:30,0,A05,190 St,-73.93418,40.859022,2961.181958380257
13:29:30,0,A06,181 St,-73.937969,40.851695,2847.94666426261
13:29:30,0,A07,175 St,-73.939704,40.847391,2751.2262341550827
13:29:30,0,A09,168 St,-73.939561,40.840719,2623.787731481286
12:09:30,0,A10,163 St-Amsterdam Av,-73.939892,40.836013,2642.9198140602075
12:09:30,0,A11,155 St,-73.941514,40.830518,2561.0864807268745
12:09:30,0,A12,145 St,-73.944216,40.824783,2378.9107261336926
12:09:30,0,A14,135 St,-73.947649,40.817894,2300.7465296791734
12:09:30,0,A15,125 St,-73.952343,40.811109,2151.465556959168
12:09:30,0,A16,116 St,-73.954882,40.805085,2163.822178536252
12:09:30,0,A17,Cathedral Pkwy (110 St),-73.958161,40.800603,2083.822178536252
12:09:30,0,A18,103 St,-73.961454,40.796092,1996.055944770018
12:09:30,0,A19,96 St,-73.964696,40.791642,1911.3026980167713
12:09:30,0,A20,86 St,-73.968916,40.785868,1809.421119069403
12:09:30,0,A21,81 St-Museum of Natural History,-73.972143,40.781433,1713.394452402736
12:09:30,0,A22,72 St,-73.97641,40.775594,1624.5144524027362
12:09:30,0,A24,59 St-Columbus Circle,-73.981736,40.768296,1484.869715560631
13:49:30,0,A25,50 St,-73.985984,40.762456,1628.866120118959
12:59:30,0,A27,42 St-Port Authority Bus Terminal,-73.989735,40.757308,1478.509925683874
12:19:30,1,A28,34 St-Penn Station,-73.993391,40.752287,1382.2196031032288
12:19:30,1,A30,23 St,-73.998041,40.745906,1319.4593414304634
12:19:30,1,A31,14 St,-74.00169,40.740893,1227.7896985733205
12:07:00,1,A32,W 4 St-Wash Sq,-74.000495,40.732338,1115.6668915557766
13:25:00,1,A33,Spring St,-74.003739,40.726227,1205.9240344129196
12:07:00,1,A34,Canal St,-74.005229,40.720824,1186.3571883525449
12:07:00,1,A36,Chambers St,-74.008585,40.714111,1063.4740126582637
12:07:00,1,A38,Fulton St,-74.007691,40.710197,961.7783604843509
12:07:00,1,A40,High St,-73.990531,40.699337,778.2044474408726
12:27:00,1,A41,Jay St-MetroTech,-73.987342,40.692338,651.0612421112264
12:07:00,1,A42,Hoyt-Schermerhorn Sts,-73.985001,40.688484,769.6835926140487
12:07:00,1,A43,Lafayette Av,-73.973946,40.686113,917.8117677000396
12:07:00,1,A44,Clinton-Washington Avs,-73.965838,40.683263,1002.4754040636759
12:07:00,1,A45,Franklin Av,-73.956848,40.68138,1039.7366884671173
13:43:00,1,A46,Nostrand Av,-73.950426,40.680438,1080.4689085602197
12:07:00,1,A47,Kingston-Throop Avs,-73.940858,40.679921,1180.8230752268864
13:43:00,1,A48,Utica Av,-73.930729,40.679364,1251.2891332793208
12:07:00,1,A49,Ralph Av,-73.920786,40.678822,1362.0065245836688
12:07:00,1,A50,Rockaway Av,-73.911946,40.67834,1474.60226926452
13:43:00,1,A51,Broadway Junction,-73.905316,40.678334,1485.4790774133992
13:43:00,1,A52,Liberty Av,-73.896548,40.674542,1606.86683251544
13:43:00,1,A53,Van Siclen Av,-73.890358,40.67271,1691.0268325154398
13:43:00,1,A54,Shepherd Av,-73.88075,40.67413,1796.0268325154398
13:43:00,1,A55,Euclid Av,-73.872106,40.675377,1793.1736158486783
13:43:00,1,A57,Grant Av,-73.86505,40.677044,1915.3561884627861
13:43:00,1,A59,80 St,-73.858992,40.679371,2012.7081884627864
13:43:00,1,A60,88 St,-73.85147,40.679843,2108.6683478253362
13:43:00,1,A61,Rockaway Blvd,-73.843853,40.680429,2199.0135859205743
13:33:00,1,A63,104 St,-73.837683,40.681711,2282.685585920575
13:33:00,1,A64,111 St,-73.832163,40.684331,2368.816733461558
13:33:00,1,A65,Ozone Park-Lefferts Blvd,-73.825798,40.685951,2457.8800246007986
12:23:00,0,B04,21 St-Queensbridge,-73.942836,40.754203,1998.855126849894
12:23:00,0,B06,Roosevelt Island,-73.95326,40.759145,1878.8551268498943
12:03:00,0,B08,Lexington Av/63 St,-73.966113,40.764629,1540.5216035687288
12:59:30,0,B10,57 St,-73.97745,40.763972,1578.8551268498943
12:09:30,1,B12,9 Av,-73.994324,40.646292,891.9243115473398
12:09:30,1,B13,Fort Hamilton Pkwy,-73.994304,40.640914,993.0268756499038
12:09:30,1,B14,50 St,-73.994791,40.63626,1072.05235335691
12:09:30,1,B15,55 St,-73.995476,40.631435,1171.8103151403495
12:09:30,1,B16,62 St,-73.996895,40.626472,1237.7823431123775
12:09:30,1,B17,71 St,-73.998864,40.619589,1340.27278897225
12:09:30,1,B18,79 St,-74.00061,40.613501,1446.83329852639
12:09:30,1,B19,18 Av,-74.001736,40.607954,1528.426846913487
12:09:30,1,B20,20 Av,-73.998168,40.604556,1610.4203534069934
12:09:30,1,B21,Bay Pkwy,-73.993728,40.601875,1687.9658079524481
12:09:30,1,B22,25 Av,-73.986829,40.597704,1807.0754853718029
12:09:30,1,B23,Bay 50 St,-73.983765,40.588841,1959.0490482389432
12:09:30,0,D01,Norwood-205 St,-73.878855,40.874811,3569.74936788383
12:09:30,0,D03,Bedford Park Blvd,-73.887138,40.873244,3398.262881397344
12:09:30,0,D04,Kingsbridge Rd,-73.893509,40.866978,3281.106631397344
12:09:30,0,D05,Fordham Rd,-73.897749,40.861296,3186.5751628658754
12:09:30,0,D06,182-183 Sts,-73.900741,40.856093,3099.6412560647123
12:09:30,0,D07,Tremont Av,-73.905227,40.85041,3021.5262118169244
12:09:30,0,D08,174-175 Sts,-73.910136,40.8459,2977.123509003142
12:09:30,0,D09,170 St,-73.9134,40.839306,2870.8670987467312
12:09:30,0,D10,167 St,-73.91844,40.833771,2765.947743908022
12:09:30,0,D11,161 St-Yankee Stadium,-73.925651,40.827905,2645.795439082781
12:09:30,0,D12,155 St,-73.938209,40.830135,2521.0670440210524
12:09:30,0,D13,145 St,-73.944216,40.824783,2386.8667915270694
12:09:30,0,D14,7 Av,-73.981637,40.762862,1382.5630488939644
12:09:30,0,D15,47-50 Sts-Rockefeller Ctr,-73.981329,40.758663,1278.4198327322472
12:09:30,0,D16,42 St-Bryant Pk,-73.984569,40.754222,1173.8551268498943
12:09:30,0,D17,34 St-Herald Sq,-73.987823,40.749719,1088.1963033204827
12:19:30,0,D18,23 St,-73.992821,40.742878,1310.7734905405484
12:19:30,0,D19,14 St,-73.996209,40.738228,1197.0002248891099
12:09:30,0,D20,W 4 St-Wash Sq,-74.000495,40.732338,875.6668915557767
12:09:30,0,D21,Broadway-Lafayette St,-73.996204,40.725297,737.0668915557767
12:09:30,0,D22,Grand St,-73.993753,40.718267,608.6551268498943
12:03:00,0,D24,Atlantic Av-Barclays Ctr,-73.97689,40.68446,0.0
12:00:00,0,D25,7 Av,-73.972367,40.67705,130.46113989637306
12:00:00,0,D26,Prospect Park,-73.962246,40.661614,311.60103626943004
12:00:00,0,D27,Parkside Av,-73.961495,40.655292,393.4818652849741
12:05:00,0,D28,Church Av,-73.962982,40.650527,443.63049029622056
12:00:00,0,D29,Beverley Rd,-73.964492,40.644031,550.502217905855
12:00:00,0,D30,Cortelyou Rd,-73.963891,40.640927,628.6977486321119
12:05:00,0,D31,Newkirk Plaza,-73.962793,40.635082,623.186045851776
12:14:00,0,D32,Avenue H,-73.961639,40.62927,740.0091523287552
12:14:00,0,D33,Avenue J,-73.960803,40.625039,827.3297942623188
12:14:00,0,D34,Avenue M,-73.959399,40.617618,931.4477429802675
12:05:00,0,D35,Kings Hwy,-73.957734,40.60867,871.3416014073317
12:05:00,0,D37,Avenue U,-73.955929,40.5993,1084.8109891624338
12:05:00,0,D38,Neck Rd,-73.955161,40.595246,1184.3470716366603
12:05:00,0,D39,Sheepshead Bay,-73.954155,40.586896,1107.7082680739984
12:05:00,0,D40,Brighton Beach,-73.961376,40.577621,1244.2499347406651
12:45:00,0,D41,Ocean Pkwy,-73.968501,40.576312,1377.2609273992093
12:45:00,0,D42,W 8 St-NY Aquarium,-73.975939,40.576127,1491.712540302435
12:45:00,0,D43,Coney Island-Stillwell Av,-73.981233,40.577422,1571.6680958579905
12:07:00,1,E01,World Trade Center,-74.009781,40.712582,1217.6073374173125
12:27:00,0,F01,Jamaica-179 St,-73.783817,40.712646,3462.6994664725357
12:23:00,0,F02,169 St,-73.793604,40.71047,3372.6994664725357
12:23:00,0,F03,Parsons Blvd,-73.803326,40.707564,3282.6994664725357
12:23:00,0,F04,Sutphin Blvd,-73.810708,40.70546,3258.855126849894
12:23:00,0,F05,Briarwood,-73.820574,40.709179,3138.855126849894
12:19:30,0,F06,Kew Gardens-Union Tpke,-73.831008,40.714441,3018.855126849894
12:23:00,0,F07,75 Av,-73.837324,40.718331,2928.855126849894
12:19:30,0,F09,Court Sq-23 St,-73.946,40.747846,1938.36045146723
12:19:30,0,F11,Lexington Av/53 St,-73.969055,40.757552,1734.7890228958015
12:19:30,0,F12,5 Av/53 St,-73.975224,40.760167,1635.6053494264136
12:39:30,0,F14,2 Av,-73.989938,40.723402,1059.0668915557767
12:07:00,1,F15,Delancey St-Essex St,-73.988114,40.718611,1007.9443471104402
13:17:00,1,F16,East Broadway,-73.990173,40.713715,919.7717582779528
13:17:00,1,F18,York St,-73.986751,40.701397,741.0612421112264
12:27:00,1,F20,Bergen St,-73.990862,40.686145,799.4749980185576
12:27:00,1,F21,Carroll St,-73.995048,40.680303,895.1448544778876
12:27:00,1,F22,Smith-9 Sts,-73.995959,40.67358,852.825208608109
12:27:00,1,F23,4 Av-9 St,-73.989779,40.670272,769.3595223335992
12:03:00,1,F24,7 Av,-73.980305,40.666271,887.2928556669326
12:03:00,1,F25,15 St-Prospect Park,-73.979493,40.660365,1007.0332902191318
12:03:00,1,F26,Fort Hamilton Pkwy,-73.975776,40.650782,1152.5014983116175
12:03:00,1,F27,Church Av,-73.979678,40.644041,1174.7913279601505
12:27:00,1,F29,Ditmas Av,-73.978172,40.636119,1295.4579946268173
12:27:00,1,F30,18 Av,-73.976971,40.629755,1415.4579946268173
12:27:00,1,F31,Avenue I,-73.976127,40.625322,1475.4579946268173
12:27:00,1,F32,Bay Pkwy,-73.975264,40.620769,1535.4579946268173
12:27:00,1,F33,Avenue N,-73.974197,40.61514,1655.4579946268173
12:27:00,1,F34,Avenue P,-73.973022,40.608944,1745.4579946268173
12:27:00,1,F35,Kings Hwy,-73.972361,40.603217,1898.124661293484
12:34:00,0,F36,Avenue U,-73.973357,40.596063,2003.0458736357682
12:34:00,0,F38,Avenue X,-73.97425,40.58962,1927.3529897406374
12:34:00,0,F39,Neptune Av,-73.974574,40.581011,1801.3792069691017
12:19:30,0,G05,Jamaica Center-Parsons/Archer,-73.801109,40.702147,3062.2182074335406
12:19:30,0,G06,Sutphin Blvd-Archer Av-JFK Airport,-73.807969,40.700486,3002.2182074335406
12:19:30,0,G07,Jamaica-Van Wyck,-73.816859,40.702566,3319.1444641017433
12:19:30,0,G08,Forest Hills-71 Av,-73.844521,40.721691,2808.855126849894
12:19:30,0,G09,67 Av,-73.852719,40.726523,2944.1855616325024
13:09:30,0,G10,63 Dr-Rego Park,-73.861604,40.729846,3030.3684873663865
13:09:30,0,G11,Woodhaven Blvd,-73.869229,40.733106,2935.7945743229084
13:09:30,0,G12,Grand Av-Newtown,-73.877223,40.737015,2833.707617801169
13:09:30,0,G13,Elmhurst Av,-73.882017,40.742454,2733.957617801169
12:19:30,0,G14,Jackson Hts-Roosevelt Av,-73.891338,40.746644,2388.855126849894
12:07:00,0,G15,65 St,-73.898453,40.749669,2628.373075073374
12:07:00,0,G16,Northern Blvd,-73.906006,40.752885,2534.043178166157
12:07:00,0,G18,46 St,-73.913333,40.756312,2444.043178166157
12:07:00,0,G19,Steinway St,-73.92074,40.756879,2327.1359616713116
12:07:00,0,G20,36 St,-73.928781,40.752039,2207.1359616713116
12:19:30,0,G21,Queens Plaza,-73.937243,40.748973,2061.7277984060056
12:07:00,1,G22,Court Sq,-73.943832,40.746554,2019.4186477138787
12:07:00,1,G24,21 St,-73.949724,40.744065,2108.7316248131156
12:07:00,1,G26,Greenpoint Av,-73.954449,40.731352,1945.3183654984925
12:07:00,1,G28,Nassau Av,-73.951277,40.724635,1850.9557281358552
12:07:00,1,G29,Metropolitan Av,-73.951418,40.712792,1718.8737609227405
12:07:00,1,G30,Broadway,-73.950308,40.706092,1646.965065827193
12:07:00,1,G31,Flushing Av,-73.950234,40.700377,1554.5162021908295
12:07:00,1,G32,Myrtle-Willoughby Avs,-73.949046,40.694568,1468.3457476453748
12:07:00,1,G33,Bedford-Nostrand Avs,-73.953522,40.689627,1366.7207476453748
12:07:00,1,G34,Classon Av,-73.96007,40.688873,1289.726272507253
12:07:00,1,G35,Clinton-Washington Avs,-73.966839,40.688089,1208.6333763323898
12:07:00,1,G36,Fulton St,-73.975375,40.687119,1111.9612920356626
12:45:00,1,H01,Aqueduct Racetrack,-73.834058,40.668234,2405.045331952321
13:43:00,1,H02,Aqueduct-N Conduit Av,-73.834058,40.668234,2422.310731613425
13:43:00,1,H03,Howard Beach-JFK Airport,-73.830301,40.660476,2559.293032498381
13:43:00,1,H04,Broad Channel,-73.815925,40.608382,2987.7140851299596
13:43:00,1,H06,Beach 67 St,-73.796924,40.590927,3282.722934687482
13:43:00,1,H07,Beach 60 St,-73.788522,40.592374,3394.9159171436227
13:43:00,1,H08,Beach 44 St,-73.776013,40.592943,3508.231232458938
13:43:00,1,H09,Beach 36 St,-73.768175,40.595398,3603.606232458938
13:43:00,1,H10,Beach 25 St,-73.761353,40.600066,3710.0312769985876
13:43:00,1,H11,Far Rockaway-Mott Av,-73.755405,40.603995,3791.2656239933294
12:07:00,1,H12,Beach 90 St,-73.813641,40.588034,3245.4858337444352
12:07:00,1,H13,Beach 98 St,-73.820558,40.585307,3323.8858337444353
12:07:00,1,H14,Beach 105 St,-73.827559,40.583209,3399.996944855546
12:07:00,1,H15,Rockaway Park-Beach 116 St,-73.835592,40.580903,3504.196944855546
12:07:00,2,J12,121 St,-73.828294,40.700492,2762.2182074335406
13:33:00,2,J13,111 St,-73.836345,40.697418,2918.013503346085
13:33:00,2,J14,104 St,-73.84433,40.695178,2582.2182074335406
13:33:00,2,J15,Woodhaven Blvd,-73.851576,40.693879,2469.5286546083685
13:33:00,2,J16,85 St-Forest Pkwy,-73.86001,40.692435,2478.9931308738082
13:33:00,2,J17,75 St-Elderts Ln,-73.867139,40.691324,2289.5286546083685
13:33:00,2,J19,Cypress Hills,-73.87255,40.689941,2276.7431308738082
13:33:00,2,J20,Crescent St,-73.873785,40.683194,2139.5286546083685
13:33:00,2,J21,Norwood Av,-73.880039,40.68141,2072.2182074335406
13:33:00,2,J22,Cleveland St,-73.884639,40.679947,2036.3598956314945
13:33:00,2,J23,Van Siclen Av,-73.891688,40.678024,1922.2182074335408
13:33:00,2,J24,Alabama Av,-73.898654,40.676992,1830.5286546083682
13:33:00,2,J27,Broadway Junction,-73.904512,40.679498,1717.8619879417015
13:33:00,2,J28,Chauncey St,-73.910456,40.682893,1806.2786546083682
12:03:00,1,J29,Halsey St,-73.916559,40.68637,1937.1072266091442
12:03:00,1,J30,Gates Av,-73.92227,40.68963,1893.6561277992103
12:03:00,1,J31,Kosciuszko St,-73.928814,40.693342,1881.536772837146
12:03:00,1,L01,8 Av,-74.002578,40.739777,1299.8914390767115
12:03:00,1,L02,6 Av,-73.996786,40.737335,1190.7969640765052
12:19:30,1,L03,14 St-Union Sq,-73.99073,40.734789,1114.4988274305426
12:03:00,1,L05,3 Av,-73.986122,40.732849,1179.057484145449
12:03:00,1,L06,1 Av,-73.981628,40.730953,1219.8874402669815
12:03:00,1,L08,Bedford Av,-73.956872,40.717304,1417.799294370325
12:03:00,1,L10,Lorimer St,-73.950275,40.714063,1505.6594767411457
12:03:00,1,L11,Graham Av,-73.944053,40.714565,1543.0302974098386
12:03:00,1,L12,Grand St,-73.94067,40.711926,1623.5526854695402
12:03:00,1,L13,Montrose Av,-73.93985,40.707739,1660.7460363491675
12:03:00,1,L14,Morgan Av,-73.933147,40.706152,1729.3856685629855
12:03:00,1,L15,Jefferson St,-73.922913,40.706607,1813.2673253677192
12:03:00,1,L16,DeKalb Av,-73.918425,40.703811,1878.9691325966346
12:03:00,1,L17,Myrtle-Wyckoff Avs,-73.911586,40.699814,1949.9781960407436
12:03:00,1,L19,Halsey St,-73.904084,40.695602,1982.4129312008602
12:07:00,2,L20,Wilson Av,-73.904046,40.688764,1865.4345361391318
13:43:00,2,L21,Bushwick Av-Aberdeen St,-73.905249,40.682829,1781.097730583576
13:43:00,2,L22,Broadway Junction,-73.90324,40.678856,1710.5008763007713
13:43:00,2,L24,Atlantic Av,-73.903097,40.675345,1644.1898638761968
13:43:00,2,L25,Sutter Av,-73.901975,40.669367,1566.9580456943786
13:43:00,2,L26,Livonia Av,-73.900571,40.664038,1508.0027192338976
13:43:00,2,L27,New Lots Av,-73.899232,40.658733,1568.3527192338975
13:43:00,2,L28,East 105 St,-73.899485,40.650573,1665.0791343282372
13:43:00,2,L29,Canarsie-Rockaway Pkwy,-73.90185,40.646654,1779.1660111423255
12:09:30,0,M01,Middle Village-Metropolitan Av,-73.889601,40.711396,2518.4232179674946
12:09:30,0,M04,Fresh Pond Rd,-73.895877,40.706186,2376.9098846341612
12:09:30,0,M05,Forest Av,-73.903077,40.704423,2268.751989897319
12:09:30,0,M06,Seneca Av,-73.90774,40.702762,2174.387751486723
12:09:30,0,M08,Myrtle-Wyckoff Avs,-73.912385,40.69943,2092.1601652798267
12:09:30,0,M09,Knickerbocker Av,-73.919711,40.698664,1982.828996448658
12:09:30,0,M10,Central Av,-73.927397,40.697857,1890.6483512873679
12:09:30,0,M11,Myrtle Av,-73.935657,40.697207,1726.4894611325435
12:09:30,0,M12,Flushing Av,-73.941126,40.70026,1727.4728655569663
12:09:30,0,M13,Lorimer St,-73.947408,40.703869,1635.6906873391445
12:09:30,0,M14,Hewes St,-73.953431,40.70687,1536.9533136017706
12:09:30,0,M16,Marcy Av,-73.957757,40.708359,1445.3433136017707
12:09:30,0,M18,Delancey St-Essex St,-73.987437,40.718315,1083.5008893593465
12:03:00,1,M19,Bowery,-73.993915,40.72028,1003.3650868902107
12:07:00,1,M20,Canal St,-73.999892,40.718092,905.3772820121619
12:07:00,1,M21,Chambers St,-74.003401,40.713243,1012.7394611325436
12:07:00,1,M22,Fulton St,-74.007582,40.710374,1100.2284685766015
12:07:00,1,M23,Broad St,-74.011056,40.706476,1166.9232054187069
12:09:30,1,N02,8 Av,-74.011719,40.635064,957.2619032859803
12:09:30,1,N03,Fort Hamilton Pkwy,-74.005351,40.631386,1027.2619032859805
12:09:30,1,N04,New Utrecht Av,-73.996353,40.624842,1167.2619032859802
12:09:30,1,N05,18 Av,-73.990414,40.620671,1257.2619032859802
12:09:30,1,N06,20 Av,-73.985026,40.61741,1327.2619032859805
12:09:30,1,N07,Bay Pkwy,-73.981848,40.611815,1417.2619032859805
12:09:30,1,N08,Kings Hwy,-73.980353,40.603923,1537.2619032859805
12:09:30,1,N09,Avenue U,-73.979137,40.597473,1637.2619032859805
12:09:30,1,N10,86 St,-73.97823,40.592721,1697.2619032859805
12:03:00,0,Q01,Canal St,-74.00046,40.718383,643.1054959823053
12:03:00,0,Q03,72 St,-73.958424,40.768799,1659.830504092289
12:03:00,0,Q04,86 St,-73.951787,40.777891,1812.2284098514513
12:03:00,0,Q05,96 St,-73.947152,40.784318,1885.366340885934
12:03:00,0,R01,Astoria-Ditmars Blvd,-73.912034,40.775036,2631.804971993748
12:03:00,0,R03,Astoria Blvd,-73.917843,40.770258,2530.6267541719662
12:03:00,0,R04,30 Av,-73.921479,40.766779,2430.773420838633
12:03:00,0,R05,Broadway,-73.925508,40.76182,2334.240953306165
12:03:00,0,R06,36 Av,-73.929575,40.756804,2239.398848043007
12:03:00,0,R08,39 Av-Dutch Kills,-73.932755,40.752882,2134.0788480430074
12:03:00,0,R09,Queensboro Plaza,-73.940202,40.750582,1997.5383075024665
12:03:00,0,R11,Lexington Av/59 St,-73.967258,40.76266,1824.4818083699063
12:03:00,0,R13,5 Av/59 St,-73.973347,40.764811,1732.8782580740483
12:03:00,0,R14,57 St-7 Av,-73.980658,40.764664,1368.7184947604387
12:27:00,0,R15,49 St,-73.984139,40.759901,1460.8851614271055
12:03:00,0,R16,Times Sq-42 St,-73.986754,40.754672,1184.5771335038942
12:03:00,0,R17,34 St-Herald Sq,-73.98795,40.749567,1090.9833835038944
12:15:30,0,R18,28 St,-73.988691,40.745494,1306.5143756899822
12:15:30,0,R19,23 St,-73.989344,40.741303,1225.331277098433
12:03:00,0,R20,14 St-Union Sq,-73.990568,40.735736,900.5377876489721
12:03:00,0,R21,8 St-NYU,-73.992629,40.730328,1126.2048940637587
12:15:30,1,R22,Prince St,-73.997702,40.724329,1019.9221993980807
12:07:00,0,R23,Canal St,-74.001775,40.719527,915.2364851123664
12:07:00,0,R24,City Hall,-74.006978,40.713282,1077.1452146375398
12:07:00,0,R25,Cortlandt St,-74.011029,40.710668,1056.0087211888758
12:07:00,0,R26,Rector St,-74.013342,40.70722,912.7909718409561
12:07:00,0,R27,Whitehall St-South Ferry,-74.012994,40.703087,846.0612421112264
12:07:00,0,R28,Court St,-73.991777,40.6941,612.2909604519773
12:07:00,0,R29,Jay St-MetroTech,-73.985942,40.69218,516.0612421112264
12:03:00,0,R30,DeKalb Av,-73.981824,40.690635,159.7909604519774
12:15:30,0,R31,Atlantic Av-Barclays Ctr,-73.97881,40.683666,167.26190328598022
12:15:30,0,R32,Union St,-73.98311,40.677316,439.31190328598024
12:15:30,0,R33,4 Av-9 St,-73.988302,40.670847,544.3595223335992
12:15:30,0,R34,Prospect Av,-73.992872,40.665414,651.2095223335994
12:15:30,0,R35,25 St,-73.998091,40.660397,687.2619032859803
12:15:30,0,R36,36 St,-74.003549,40.655144,507.2619032859803
12:09:30,1,R39,45 St,-74.010006,40.648939,717.2619032859803
12:09:30,1,R40,53 St,-74.014034,40.645069,827.2619032859803
12:09:30,1,R41,59 St,-74.017881,40.641362,777.2619032859803
12:09:30,1,R42,Bay Ridge Av,-74.023377,40.634967,938.0719045821779
12:09:30,1,R43,77 St,-74.02551,40.629742,1018.3446318549051
12:09:30,1,R44,86 St,-74.028398,40.622687,1194.6958223310955
12:09:30,1,R45,Bay Ridge-95 St,-74.030876,40.616622,1271.7115703625916
12:14:00,0,S01,Franklin Av,-73.955827,40.680596,829.7366884671175
12:14:00,0,S03,Park Pl,-73.957624,40.674772,729.7599442810711
12:14:00,0,S04,Botanic Garden,-73.959245,40.670343,638.6560952255763
