start_time,ntransfers,stop_id,stop_name,stop_lon,stop_lat,duration
13:34:30,1,101,Van Cortlandt Park-242 St,-73.898583,40.889248,5084.674911155912
13:34:30,1,103,238 St,-73.90087,40.884667,4979.888620833331
13:34:30,1,104,231 St,-73.904834,40.878856,4887.2901652348755
13:34:30,1,106,Marble Hill-225 St,-73.909831,40.874561,4799.442889181723
13:34:30,1,107,215 St,-73.915279,40.869444,4709.825220585429
13:34:30,1,108,207 St,-73.918822,40.864621,4620.927152665987
13:34:30,1,109,Dyckman St,-73.925536,40.860531,4520.614377335591
13:34:30,1,110,191 St,-73.929412,40.855225,4436.769549749383
13:34:30,1,111,181 St,-73.933596,40.849505,4345.739506830929
12:14:30,1,112,168 St-Washington Hts,-73.940133,40.840556,4226.537790092731
12:14:30,1,113,157 St,-73.94489,40.834041,4172.525048380238
12:14:30,1,114,145 St,-73.95036,40.826551,4055.271829496118
12:14:30,1,115,137 St-City College,-73.953676,40.822008,3954.395761120049
12:14:30,1,116,125 St,-73.958372,40.815581,3859.0707611200487
12:14:30,1,117,116 St-Columbia University,-73.96411,40.807722,3744.841594453382
12:14:30,1,118,Cathedral Pkwy (110 St),-73.966847,40.803967,3665.887048998837
12:14:30,1,119,103 St,-73.968379,40.799446,3586.3583604742466
12:14:30,1,120,96 St,-73.972323,40.793919,3327.8109863016252
12:54:30,1,121,86 St,-73.976218,40.788644,3375.956721129984
12:54:30,1,122,79 St,-73.979917,40.783934,3299.082737390147
12:14:30,1,123,72 St,-73.98197,40.778453,3148.2765035430048
12:54:30,1,124,66 St-Lincoln Center,-73.982209,40.77344,3206.9701533186544
13:34:30,1,125,59 St-Columbus Circle,-73.981929,40.768247,3129.621838711913
13:34:30,1,126,50 St,-73.983849,40.761728,3025.952665779582
12:14:30,1,127,Times Sq-42 St,-73.987495,40.75529,2900.574177285541
12:14:30,1,128,34 St-Penn Station,-73.991057,40.750373,2875.9895876457085
12:14:30,1,129,28 St,-73.993365,40.747215,3082.1134169696793
12:14:30,1,130,23 St,-73.995657,40.744081,3045.8666032758256
12:14:30,1,131,18 St,-73.997871,40.74104,2977.688572972795
12:14:30,1,132,14 St,-74.000201,40.737826,2715.7038733599943
12:54:30,1,133,Christopher St-Sheridan Sq,-74.002906,40.733422,2949.614854703236
12:54:30,1,134,Houston St,-74.005367,40.728251,2866.518700857082
12:54:30,1,135,Canal St,-74.006277,40.722854,2779.51097884936
12:54:30,1,136,Franklin St,-74.006886,40.719318,2715.3180654635335
12:14:30,1,137,Chambers St,-74.009266,40.715478,2437.5547179275586
13:34:30,1,138,WTC Cortlandt,-74.012188,40.711835,2592.191503402154
13:34:30,1,139,Rector St,-74.013783,40.707513,2515.6813819446643
13:34:30,1,142,South Ferry,-74.013664,40.702068,2412.590472853755
12:32:30,1,201,Wakefield-241 St,-73.85062,40.903125,5976.979787039322
13:52:30,1,204,Nereid Av,-73.854376,40.898379,5679.963973677358
13:52:30,1,205,233 St,-73.857473,40.893193,5589.963973677358
13:52:30,1,206,225 St,-73.860341,40.888022,5499.963973677358
13:52:30,1,207,219 St,-73.862633,40.883895,5409.963973677358
13:52:30,1,208,Gun Hill Rd,-73.866256,40.87785,5304.963973677358
13:52:30,1,209,Burke Av,-73.867164,40.871356,5352.7796238434985
13:52:30,1,210,Allerton Av,-73.867352,40.865462,5260.6491890608895
13:52:30,1,211,Pelham Pkwy,-73.867615,40.857192,5135.963973677358
13:52:30,1,212,Bronx Park East,-73.868457,40.848828,4990.963973677358
13:52:30,1,213,E 180 St,-73.873488,40.841894,4821.1709281913245
12:32:30,1,214,West Farms Sq-E Tremont Av,-73.880049,40.840295,4711.330106756738
12:32:30,1,215,174 St,-73.887734,40.837288,4581.2438998601865
12:32:30,1,216,Freeman St,-73.891865,40.829993,4461.40629302258
12:32:30,1,217,Simpson St,-73.893064,40.824073,4351.024937090377
13:52:30,1,218,Intervale Av,-73.896736,40.822181,4278.1012082768175
13:52:30,1,219,Prospect Av,-73.90177,40.819585,4192.219852344614
12:32:30,1,220,Jackson Av,-73.907807,40.81649,4100.161028815202
13:52:30,1,221,3 Av-149 St,-73.917757,40.816109,3978.4526954818693
12:32:30,1,222,149 St-Grand Concourse,-73.926718,40.81841,3863.392993989332
12:14:30,1,224,135 St,-73.94077,40.814229,3873.412227794834
12:14:30,1,225,125 St,-73.945495,40.807754,3765.620320280383
12:14:30,1,226,116 St,-73.949625,40.802098,3667.5104936907874
12:14:30,1,227,Central Park North (110 St),-73.951822,40.799075,3590.89144607174
12:14:30,1,228,Park Place,-74.008811,40.713051,2350.2981734249406
12:14:30,1,229,Fulton St,-74.006571,40.709416,2242.701314786197
12:14:30,1,230,Wall St,-74.0091,40.706821,2169.591367142218
12:14:30,1,231,Clark St,-73.993086,40.697466,1975.491367142218
12:14:30,1,232,Borough Hall,-73.989998,40.693219,1861.800267665778
12:14:30,1,233,Hoyt St,-73.985065,40.690545,1777.276951603602
12:14:30,1,234,Nevins St,-73.980492,40.688246,1682.2660820383846
12:14:30,1,235,Atlantic Av-Barclays Ctr,-73.977666,40.684359,1602.2609273992093
12:14:30,1,236,Bergen St,-73.975098,40.680829,1679.431030491993
12:14:30,1,237,Grand Army Plaza,-73.971046,40.675235,1789.404392782401
12:36:30,1,238,Eastern Pkwy-Brooklyn Museum,-73.964375,40.671987,1734.0300836954073
12:14:30,1,239,Franklin Av-Medgar Evers College,-73.958131,40.670682,1625.8928287934466
12:06:30,1,241,President St-Medgar Evers College,-73.950683,40.667883,1778.580008280626
12:06:30,1,242,Sterling St,-73.95085,40.662742,1871.1616409336873
12:06:30,1,243,Winthrop St,-73.9502,40.656652,1956.5791667068831
12:06:30,1,244,Church Av,-73.949575,40.650843,2037.6012661543969
12:06:30,1,245,Beverly Rd,-73.948959,40.645098,2121.022585951351
12:06:30,1,246,Newkirk Av-Little Haiti,-73.948411,40.639967,2204.804311839676
12:06:30,1,247,Flatbush Av-Brooklyn College,-73.947642,40.632836,2322.17509835653
12:06:30,1,248,Nostrand Av,-73.950466,40.669847,1740.3314252846747
12:06:30,1,249,Kingston Av,-73.942161,40.669399,1825.9564252846744
12:36:30,1,250,Crown Hts-Utica Av,-73.932942,40.668897,1854.4847570445677
12:06:30,1,251,Sutter Av-Rutland Rd,-73.92261,40.664717,1991.4847570445677
12:06:30,1,252,Saratoga Av,-73.916327,40.661453,2088.018090377901
12:06:30,1,253,Rockaway Av,-73.908946,40.662549,2175.268090377901
12:06:30,1,254,Junius St,-73.902447,40.663515,2254.1014237112345
12:06:30,1,255,Pennsylvania Av,-73.894895,40.664635,2351.1014237112345
12:06:30,1,256,Van Siclen Av,-73.889395,40.665449,2425.684757044568
12:06:30,1,257,New Lots Av,-73.884079,40.666235,2517.5574843172953
12:32:30,1,301,Harlem-148 St,-73.93647,40.82388,4142.606074731015
12:32:30,1,302,145 St,-73.936245,40.820421,4010.371292122319
13:34:30,1,401,Woodlawn,-73.878751,40.886037,5181.758687237168
13:34:30,1,402,Mosholu Pkwy,-73.884655,40.87975,5058.813296461321
12:14:30,1,405,Bedford Park Blvd-Lehman College,-73.890064,40.873412,4922.543758633188
12:14:30,1,406,Kingsbridge Rd,-73.897174,40.86776,4802.753787342988
12:14:30,1,407,Fordham Rd,-73.901034,40.862803,4711.40738211423
12:14:30,1,408,183 St,-73.903879,40.858407,4630.708035709002
12:14:30,1,409,Burnside Av,-73.907684,40.853453,4537.5359045614605
12:14:30,1,410,176 St,-73.911794,40.84848,4462.850212472263
12:14:30,1,411,Mt Eden Av,-73.914685,40.844434,4385.13946867061
12:14:30,1,412,170 St,-73.917791,40.840075,4305.59814635656
12:14:30,1,413,167 St,-73.9214,40.835537,4217.689432663615
12:14:30,1,414,161 St-Yankee Stadium,-73.925831,40.827994,4083.8718087443845
12:14:30,1,415,149 St-Grand Concourse,-73.927351,40.818375,3853.9268087443847
12:14:30,1,416,138 St-Grand Concourse,-73.929849,40.813224,3706.254307857945
12:14:30,1,418,Fulton St,-74.009509,40.710368,2262.3293896229966
12:14:30,1,419,Wall St,-74.011862,40.707557,2185.1179358785034
12:14:30,1,420,Bowling Green,-74.014065,40.704817,2111.12711019043
12:14:30,1,423,Borough Hall,-73.990151,40.692404,1842.4784615417811
13:52:30,1,501,Eastchester-Dyre Av,-73.830834,40.8883,5596.770968520327
13:52:30,1,502,Baychester Av,-73.838591,40.878663,5466.40833115769
13:52:30,1,503,Gun Hill Rd,-73.846384,40.869526,5307.639513953388
13:52:30,1,504,Pelham Pkwy,-73.855359,40.858985,5150.280818301215
13:52:30,1,505,Morris Park,-73.860495,40.854364,5062.599499619896
13:34:30,1,601,Pelham Bay Park,-73.828121,40.852462,5358.6186459296
13:34:30,1,602,Buhre Av,-73.832569,40.84681,5175.191695574989
13:34:30,1,603,Middletown Rd,-73.836322,40.843863,5066.358362241656
13:34:30,1,604,Westchester Sq-E Tremont Av,-73.842952,40.839892,4921.608362241656
13:34:30,1,606,Zerega Av,-73.847036,40.836488,4823.525028908323
13:34:30,1,607,Castle Hill Av,-73.851222,40.834255,4756.19169557499
12:14:30,1,608,Parkchester,-73.860816,40.833226,4600.19169557499
12:14:30,1,609,St Lawrence Av,-73.867618,40.831509,4838.12906205911
12:14:30,1,610,Morrison Av-Soundview,-73.874516,40.829521,4753.061332975444
12:14:30,1,611,Elder Av,-73.879159,40.828584,4687.8973329754435
12:14:30,1,612,Whitlock Av,-73.886283,40.826525,4581.557332975443
12:14:30,1,613,Hunts Point Av,-73.890549,40.820948,4343.807080190374
12:14:30,1,614,Longwood Av,-73.896435,40.816104,4426.099263427079
12:32:30,1,615,E 149 St,-73.904098,40.812118,4324.990930093745
12:32:30,1,616,E 143 St-St Mary's St,-73.907657,40.808719,4250.1486064422925
12:32:30,1,617,Cypress Av,-73.914042,40.805368,4151.228104350242
12:32:30,1,618,Brook Av,-73.91924,40.807566,4081.6692808208304
12:14:30,1,619,3 Av-138 St,-73.926138,40.810476,3964.7301571134512
12:14:30,1,621,125 St,-73.937594,40.804138,3537.8730128939164
12:32:30,1,622,116 St,-73.941617,40.798629,3697.839736072875
12:14:30,1,623,110 St,-73.94425,40.79502,3617.8888588798923
12:14:30,1,624,103 St,-73.947478,40.7906,3541.516929055331
12:14:30,1,625,96 St,-73.95107,40.785672,3455.0467536167343
12:14:30,1,626,86 St,-73.955589,40.779492,3253.477329440679
12:14:30,1,627,77 St,-73.959874,40.77362,3259.9011823715477
12:14:30,1,628,68 St-Hunter College,-73.96387,40.768141,3170.276182371548
12:14:30,1,629,59 St,-73.967967,40.762526,3056.3283932704667
12:14:30,1,630,51 St,-73.97192,40.757107,2977.3545381763447
12:14:30,1,631,Grand Central-42 St,-73.976848,40.751776,2869.714678036484
12:14:30,1,632,33 St,-73.982076,40.746081,2761.6837502014328
12:14:30,1,633,28 St,-73.984264,40.74307,2694.8280800983403
12:14:30,1,634,23 St,-73.986599,40.739864,2631.575520371378
12:14:30,1,635,14 St-Union Sq,-73.989951,40.734673,2492.9638365225806
12:14:30,1,636,Astor Pl,-73.99107,40.730054,2417.2731148730963
12:14:30,1,637,Bleecker St,-73.994659,40.725915,2326.556391323608
12:14:30,1,638,Spring St,-73.997141,40.722301,2395.706051187554
12:14:30,1,639,Canal St,-74.000193,40.718803,2417.32771550061
12:14:30,1,640,Brooklyn Bridge-City Hall,-74.004131,40.713065,2373.2853367595603
13:52:30,1,701,Flushing-Main St,-73.83003,40.7596,4452.653372295528
13:52:30,1,702,Mets-Willets Point,-73.845625,40.754622,4276.343848486005
13:52:30,1,705,111 St,-73.855334,40.75173,4317.758576713062
13:52:30,1,706,103 St-Corona Plaza,-73.8627,40.749865,4222.221601452525
13:52:30,1,707,Junction Blvd,-73.869527,40.749145,4053.799234901676
13:52:30,1,708,90 St-Elmhurst Av,-73.876613,40.748408,4099.111601452525
13:52:30,1,709,82 St-Jackson Hts,-73.883697,40.747659,4019.7313197623844
12:54:30,1,710,74 St-Broadway,-73.891394,40.746848,3877.4830204426567
12:54:30,1,711,69 St,-73.896403,40.746325,3830.071255736774
12:54:30,1,712,61 St-Woodside,-73.902984,40.74563,3758.1628050325485
12:14:30,1,713,52 St,-73.912549,40.744149,3643.6184151973794
12:14:30,1,714,46 St-Bliss St,-73.918435,40.743132,3589.9248218826165
12:14:30,1,715,40 St-Lowery St,-73.924016,40.743781,3538.5543483450115
12:14:30,1,716,33 St-Rawson St,-73.930997,40.744587,3470.2740935679417
12:14:30,1,718,Queensboro Plaza,-73.940202,40.750582,3327.799233232746
12:14:30,1,719,Court Sq,-73.945264,40.747023,3216.679575113088
12:14:30,1,720,Hunters Point Av,-73.948916,40.742216,3122.8834318623994
12:14:30,1,721,Vernon Blvd-Jackson Av,-73.953581,40.742626,3049.9616830573736
12:14:30,1,723,Grand Central-42 St,-73.976041,40.751431,2835.218093313784
13:56:30,1,724,5 Av,-73.981963,40.753821,2776.116054249104
12:14:30,1,725,Times Sq-42 St,-73.987691,40.755477,2826.616054249104
12:14:30,1,726,34 St-Hudson Yards,-74.00191,40.755882,2956.616054249104
12:22:30,1,901,Grand Central-42 St,-73.979189,40.752769,2997.5290020503176
12:14:30,2,902,Times Sq-42 St,-73.986229,40.755983,2901.675668716984
13:34:30,0,A02,Inwood-207 St,-73.919899,40.868072,4552.108269784545
13:34:30,0,A03,Dyckman St,-73.927271,40.865491,4462.035277083815
13:34:30,0,A05,190 St,-73.93418,40.859022,4338.442885779466
13:34:30,0,A06,181 St,-73.937969,40.851695,4225.20759166182
13:34:30,0,A07,175 St,-73.939704,40.847391,4128.487161554293
13:34:30,0,A09,168 St,-73.939561,40.840719,4001.048658880496
13:34:30,0,A10,163 St-Amsterdam Av,-73.939892,40.836013,4020.180741459418
13:34:30,0,A11,155 St,-73.941514,40.830518,3938.3474081260847
13:34:30,0,A12,145 St,-73.944216,40.824783,3756.1716535329024
12:14:30,0,A14,135 St,-73.947649,40.817894,3678.007457078383
13:34:30,0,A15,125 St,-73.952343,40.811109,3528.726484358378
12:14:30,0,A16,116 St,-73.954882,40.805085,3587.998913291661
12:14:30,0,A17,Cathedral Pkwy (110 St),-73.958161,40.800603,3494.776691069439
12:14:30,0,A18,103 St,-73.961454,40.796092,3427.886447167
12:14:30,0,A19,96 St,-73.964696,40.791642,3336.337666679195
12:14:30,0,A20,86 St,-73.968916,40.785868,3245.1547398499265
12:14:30,0,A21,81 St-Museum of Natural History,-73.972143,40.781433,3163.9142335208126
12:14:30,0,A22,72 St,-73.97641,40.775594,3059.9142335208126
12:14:30,0,A24,59 St-Columbus Circle,-73.981736,40.768296,2936.711852568432
13:34:30,0,A25,50 St,-73.985984,40.762456,3006.1270475181686
12:14:30,1,A27,42 St-Port Authority Bus Terminal,-73.989735,40.757308,2855.7708530830837
12:14:30,1,A28,34 St-Penn Station,-73.993391,40.752287,2759.4805305024383
12:14:30,1,A30,23 St,-73.998041,40.745906,2696.720268829673
12:54:30,1,A31,14 St,-74.00169,40.740893,2605.0506259725303
12:22:30,1,A32,W 4 St-Wash Sq,-74.000495,40.732338,2492.9278189549864
12:54:30,1,A33,Spring St,-74.003739,40.726227,2583.184961812129
12:14:30,1,A34,Canal St,-74.005229,40.720824,2571.9390485658996
13:01:30,0,A36,Chambers St,-74.008585,40.714111,2450.0032434007926
13:01:30,0,A38,Fulton St,-74.007691,40.710197,2348.307591226879
13:01:30,0,A40,High St,-73.990531,40.699337,2164.733678183401
13:01:30,0,A41,Jay St-MetroTech,-73.987342,40.692338,2037.590472853755
13:01:30,0,A42,Hoyt-Schermerhorn Sts,-73.985001,40.688484,2156.2128233565772
13:01:30,0,A43,Lafayette Av,-73.973946,40.686113,2043.3969657325522
12:46:30,1,A44,Clinton-Washington Avs,-73.965838,40.683263,1959.657469934233
13:01:30,0,A45,Franklin Av,-73.956848,40.68138,1860.1405207816908
12:46:30,1,A46,Nostrand Av,-73.950426,40.680438,1937.7930631545723
12:04:00,0,A47,Kingston-Throop Avs,-73.940858,40.679921,2037.2663349014774
12:04:00,0,A48,Utica Av,-73.930729,40.679364,2135.6149587546884
12:04:00,0,A49,Ralph Av,-73.920786,40.678822,2242.3897335294632
12:04:00,0,A50,Rockaway Av,-73.911946,40.67834,2337.9401922450597
12:04:00,0,A51,Broadway Junction,-73.905316,40.678334,2412.7128785736554
12:04:00,0,A52,Liberty Av,-73.896548,40.674542,2544.824239135987
12:04:00,0,A53,Van Siclen Av,-73.890358,40.67271,2631.198070911688
12:04:00,0,A54,Shepherd Av,-73.88075,40.67413,2736.4317157715013
12:04:00,0,A55,Euclid Av,-73.872106,40.675377,2713.024506480632
12:04:00,0,A57,Grant Av,-73.86505,40.677044,2835.20707909474
12:04:00,0,A59,80 St,-73.858992,40.679371,2932.5590790947404
12:04:00,0,A60,88 St,-73.85147,40.679843,3028.51923845729
12:04:00,0,A61,Rockaway Blvd,-73.843853,40.680429,3118.8644765525282
12:32:30,0,A63,104 St,-73.837683,40.681711,3202.5364765525283
12:32:30,0,A64,111 St,-73.832163,40.684331,3288.6676240935117
12:32:30,0,A65,Ozone Park-Lefferts Blvd,-73.825798,40.685951,3377.730915232752
12:14:30,0,B04,21 St-Queensbridge,-73.942836,40.754203,3376.116054249104
12:14:30,0,B06,Roosevelt Island,-73.95326,40.759145,3256.116054249104
12:14:30,0,B08,Lexington Av/63 St,-73.966113,40.764629,3042.8263398781464
12:14:30,0,B10,57 St,-73.97745,40.763972,2956.116054249104
12:35:30,0,B12,9 Av,-73.994324,40.646292,1589.265200023819
12:35:30,0,B13,Fort Hamilton Pkwy,-73.994304,40.640914,1488.162635921255
12:35:30,0,B14,50 St,-73.994791,40.63626,1409.1371582142488
12:35:30,0,B15,55 St,-73.995476,40.631435,1309.379196430809
12:35:30,0,B16,62 St,-73.996895,40.626472,1243.4071684587811
12:35:30,0,B17,71 St,-73.998864,40.619589,1171.1370439043226
12:35:30,0,B18,79 St,-74.00061,40.613501,1084.1734075406862
12:35:30,0,B19,18 Av,-74.001736,40.607954,993.1734075406862
12:35:30,0,B20,20 Av,-73.998168,40.604556,912.528437126485
12:35:30,0,B21,Bay Pkwy,-73.993728,40.601875,825.7885527334214
12:35:30,0,B22,25 Av,-73.986829,40.597704,726.47998130485
12:35:30,0,B23,Bay 50 St,-73.983765,40.588841,581.7881208397337
12:14:30,0,D01,Norwood-205 St,-73.878855,40.874811,4947.01029528304
12:14:30,0,D03,Bedford Park Blvd,-73.887138,40.873244,4775.523808796554
12:14:30,0,D04,Kingsbridge Rd,-73.893509,40.866978,4658.367558796554
12:14:30,0,D05,Fordham Rd,-73.897749,40.861296,4563.836090265085
12:14:30,0,D06,182-183 Sts,-73.900741,40.856093,4476.902183463922
12:54:30,0,D07,Tremont Av,-73.905227,40.85041,4398.787139216134
12:54:30,0,D08,174-175 Sts,-73.910136,40.8459,4354.384436402351
12:54:30,0,D09,170 St,-73.9134,40.839306,4248.128026145941
12:54:30,0,D10,167 St,-73.91844,40.833771,4143.208671307231
12:54:30,0,D11,161 St-Yankee Stadium,-73.925651,40.827905,4025.827718926279
12:54:30,0,D12,155 St,-73.938209,40.830135,3907.627718926279
12:14:30,0,D13,145 St,-73.944216,40.824783,3764.127718926279
12:14:30,0,D14,7 Av,-73.981637,40.762862,2772.0689954255745
12:14:30,0,D15,47-50 Sts-Rockefeller Ctr,-73.981329,40.758663,2655.6807601314567
12:14:30,0,D16,42 St-Bryant Pk,-73.984569,40.754222,2551.116054249104
12:14:30,0,D17,34 St-Herald Sq,-73.987823,40.749719,2465.4572307196922
12:54:30,0,D18,23 St,-73.992821,40.742878,2688.034417939758
12:54:30,0,D19,14 St,-73.996209,40.738228,2574.2611522883194
12:14:30,0,D20,W 4 St-Wash Sq,-74.000495,40.732338,2252.9278189549864
12:14:30,0,D21,Broadway-Lafayette St,-73.996204,40.725297,2114.327818954986
12:14:30,0,D22,Grand St,-73.993753,40.718267,1985.9160542491038
12:14:30,0,D24,Atlantic Av-Barclays Ctr,-73.97689,40.68446,1377.2609273992093
12:14:30,0,D25,7 Av,-73.972367,40.67705,1244.897291035573
12:14:30,0,D26,Prospect Park,-73.962246,40.661614,1065.147291035573
12:06:30,0,D27,Parkside Av,-73.961495,40.655292,1090.1066289983376
12:14:30,0,D28,Church Av,-73.962982,40.650527,933.6304371029887
12:06:30,0,D29,Beverley Rd,-73.964492,40.644031,929.2006391202798
12:06:30,0,D30,Cortelyou Rd,-73.963891,40.640927,869.1473057869464
12:14:30,0,D31,Newkirk Plaza,-73.962793,40.635082,754.0748815474333
12:06:30,0,D32,Avenue H,-73.961639,40.62927,813.8315774309146
12:06:30,0,D33,Avenue J,-73.960803,40.625039,744.3440774309146
12:06:30,0,D34,Avenue M,-73.959399,40.617618,640.226128712966
12:06:30,0,D35,Kings Hwy,-73.957734,40.60867,505.91932599187766
12:06:30,0,D37,Avenue U,-73.955929,40.5993,431.05265932521087
12:06:30,0,D38,Neck Rd,-73.955161,40.595246,331.51657685098405
12:06:30,0,D39,Sheepshead Bay,-73.954155,40.586896,209.55265932521087
12:06:30,0,D40,Brighton Beach,-73.961376,40.577621,82.78977272727273
12:32:30,0,D41,Ocean Pkwy,-73.968501,40.576312,0.0
12:04:00,0,D42,W 8 St-NY Aquarium,-73.975939,40.576127,114.45161290322581
12:04:00,0,D43,Coney Island-Stillwell Av,-73.981233,40.577422,194.40716845878137
13:31:30,0,E01,World Trade Center,-74.009781,40.712582,2599.644327161055
13:12:30,0,F01,Jamaica-179 St,-73.783817,40.712646,4839.960393871745
13:34:30,0,F02,169 St,-73.793604,40.71047,4749.960393871745
13:34:30,0,F03,Parsons Blvd,-73.803326,40.707564,4659.960393871745
13:34:30,0,F04,Sutphin Blvd,-73.810708,40.70546,4634.014664167577
13:34:30,0,F05,Briarwood,-73.820574,40.709179,4413.707439123962
12:54:30,0,F06,Kew Gardens-Union Tpke,-73.831008,40.714441,4396.116054249103
13:34:30,0,F07,75 Av,-73.837324,40.718331,4306.116054249103
12:54:30,0,F09,Court Sq-23 St,-73.946,40.747846,3321.6527009596593
12:54:30,0,F11,Lexington Av/53 St,-73.969055,40.757552,3118.0812723882304
12:54:30,0,F12,5 Av/53 St,-73.975224,40.760167,3018.897598918843
12:14:30,0,F14,2 Av,-73.989938,40.723402,2436.3278189549865
12:04:00,0,F15,Delancey St-Essex St,-73.988114,40.718611,2390.743859512218
12:04:00,0,F16,East Broadway,-73.990173,40.713715,2302.571270679731
12:04:00,0,F18,York St,-73.986751,40.701397,2127.590472853755
13:01:30,0,F20,Bergen St,-73.990862,40.686145,2185.430472853755
13:01:30,0,F21,Carroll St,-73.995048,40.680303,2095.4088064875673
13:01:30,0,F22,Smith-9 Sts,-73.995959,40.67358,1957.8389740853327
13:01:30,0,F23,4 Av-9 St,-73.989779,40.670272,1871.2167518631106
13:01:30,0,F24,7 Av,-73.980305,40.666271,1705.1182795698926
13:01:30,0,F25,15 St-Prospect Park,-73.979493,40.660365,1690.8698112107154
13:01:30,0,F26,Fort Hamilton Pkwy,-73.975776,40.650782,1541.8205501269715
13:01:30,0,F27,Church Av,-73.979678,40.644041,1435.4641144834072
13:01:30,0,F29,Ditmas Av,-73.978172,40.636119,1280.1182795698924
13:01:30,0,F30,18 Av,-73.976971,40.629755,1163.1182795698924
13:01:30,0,F31,Avenue I,-73.976127,40.625322,1097.4516129032256
13:01:30,0,F32,Bay Pkwy,-73.975264,40.620769,999.1182795698924
13:01:30,0,F33,Avenue N,-73.974197,40.61514,922.4516129032257
13:01:30,0,F34,Avenue P,-73.973022,40.608944,838.4516129032257
13:01:30,0,F35,Kings Hwy,-73.972361,40.603217,742.4516129032257
13:01:30,0,F36,Avenue U,-73.973357,40.596063,625.7849462365591
13:01:30,0,F38,Avenue X,-73.97425,40.58962,550.092062341428
13:01:30,0,F39,Neptune Av,-73.974574,40.581011,424.1182795698925
12:54:30,0,G05,Jamaica Center-Parsons/Archer,-73.801109,40.702147,3927.6328149948827
12:54:30,0,G06,Sutphin Blvd-Archer Av-JFK Airport,-73.807969,40.700486,3867.6328149948827
12:54:30,0,G07,Jamaica-Van Wyck,-73.816859,40.702566,4286.984666846735
12:54:30,0,G08,Forest Hills-71 Av,-73.844521,40.721691,4186.116054249103
13:52:30,0,G09,67 Av,-73.852719,40.726523,4321.446489031712
12:14:30,0,G10,63 Dr-Rego Park,-73.861604,40.729846,4407.629414765596
12:14:30,0,G11,Woodhaven Blvd,-73.869229,40.733106,4313.055501722118
12:14:30,0,G12,Grand Av-Newtown,-73.877223,40.737015,4210.968545200379
12:14:30,0,G13,Elmhurst Av,-73.882017,40.742454,4111.218545200379
12:54:30,0,G14,Jackson Hts-Roosevelt Av,-73.891338,40.746644,3766.116054249104
12:14:30,0,G15,65 St,-73.898453,40.749669,4011.665324565802
12:54:30,0,G16,Northern Blvd,-73.906006,40.752885,3917.335427658586
12:54:30,0,G18,46 St,-73.913333,40.756312,3827.3354276585865
12:54:30,0,G19,Steinway St,-73.92074,40.756879,3710.4282111637413
12:54:30,0,G20,36 St,-73.928781,40.752039,3590.4282111637413
12:54:30,0,G21,Queens Plaza,-73.937243,40.748973,3445.0200478984348
12:04:00,0,G22,Court Sq,-73.943832,40.746554,3396.679575113088
12:04:00,0,G24,21 St,-73.949724,40.744065,3432.233133992341
12:04:00,0,G26,Greenpoint Av,-73.954449,40.731352,3290.836684288199
12:04:00,0,G28,Nassau Av,-73.951277,40.724635,3183.917144058314
12:04:00,0,G29,Metropolitan Av,-73.951418,40.712792,3045.2561271091613
12:04:00,0,G30,Broadway,-73.950308,40.706092,2959.4777180182523
12:04:00,0,G31,Flushing Av,-73.950234,40.700377,2867.028854381889
12:04:00,0,G32,Myrtle-Willoughby Avs,-73.949046,40.694568,2780.8583998364343
12:04:00,0,G33,Bedford-Nostrand Avs,-73.953522,40.689627,2679.233399836434
12:04:00,0,G34,Classon Av,-73.96007,40.688873,2602.2389246983125
12:04:00,0,G35,Clinton-Washington Avs,-73.966839,40.688089,2521.146028523449
12:04:00,0,G36,Fulton St,-73.975375,40.687119,2428.8618755179846
12:04:00,0,H01,Aqueduct Racetrack,-73.834058,40.668234,3324.8962225842743
12:04:00,0,H02,Aqueduct-N Conduit Av,-73.834058,40.668234,3379.154541002214
12:04:00,0,H03,Howard Beach-JFK Airport,-73.830301,40.660476,3496.085111473163
12:04:00,0,H04,Broad Channel,-73.815925,40.608382,3914.036724376389
12:04:00,0,H06,Beach 67 St,-73.796924,40.590927,4225.3261980606
13:01:30,0,H07,Beach 60 St,-73.788522,40.592374,4328.773566481653
13:01:30,0,H08,Beach 44 St,-73.776013,40.592943,4432.256022622004
13:01:30,0,H09,Beach 36 St,-73.768175,40.595398,4529.501636657092
13:01:30,0,H10,Beach 25 St,-73.761353,40.600066,4629.882167630542
13:01:30,0,H11,Far Rockaway-Mott Av,-73.755405,40.603995,4729.048834297209
12:04:00,0,H12,Beach 90 St,-73.813641,40.588034,4165.336724376389
12:04:00,0,H13,Beach 98 St,-73.820558,40.585307,4243.736724376389
12:04:00,0,H14,Beach 105 St,-73.827559,40.583209,4319.847835487501
12:04:00,0,H15,Rockaway Park-Beach 116 St,-73.835592,40.580903,4424.0478354875
12:04:00,1,J12,121 St,-73.828294,40.700492,3627.6328149948827
12:04:00,1,J13,111 St,-73.836345,40.697418,3789.962294763669
12:04:00,1,J14,104 St,-73.84433,40.695178,3447.6328149948827
12:04:00,1,J15,Woodhaven Blvd,-73.851576,40.693879,3357.6328149948827
13:14:00,1,J16,85 St-Forest Pkwy,-73.86001,40.692435,3398.8440215057617
13:14:00,1,J17,75 St-Elderts Ln,-73.867139,40.691324,3177.6328149948827
13:14:00,1,J19,Cypress Hills,-73.87255,40.689941,3196.594021505762
13:14:00,1,J20,Crescent St,-73.873785,40.683194,3027.6328149948827
13:14:00,1,J21,Norwood Av,-73.880039,40.68141,2937.6328149948827
13:14:00,1,J22,Cleveland St,-73.884639,40.679947,2956.210786263449
13:14:00,1,J23,Van Siclen Av,-73.891688,40.678024,2787.6328149948827
13:14:00,1,J24,Alabama Av,-73.898654,40.676992,2727.6328149948827
12:04:00,1,J27,Broadway Junction,-73.904512,40.679498,2637.6328149948827
12:04:00,1,J28,Chauncey St,-73.910456,40.682893,2697.6328149948827
12:04:00,1,J29,Halsey St,-73.916559,40.68637,2856.958117241098
12:54:30,0,J30,Gates Av,-73.92227,40.68963,2847.6328149948827
12:54:30,0,J31,Kosciuszko St,-73.928814,40.693342,3039.1078178399007
12:14:30,1,L01,8 Av,-74.002578,40.739777,2755.783751158376
12:14:30,2,L02,6 Av,-73.996786,40.737335,2693.1017003859224
13:52:30,1,L03,14 St-Union Sq,-73.99073,40.734789,2616.80356373996
12:22:30,1,L05,3 Av,-73.986122,40.732849,2681.362220454866
12:22:30,1,L06,1 Av,-73.981628,40.730953,2722.1921765763987
12:04:00,1,L08,Bedford Av,-73.956872,40.717304,2920.104030679742
12:22:30,1,L10,Lorimer St,-73.950275,40.714063,3007.9642130505626
12:04:00,1,L11,Graham Av,-73.944053,40.714565,3045.335033719256
12:04:00,1,L12,Grand St,-73.94067,40.711926,3125.8574217789574
12:04:00,1,L13,Montrose Av,-73.93985,40.707739,3163.0507726585847
12:04:00,1,L14,Morgan Av,-73.933147,40.706152,3166.9203223745453
12:04:00,1,L15,Jefferson St,-73.922913,40.706607,3083.0386655698117
12:04:00,1,L16,DeKalb Av,-73.918425,40.703811,3017.3368583408956
12:04:00,1,L17,Myrtle-Wyckoff Avs,-73.911586,40.699814,2946.327794896787
12:04:00,1,L19,Halsey St,-73.904084,40.695602,2902.263821832814
12:04:00,1,L20,Wilson Av,-73.904046,40.688764,2785.2854267710854
12:04:00,1,L21,Bushwick Av-Aberdeen St,-73.905249,40.682829,2700.94862121553
12:04:00,1,L22,Broadway Junction,-73.90324,40.678856,2630.3517669327252
12:04:00,1,L24,Atlantic Av,-73.903097,40.675345,2701.56976001231
12:14:30,2,L25,Sutter Av,-73.901975,40.669367,2651.8067489796226
12:04:00,1,L26,Livonia Av,-73.900571,40.664038,2592.8514225191416
12:14:30,2,L27,New Lots Av,-73.899232,40.658733,2653.201422519142
12:14:30,2,L28,East 105 St,-73.899485,40.650573,2749.927837613481
12:14:30,2,L29,Canarsie-Rockaway Pkwy,-73.90185,40.646654,2864.0147144275697
13:34:30,0,M01,Middle Village-Metropolitan Av,-73.889601,40.711396,3571.7793564576505
12:54:30,0,M04,Fresh Pond Rd,-73.895877,40.706186,3454.4963375897264
13:34:30,0,M05,Forest Av,-73.903077,40.704423,3361.9100038545657
12:54:30,0,M06,Seneca Av,-73.90774,40.702762,3267.5457654439697
12:54:30,0,M08,Myrtle-Wyckoff Avs,-73.912385,40.69943,3171.327794896787
12:54:30,0,M09,Knickerbocker Av,-73.919711,40.698664,3266.5266253061436
12:54:30,0,M10,Central Av,-73.927397,40.697857,3203.37176872848
12:54:30,0,M11,Myrtle Av,-73.935657,40.697207,3027.6328149948827
12:54:30,0,M12,Flushing Av,-73.941126,40.70026,3185.837046339699
12:54:30,0,M13,Lorimer St,-73.947408,40.703869,3083.1548033490444
12:54:30,0,M14,Hewes St,-73.953431,40.70687,2992.0622107564523
12:54:30,0,M16,Marcy Av,-73.957757,40.708359,2911.8471859444926
12:54:30,0,M18,Delancey St-Essex St,-73.987437,40.718315,2541.700729274971
12:22:30,1,M19,Bowery,-73.993915,40.72028,2501.0366733995174
12:54:30,0,M20,Canal St,-73.999892,40.718092,2403.0488685214686
12:06:30,1,M21,Chambers St,-74.003401,40.713243,2510.4110476418505
12:06:30,1,M22,Fulton St,-74.007582,40.710374,2577.6051617653384
12:06:30,1,M23,Broad St,-74.011056,40.706476,2644.2998986074435
12:13:00,0,N02,8 Av,-74.011719,40.635064,1228.4071684587811
12:13:00,0,N03,Fort Hamilton Pkwy,-74.005351,40.631386,1158.4071684587811
12:13:00,0,N04,New Utrecht Av,-73.996353,40.624842,1018.4071684587811
12:13:00,0,N05,18 Av,-73.990414,40.620671,928.4071684587813
12:13:00,0,N06,20 Av,-73.985026,40.61741,858.4071684587814
12:13:00,0,N07,Bay Pkwy,-73.981848,40.611815,768.4071684587814
12:13:00,0,N08,Kings Hwy,-73.980353,40.603923,648.4071684587814
12:13:00,0,N09,Avenue U,-73.979137,40.597473,548.4071684587814
12:13:00,0,N10,86 St,-73.97823,40.592721,488.40716845878137
13:56:30,0,Q01,Canal St,-74.00046,40.718383,2145.410232291723
13:56:30,0,Q03,72 St,-73.958424,40.768799,3162.135240401707
13:56:30,0,Q04,86 St,-73.951787,40.777891,3314.5331461608694
13:56:30,0,Q05,96 St,-73.947152,40.784318,3387.671077195352
12:22:30,0,R01,Astoria-Ditmars Blvd,-73.912034,40.775036,4009.065899392958
12:22:30,0,R03,Astoria Blvd,-73.917843,40.770258,3907.8876815711756
12:22:30,0,R04,30 Av,-73.921479,40.766779,3808.034348237842
12:22:30,0,R05,Broadway,-73.925508,40.76182,3711.5018807053743
12:22:30,0,R06,36 Av,-73.929575,40.756804,3616.659775442217
12:22:30,0,R08,39 Av-Dutch Kills,-73.932755,40.752882,3511.3397754422167
12:22:30,0,R09,Queensboro Plaza,-73.940202,40.750582,3374.799234901676
12:22:30,0,R11,Lexington Av/59 St,-73.967258,40.76266,3278.085805406427
12:22:30,0,R13,5 Av/59 St,-73.973347,40.764811,3167.3774720730935
13:56:30,0,R14,57 St-7 Av,-73.980658,40.764664,2871.0232310698566
13:56:30,0,R15,49 St,-73.984139,40.759901,2916.5742527571983
13:56:30,0,R16,Times Sq-42 St,-73.986754,40.754672,2686.881869813312
13:56:30,0,R17,34 St-Herald Sq,-73.98795,40.749567,2593.2881198133114
12:14:30,0,R18,28 St,-73.988691,40.745494,2790.417109900055
12:14:30,0,R19,23 St,-73.989344,40.741303,2727.63601340785
13:56:30,0,R20,14 St-Union Sq,-73.990568,40.735736,2402.8425239583894
12:22:30,0,R21,8 St-NYU,-73.992629,40.730328,2623.876480573066
12:14:30,1,R22,Prince St,-73.997702,40.724329,2517.5937859073874
12:06:30,0,R23,Canal St,-74.001775,40.719527,2412.908071621673
12:06:30,0,R24,City Hall,-74.006978,40.713282,2564.7205610491415
12:06:30,0,R25,Cortlandt St,-74.011029,40.710668,2445.781193241524
12:06:30,0,R26,Rector St,-74.013342,40.70722,2299.320202583485
12:06:30,0,R27,Whitehall St-South Ferry,-74.012994,40.703087,2232.590472853755
12:06:30,0,R28,Court St,-73.991777,40.6941,1995.0904728537548
12:06:30,0,R29,Jay St-MetroTech,-73.985942,40.69218,1902.590472853755
12:14:30,0,R30,DeKalb Av,-73.981824,40.690635,1542.590472853755
12:13:00,0,R31,Atlantic Av-Barclays Ctr,-73.97881,40.683666,1664.933489795287
12:14:30,0,R32,Union St,-73.98311,40.677316,1854.4165389142545
12:13:00,0,R33,4 Av-9 St,-73.988302,40.670847,1955.8307400976864
12:04:00,1,R34,Prospect Av,-73.992872,40.665414,1937.126152059539
12:04:00,1,R35,25 St,-73.998091,40.660397,1858.4071684587811
12:13:00,0,R36,36 St,-74.003549,40.655144,1678.4071684587811
12:13:00,0,R39,45 St,-74.010006,40.648939,1675.8133136110366
12:13:00,0,R40,53 St,-74.014034,40.645069,1578.5586836102964
12:13:00,0,R41,59 St,-74.017881,40.641362,1408.4071684587811
12:13:00,0,R42,Bay Ridge Av,-74.023377,40.634967,1569.2171697549788
12:13:00,0,R43,77 St,-74.02551,40.629742,1649.4898970277059
12:13:00,0,R44,86 St,-74.028398,40.622687,1825.8410875038965
12:13:00,0,R45,Bay Ridge-95 St,-74.030876,40.616622,1902.8568355353925
12:06:30,0,S01,Franklin Av,-73.955827,40.680596,1650.1405207816908
12:06:30,0,S03,Park Pl,-73.957624,40.674772,1550.1637765956443
12:06:30,0,S04,Botanic Garden,-73.959245,40.670343,1400.8928287934466
