start_time,ntransfers,stop_id,stop_name,stop_lon,stop_lat,duration
13:31:30,1,101,Van Cortlandt Park-242 St,-73.898583,40.889248,3402.7986440374757
13:31:30,1,103,238 St,-73.90087,40.884667,3298.0123537148947
13:31:30,1,104,231 St,-73.904834,40.878856,3205.4138981164388
13:31:30,1,106,Marble Hill-225 St,-73.909831,40.874561,3117.5666220632847
13:31:30,1,107,215 St,-73.915279,40.869444,3027.9489534669924
13:31:30,1,108,207 St,-73.918822,40.864621,2939.050885547548
13:31:30,1,109,Dyckman St,-73.925536,40.860531,2838.7381102171516
13:31:30,1,110,191 St,-73.929412,40.855225,2754.893282630945
13:31:30,1,111,181 St,-73.933596,40.849505,2663.86323971249
13:31:30,1,112,168 St-Washington Hts,-73.940133,40.840556,2544.661522974293
13:31:30,1,113,157 St,-73.94489,40.834041,2531.208867323832
13:31:30,1,114,145 St,-73.95036,40.826551,2413.9556484397117
13:31:30,1,115,137 St-City College,-73.953676,40.822008,2313.0795800636433
13:31:30,1,116,125 St,-73.958372,40.815581,2217.7545800636435
13:31:30,1,117,116 St-Columbia University,-73.96411,40.807722,2103.525413396977
13:31:30,1,118,Cathedral Pkwy (110 St),-73.966847,40.803967,2024.5708679424315
13:31:30,1,119,103 St,-73.968379,40.799446,1945.0421794178412
13:00:30,1,120,96 St,-73.972323,40.793919,1696.366608260335
13:00:30,1,121,86 St,-73.976218,40.788644,1734.6405400735791
13:00:30,1,122,79 St,-73.979917,40.783934,1657.7665563337416
13:00:30,1,123,72 St,-73.98197,40.778453,1529.3155878521718
12:54:00,1,124,66 St-Lincoln Center,-73.982209,40.77344,1644.7175436922478
13:39:30,1,125,59 St-Columbus Circle,-73.981929,40.768247,1578.9628165729935
13:39:30,1,126,50 St,-73.983849,40.761728,1527.5450402135536
13:00:30,1,127,Times Sq-42 St,-73.987495,40.75529,1303.9314070612113
13:00:30,1,128,34 St-Penn Station,-73.991057,40.750373,1202.572432702237
13:45:00,1,129,28 St,-73.993365,40.747215,1233.6303005341665
13:45:00,1,130,23 St,-73.995657,40.744081,1164.4820115607827
13:45:00,1,131,18 St,-73.997871,40.74104,1096.3039812577522
12:23:30,1,132,14 St,-74.000201,40.737826,1021.7171086708795
13:00:30,1,133,Christopher St-Sheridan Sq,-74.002906,40.733422,1122.978525892201
12:23:30,1,134,Houston St,-74.005367,40.728251,1206.1734157737385
12:23:30,1,135,Canal St,-74.006277,40.722854,1128.3043467503016
12:23:30,1,136,Franklin St,-74.006886,40.719318,1064.5138329163096
12:23:30,1,137,Chambers St,-74.009266,40.715478,951.4668168808399
13:38:00,1,138,WTC Cortlandt,-74.012188,40.711835,914.601030548399
13:38:00,1,139,Rector St,-74.013783,40.707513,838.0909090909091
13:38:00,1,142,South Ferry,-74.013664,40.702068,735.0
12:23:30,1,201,Wakefield-241 St,-73.85062,40.903125,4353.317945515316
12:23:30,1,204,Nereid Av,-73.854376,40.898379,4056.302132153351
12:23:30,1,205,233 St,-73.857473,40.893193,3966.302132153351
12:23:30,1,206,225 St,-73.860341,40.888022,3876.302132153351
12:23:30,1,207,219 St,-73.862633,40.883895,3786.302132153351
12:23:30,1,208,Gun Hill Rd,-73.866256,40.87785,3681.302132153351
12:23:30,1,209,Burke Av,-73.867164,40.871356,3669.2849598736175
12:23:30,1,210,Allerton Av,-73.867352,40.865462,3577.154525091009
12:23:30,1,211,Pelham Pkwy,-73.867615,40.857192,3472.8066990040525
12:23:30,1,212,Bronx Park East,-73.868457,40.848828,3347.9806120475305
12:23:30,1,213,E 180 St,-73.873488,40.841894,3137.6762642214435
12:23:30,1,214,West Farms Sq-E Tremont Av,-73.880049,40.840295,3087.6682652327318
12:23:30,1,215,174 St,-73.887734,40.837288,2957.58205833618
12:23:30,1,216,Freeman St,-73.891865,40.829993,2837.7444514985737
12:23:30,1,217,Simpson St,-73.893064,40.824073,2727.36309556637
12:23:30,1,218,Intervale Av,-73.896736,40.822181,2654.4393667528107
12:23:30,1,219,Prospect Av,-73.90177,40.819585,2568.5580108206073
12:23:30,1,220,Jackson Av,-73.907807,40.81649,2476.499187291196
12:23:30,1,221,3 Av-149 St,-73.917757,40.816109,2354.7908539578625
12:23:30,1,222,149 St-Grand Concourse,-73.926718,40.81841,2234.062299169092
13:00:30,1,224,135 St,-73.94077,40.814229,2220.5027307093146
13:00:30,1,225,125 St,-73.945495,40.807754,2112.4227307093147
13:00:30,1,226,116 St,-73.949625,40.802098,2016.44313887258
13:00:30,1,227,Central Park North (110 St),-73.951822,40.799075,1948.0706898929882
12:23:30,1,228,Park Place,-74.008811,40.713051,860.8309142475185
13:31:00,1,229,Fulton St,-74.006571,40.709416,754.1346956687188
13:31:00,1,230,Wall St,-74.0091,40.706821,827.405372360448
12:16:00,2,231,Clark St,-73.993086,40.697466,637.5902255639098
12:16:00,2,232,Borough Hall,-73.989998,40.693219,542.5000000000001
12:16:00,2,233,Hoyt St,-73.985065,40.690545,627.0233160621761
12:16:00,2,234,Nevins St,-73.980492,40.688246,662.5000000000001
12:16:00,2,235,Atlantic Av-Barclays Ctr,-73.977666,40.684359,690.0
12:01:30,2,236,Bergen St,-73.975098,40.680829,767.1701030927835
12:01:30,2,237,Grand Army Plaza,-73.971046,40.675235,879.2783505154639
12:01:30,2,238,Eastern Pkwy-Brooklyn Museum,-73.964375,40.671987,989.2937351308485
12:01:30,2,239,Franklin Av-Medgar Evers College,-73.958131,40.670682,970.5932203389831
12:01:30,2,241,President St-Medgar Evers College,-73.950683,40.667883,1155.8302148302148
12:01:30,2,242,Sterling St,-73.95085,40.662742,1246.3013686763686
12:01:30,2,243,Winthrop St,-73.9502,40.656652,1331.4537496287496
12:01:30,2,244,Church Av,-73.949575,40.650843,1413.3060223560224
12:01:30,2,245,Beverly Rd,-73.948959,40.645098,1494.7399846201733
12:01:30,2,246,Newkirk Av-Little Haiti,-73.948411,40.639967,1580.7399846201733
12:01:30,2,247,Flatbush Av-Brooklyn College,-73.947642,40.632836,1698.0768267254366
12:01:30,2,248,Nostrand Av,-73.950466,40.669847,1127.3720284574006
12:01:30,2,249,Kingston Av,-73.942161,40.669399,1223.7641853201458
12:01:30,2,250,Crown Hts-Utica Av,-73.932942,40.668897,1240.3975225225226
12:01:30,2,251,Sutter Av-Rutland Rd,-73.92261,40.664717,1365.6475225225224
12:01:30,2,252,Saratoga Av,-73.916327,40.661453,1477.6475225225224
13:08:00,2,253,Rockaway Av,-73.908946,40.662549,1565.3975225225224
12:07:30,2,254,Junius St,-73.902447,40.663515,1649.3975225225224
12:07:30,2,255,Pennsylvania Av,-73.894895,40.664635,1750.8975225225224
12:07:30,2,256,Van Siclen Av,-73.889395,40.665449,1830.6475225225222
12:07:30,2,257,New Lots Av,-73.884079,40.666235,1909.6475225225222
12:23:30,1,301,Harlem-148 St,-73.93647,40.82388,2468.3919412356304
12:23:30,1,302,145 St,-73.936245,40.820421,2354.0077307093143
13:24:00,1,401,Woodlawn,-73.878751,40.886037,3586.7867483725736
13:24:00,1,402,Mosholu Pkwy,-73.884655,40.87975,3446.1211179519914
13:24:00,1,405,Bedford Park Blvd-Lehman College,-73.890064,40.873412,3324.610628441502
13:24:00,1,406,Kingsbridge Rd,-73.897174,40.86776,3190.061608833659
13:24:00,1,407,Fordham Rd,-73.901034,40.862803,3098.715203604901
13:24:00,1,408,183 St,-73.903879,40.858407,3018.015857199672
13:24:00,1,409,Burnside Av,-73.907684,40.853453,2924.8437260521314
13:24:00,1,410,176 St,-73.911794,40.84848,2850.492779442958
13:24:00,1,411,Mt Eden Av,-73.914685,40.844434,2774.7476814037427
13:24:00,1,412,170 St,-73.917791,40.840075,2697.224805586749
13:24:00,1,413,167 St,-73.9214,40.835537,2616.694193341851
13:24:00,1,414,161 St-Yankee Stadium,-73.925831,40.827994,2471.179630235055
13:24:00,1,415,149 St-Grand Concourse,-73.927351,40.818375,2241.2346302350547
12:23:30,1,416,138 St-Grand Concourse,-73.929849,40.813224,2069.0562750727067
12:53:00,1,418,Fulton St,-74.009509,40.710368,755.9885018970655
12:53:00,1,419,Wall St,-74.011862,40.707557,833.1999556415589
12:53:00,1,420,Bowling Green,-74.014065,40.704817,804.6057268722468
12:01:30,2,423,Borough Hall,-73.990151,40.692404,541.7647063732147
12:23:30,1,501,Eastchester-Dyre Av,-73.830834,40.8883,3913.2763045504457
12:23:30,1,502,Baychester Av,-73.838591,40.878663,3782.9136671878086
12:23:30,1,503,Gun Hill Rd,-73.846384,40.869526,3624.144849983508
12:23:30,1,504,Pelham Pkwy,-73.855359,40.858985,3466.786154331334
12:23:30,1,505,Morris Park,-73.860495,40.854364,3379.104835650015
13:39:30,1,601,Pelham Bay Park,-73.828121,40.852462,3734.9568044055927
13:39:30,1,602,Buhre Av,-73.832569,40.84681,3551.529854050983
13:39:30,1,603,Middletown Rd,-73.836322,40.843863,3442.69652071765
13:39:30,1,604,Westchester Sq-E Tremont Av,-73.842952,40.839892,3297.94652071765
13:39:30,1,606,Zerega Av,-73.847036,40.836488,3199.8631873843165
13:39:30,1,607,Castle Hill Av,-73.851222,40.834255,3132.529854050983
13:24:00,1,608,Parkchester,-73.860816,40.833226,2976.529854050983
13:24:00,1,609,St Lawrence Av,-73.867618,40.831509,3214.467220535102
13:24:00,1,610,Morrison Av-Soundview,-73.874516,40.829521,3129.399491451437
13:24:00,1,611,Elder Av,-73.879159,40.828584,3064.2354914514367
13:24:00,1,612,Whitlock Av,-73.886283,40.826525,2957.8954914514366
13:24:00,1,613,Hunts Point Av,-73.890549,40.820948,2720.1452386663677
12:23:30,1,614,Longwood Av,-73.896435,40.816104,2802.437421903072
12:23:30,1,615,E 149 St,-73.904098,40.812118,2701.329088569739
12:23:30,1,616,E 143 St-St Mary's St,-73.907657,40.808719,2626.4867649182866
12:23:30,1,617,Cypress Av,-73.914042,40.805368,2527.5662628262367
12:23:30,1,618,Brook Av,-73.91924,40.807566,2458.007439296825
13:24:00,1,619,3 Av-138 St,-73.926138,40.810476,2341.068315589445
12:23:30,1,621,125 St,-73.937594,40.804138,1914.21117136991
12:23:30,1,622,116 St,-73.941617,40.798629,2017.1528836567884
13:24:00,1,623,110 St,-73.94425,40.79502,1937.202006463806
13:24:00,1,624,103 St,-73.947478,40.7906,1860.8300766392445
13:24:00,1,625,96 St,-73.95107,40.785672,1774.359901200648
12:23:30,1,626,86 St,-73.955589,40.779492,1629.8154879166727
13:24:00,1,627,77 St,-73.959874,40.77362,1579.2143299554618
13:24:00,1,628,68 St-Hunter College,-73.96387,40.768141,1489.5893299554618
12:23:30,1,629,59 St,-73.967967,40.762526,1393.3125133464653
13:24:00,1,630,51 St,-73.97192,40.757107,1296.6676857602583
12:23:30,1,631,Grand Central-42 St,-73.976848,40.751776,1189.0278256203983
13:24:00,1,632,33 St,-73.982076,40.746081,1080.3080850937945
13:24:00,1,633,28 St,-73.984264,40.74307,1011.5580850937945
13:24:00,1,634,23 St,-73.986599,40.739864,947.6830850937945
13:24:00,1,635,14 St-Union Sq,-73.989951,40.734673,807.8705850937945
13:24:00,1,636,Astor Pl,-73.99107,40.730054,731.8117615643828
12:09:30,1,637,Bleecker St,-73.994659,40.725915,632.1058792114416
12:09:30,1,638,Spring St,-73.997141,40.722301,702.9392125447748
12:09:30,1,639,Canal St,-74.000193,40.718803,787.3281014336637
13:31:00,1,640,Brooklyn Bridge-City Hall,-74.004131,40.713065,865.1932918269853
12:09:30,1,701,Flushing-Main St,-73.83003,40.7596,2861.1056047366646
12:09:30,1,702,Mets-Willets Point,-73.845625,40.754622,2684.796080927141
12:09:30,1,705,111 St,-73.855334,40.75173,2625.5546369238964
12:09:30,1,706,103 St-Corona Plaza,-73.8627,40.749865,2555.1727599012424
12:09:30,1,707,Junction Blvd,-73.869527,40.749145,2462.2514673428122
12:09:30,1,708,90 St-Elmhurst Av,-73.876613,40.748408,2419.50515426744
12:09:30,1,709,82 St-Jackson Hts,-73.883697,40.747659,2352.250608812895
12:54:00,1,710,74 St-Broadway,-73.891394,40.746848,2248.8675164565175
12:54:00,1,711,69 St,-73.896403,40.746325,2242.196955814017
12:54:00,1,712,61 St-Woodside,-73.902984,40.74563,2170.288505109792
13:00:30,1,713,52 St,-73.912549,40.744149,2052.0706476385153
13:00:30,1,714,46 St-Bliss St,-73.918435,40.743132,1998.3770543237524
13:00:30,1,715,40 St-Lowery St,-73.924016,40.743781,1947.0065807861477
13:00:30,1,716,33 St-Rawson St,-73.930997,40.744587,1878.7263260090774
13:00:30,1,718,Queensboro Plaza,-73.940202,40.750582,1736.251465673882
13:00:30,1,719,Court Sq,-73.945264,40.747023,1625.1318075542238
13:00:30,1,720,Hunters Point Av,-73.948916,40.742216,1531.335664303535
13:00:30,1,721,Vernon Blvd-Jackson Av,-73.953581,40.742626,1458.4139154985091
13:00:30,1,723,Grand Central-42 St,-73.976041,40.751431,1243.6703257549193
13:00:30,1,724,5 Av,-73.981963,40.753821,1188.241754326348
13:00:30,1,725,Times Sq-42 St,-73.987691,40.755477,1238.7417543263477
13:00:30,1,726,34 St-Hudson Yards,-74.00191,40.755882,1368.7417543263477
12:02:30,2,901,Grand Central-42 St,-73.979189,40.752769,1369.0278256203983
13:39:30,2,902,Times Sq-42 St,-73.986229,40.755983,1353.8945859646462
13:31:30,0,A02,Inwood-207 St,-73.919899,40.868072,2870.232002666107
12:54:00,0,A03,Dyckman St,-73.927271,40.865491,2780.159009965377
12:54:00,0,A05,190 St,-73.93418,40.859022,2656.566618661029
12:54:00,0,A06,181 St,-73.937969,40.851695,2543.331324543382
12:54:00,0,A07,175 St,-73.939704,40.847391,2446.6108944358552
12:54:00,0,A09,168 St,-73.939561,40.840719,2319.1723917620584
13:31:30,0,A10,163 St-Amsterdam Av,-73.939892,40.836013,2328.5244622917385
13:31:30,0,A11,155 St,-73.941514,40.830518,2246.6911289584054
12:54:00,0,A12,145 St,-73.944216,40.824783,2074.295386414465
12:09:30,0,A14,135 St,-73.947649,40.817894,1996.131189959946
13:39:30,0,A15,125 St,-73.952343,40.811109,1837.070205190699
12:54:00,0,A16,116 St,-73.954882,40.805085,1960.905787421401
12:54:00,0,A17,Cathedral Pkwy (110 St),-73.958161,40.800603,1955.9905316166228
12:54:00,0,A18,103 St,-73.961454,40.796092,1868.224297850389
12:54:00,0,A19,96 St,-73.964696,40.791642,1783.4710510971422
12:54:00,0,A20,86 St,-73.968916,40.785868,1681.5894721497739
12:54:00,0,A21,81 St-Museum of Natural History,-73.972143,40.781433,1585.5628054831072
12:54:00,0,A22,72 St,-73.97641,40.775594,1496.6828054831074
12:54:00,0,A24,59 St-Columbus Circle,-73.981736,40.768296,1335.8999913700516
13:54:00,0,A25,50 St,-73.985984,40.762456,1330.8823597988403
12:53:00,0,A27,42 St-Port Authority Bus Terminal,-73.989735,40.757308,1173.8945859646462
12:53:00,0,A28,34 St-Penn Station,-73.993391,40.752287,1077.6042633840011
12:23:30,1,A30,23 St,-73.998041,40.745906,1014.8440017112357
12:53:00,0,A31,14 St,-74.00169,40.740893,923.1743588540929
12:53:00,0,A32,W 4 St-Wash Sq,-74.000495,40.732338,811.0515518365489
13:31:00,0,A33,Spring St,-74.003739,40.726227,872.3493452038562
12:53:00,0,A34,Canal St,-74.005229,40.720824,744.3485757121439
12:53:00,0,A36,Chambers St,-74.008585,40.714111,632.5382308845577
12:53:00,0,A38,Fulton St,-74.007691,40.710197,533.0608695652173
12:53:00,0,A40,High St,-73.990531,40.699337,349.4869565217391
12:01:30,0,A41,Jay St-MetroTech,-73.987342,40.692338,90.0
12:38:30,0,A42,Hoyt-Schermerhorn Sts,-73.985001,40.688484,340.1413043478261
12:23:30,0,A43,Lafayette Av,-73.973946,40.686113,475.80315505963836
12:23:30,0,A44,Clinton-Washington Avs,-73.965838,40.683263,560.4667914232747
12:23:30,0,A45,Franklin Av,-73.956848,40.68138,666.5917914232748
12:38:30,0,A46,Nostrand Av,-73.950426,40.680438,638.6467988533205
12:07:30,0,A47,Kingston-Throop Avs,-73.940858,40.679921,739.0009655199873
12:38:30,0,A48,Utica Av,-73.930729,40.679364,809.4670235724217
12:07:30,0,A49,Ralph Av,-73.920786,40.678822,920.1844148767694
12:07:30,0,A50,Rockaway Av,-73.911946,40.67834,1032.7801595576204
12:38:30,0,A51,Broadway Junction,-73.905316,40.678334,1043.6569677065
12:38:30,0,A52,Liberty Av,-73.896548,40.674542,1165.0447228085407
12:38:30,0,A53,Van Siclen Av,-73.890358,40.67271,1249.2047228085407
12:38:30,0,A54,Shepherd Av,-73.88075,40.67413,1354.2047228085407
12:38:30,0,A55,Euclid Av,-73.872106,40.675377,1363.8980895558573
12:38:30,0,A57,Grant Av,-73.86505,40.677044,1486.0806621699653
12:38:30,0,A59,80 St,-73.858992,40.679371,1583.4326621699652
12:38:30,0,A60,88 St,-73.85147,40.679843,1679.392821532515
12:38:30,0,A61,Rockaway Blvd,-73.843853,40.680429,1769.7380596277533
13:08:00,0,A63,104 St,-73.837683,40.681711,1853.410059627753
13:08:00,0,A64,111 St,-73.832163,40.684331,1939.5412071687365
13:08:00,0,A65,Ozone Park-Lefferts Blvd,-73.825798,40.685951,2028.6044983079769
12:02:30,0,B04,21 St-Queensbridge,-73.942836,40.754203,1619.3915494554856
12:02:30,0,B06,Roosevelt Island,-73.95326,40.759145,1472.7708598003132
12:02:30,0,B08,Lexington Av/63 St,-73.966113,40.764629,1402.7137169431703
12:02:30,0,B10,57 St,-73.97745,40.763972,1232.7137169431703
12:01:30,1,B12,9 Av,-73.994324,40.646292,1364.6624082613596
12:01:30,1,B13,Fort Hamilton Pkwy,-73.994304,40.640914,1465.7649723639236
12:01:30,1,B14,50 St,-73.994791,40.63626,1544.7904500709299
12:01:30,1,B15,55 St,-73.995476,40.631435,1644.5484118543695
12:01:30,1,B16,62 St,-73.996895,40.626472,1710.5204398263975
12:01:30,1,B17,71 St,-73.998864,40.619589,1813.0108856862698
12:01:30,1,B18,79 St,-74.00061,40.613501,1919.57139524041
12:01:30,1,B19,18 Av,-74.001736,40.607954,2001.164943627507
12:01:30,1,B20,20 Av,-73.998168,40.604556,2083.158450121013
12:01:30,1,B21,Bay Pkwy,-73.993728,40.601875,2160.7039046664677
12:01:30,1,B22,25 Av,-73.986829,40.597704,2279.8135820858224
12:01:30,1,B23,Bay 50 St,-73.983765,40.588841,2400.177718673505
13:00:30,0,D01,Norwood-205 St,-73.878855,40.874811,3255.354016115361
13:00:30,0,D03,Bedford Park Blvd,-73.887138,40.873244,3083.8675296288748
13:00:30,0,D04,Kingsbridge Rd,-73.893509,40.866978,2966.7112796288748
13:00:30,0,D05,Fordham Rd,-73.897749,40.861296,2872.1798110974064
13:00:30,0,D06,182-183 Sts,-73.900741,40.856093,2785.245904296243
13:39:30,0,D07,Tremont Av,-73.905227,40.85041,2707.1308600484554
13:39:30,0,D08,174-175 Sts,-73.910136,40.8459,2662.728157234673
13:39:30,0,D09,170 St,-73.9134,40.839306,2556.4717469782627
13:39:30,0,D10,167 St,-73.91844,40.833771,2451.5523921395525
13:39:30,0,D11,161 St-Yankee Stadium,-73.925651,40.827905,2334.1714397586
13:39:30,0,D12,155 St,-73.938209,40.830135,2215.9714397586004
12:09:30,0,D13,145 St,-73.944216,40.824783,2072.4714397586004
12:54:00,0,D14,7 Av,-73.981637,40.762862,1254.7314019743353
12:54:00,0,D15,47-50 Sts-Rockefeller Ctr,-73.981329,40.758663,1055.7137169431703
12:54:00,0,D16,42 St-Bryant Pk,-73.984569,40.754222,963.2417543263479
12:54:00,0,D17,34 St-Herald Sq,-73.987823,40.749719,886.4660533917685
12:02:30,0,D18,23 St,-73.992821,40.742878,775.7242693542098
12:02:30,0,D19,14 St,-73.996209,40.738228,691.7171086708795
12:54:00,0,D20,W 4 St-Wash Sq,-74.000495,40.732338,571.0515518365489
12:02:30,0,D21,Broadway-Lafayette St,-73.996204,40.725297,415.91540160180716
12:34:30,0,D22,Grand St,-73.993753,40.718267,787.0527312447822
12:01:30,1,D24,Atlantic Av-Barclays Ctr,-73.97689,40.68446,741.0612421112264
12:01:30,1,D25,7 Av,-73.972367,40.67705,871.5223820075994
12:01:30,1,D26,Prospect Park,-73.962246,40.661614,1052.6622783806565
12:01:30,1,D27,Parkside Av,-73.961495,40.655292,1134.5431073962006
12:01:30,1,D28,Church Av,-73.962982,40.650527,1193.960035750766
12:01:30,1,D29,Beverley Rd,-73.964492,40.644031,1300.8317633604006
12:01:30,1,D30,Cortelyou Rd,-73.963891,40.640927,1379.0272940866573
12:01:30,1,D31,Newkirk Plaza,-73.962793,40.635082,1373.5155913063218
12:01:30,1,D32,Avenue H,-73.961639,40.62927,1490.3386977833009
12:01:30,1,D33,Avenue J,-73.960803,40.625039,1577.6593397168645
12:01:30,1,D34,Avenue M,-73.959399,40.617618,1681.777288434813
12:01:30,1,D35,Kings Hwy,-73.957734,40.60867,1621.671146861877
12:01:30,1,D37,Avenue U,-73.955929,40.5993,1835.1405346169793
12:01:30,1,D38,Neck Rd,-73.955161,40.595246,1934.6766170912063
12:01:30,1,D39,Sheepshead Bay,-73.954155,40.586896,1858.037813528544
12:01:30,1,D40,Brighton Beach,-73.961376,40.577621,1994.5794801952104
12:01:30,1,D41,Ocean Pkwy,-73.968501,40.576312,2127.590472853755
13:53:00,0,D42,W 8 St-NY Aquarium,-73.975939,40.576127,1906.106843811932
13:53:00,0,D43,Coney Island-Stillwell Av,-73.981233,40.577422,2012.7967662925525
12:01:30,0,E01,World Trade Center,-74.009781,40.712582,923.4901633523422
12:09:30,0,F01,Jamaica-179 St,-73.783817,40.712646,3124.186765729413
13:05:00,0,F02,169 St,-73.793604,40.71047,3053.8443396226417
12:23:30,0,F03,Parsons Blvd,-73.803326,40.707564,2957.0439085865555
12:23:30,0,F04,Sutphin Blvd,-73.810708,40.70546,2940.0
12:23:30,0,F05,Briarwood,-73.820574,40.709179,2820.0
13:54:00,0,F06,Kew Gardens-Union Tpke,-73.831008,40.714441,2700.0
12:23:30,0,F07,75 Av,-73.837324,40.718331,2557.697759739125
12:54:00,0,F09,Court Sq-23 St,-73.946,40.747846,1725.5078100422284
12:54:00,0,F11,Lexington Av/53 St,-73.969055,40.757552,1524.1234857053842
12:54:00,0,F12,5 Av/53 St,-73.975224,40.760167,1424.9398122359962
12:02:30,0,F14,2 Av,-73.989938,40.723402,332.2915920779977
12:02:30,0,F15,Delancey St-Essex St,-73.988114,40.718611,224.66666666666666
12:02:30,0,F16,East Broadway,-73.990173,40.713715,143.66666666666666
12:31:30,0,F18,York St,-73.986751,40.701397,0.0
12:01:30,0,F20,Bergen St,-73.990862,40.686145,231.62282828282827
12:01:30,0,F21,Carroll St,-73.995048,40.680303,383.0928282828283
12:01:30,0,F22,Smith-9 Sts,-73.995959,40.67358,509.81282828282826
12:01:30,0,F23,4 Av-9 St,-73.989779,40.670272,603.2875757575757
12:01:30,0,F24,7 Av,-73.980305,40.666271,510.0
12:01:30,0,F25,15 St-Prospect Park,-73.979493,40.660365,677.9095834043292
12:01:30,0,F26,Fort Hamilton Pkwy,-73.975776,40.650782,839.568801281424
12:01:30,0,F27,Church Av,-73.979678,40.644041,750.0
12:01:30,0,F29,Ditmas Av,-73.978172,40.636119,870.0
12:01:30,0,F30,18 Av,-73.976971,40.629755,990.0
12:01:30,0,F31,Avenue I,-73.976127,40.625322,1050.0
12:01:30,0,F32,Bay Pkwy,-73.975264,40.620769,1110.0
12:01:30,0,F33,Avenue N,-73.974197,40.61514,1230.0
12:01:30,0,F34,Avenue P,-73.973022,40.608944,1320.0
12:01:30,0,F35,Kings Hwy,-73.972361,40.603217,1493.6621219877927
13:53:00,0,F36,Avenue U,-73.973357,40.596063,1602.26318581758
13:53:00,0,F38,Avenue X,-73.97425,40.58962,1695.4663943737298
13:53:00,0,F39,Neptune Av,-73.974574,40.581011,1809.9383044860895
13:54:00,0,G05,Jamaica Center-Parsons/Archer,-73.801109,40.702147,2620.3960977266415
12:54:00,0,G06,Sutphin Blvd-Archer Av-JFK Airport,-73.807969,40.700486,2560.3960977266415
12:54:00,0,G07,Jamaica-Van Wyck,-73.816859,40.702566,2977.222318412024
13:54:00,0,G08,Forest Hills-71 Av,-73.844521,40.721691,2458.1930868419286
12:23:30,0,G09,67 Av,-73.852719,40.726523,2593.5235216245374
12:23:30,0,G10,63 Dr-Rego Park,-73.861604,40.729846,2679.4234284904965
12:02:30,0,G11,Woodhaven Blvd,-73.869229,40.733106,2584.8495154470183
12:02:30,0,G12,Grand Av-Newtown,-73.877223,40.737015,2482.7625589252793
12:02:30,0,G13,Elmhurst Av,-73.882017,40.742454,2383.012558925279
13:54:00,0,G14,Jackson Hts-Roosevelt Av,-73.891338,40.746644,2037.910067974004
13:54:00,0,G15,65 St,-73.898453,40.749669,2367.910067974004
13:54:00,0,G16,Northern Blvd,-73.906006,40.752885,2279.9078100422284
13:54:00,0,G18,46 St,-73.913333,40.756312,2189.9078100422284
13:54:00,0,G19,Steinway St,-73.92074,40.756879,2069.9078100422284
13:54:00,0,G20,36 St,-73.928781,40.752039,1949.9078100422284
12:54:00,0,G21,Queens Plaza,-73.937243,40.748973,1829.9078100422282
12:23:30,0,G22,Court Sq,-73.943832,40.746554,1728.3618294478931
12:23:30,0,G24,21 St,-73.949724,40.744065,1639.0488523486563
12:23:30,0,G26,Greenpoint Av,-73.954449,40.731352,1461.3011810705905
12:23:30,0,G28,Nassau Av,-73.951277,40.724635,1366.9385437079532
12:23:30,0,G29,Metropolitan Av,-73.951418,40.712792,1234.8565764948382
12:23:30,0,G30,Broadway,-73.950308,40.706092,1134.275054755708
12:23:30,0,G31,Flushing Av,-73.950234,40.700377,1047.8804601611132
12:23:30,0,G32,Myrtle-Willoughby Avs,-73.949046,40.694568,966.156135836789
12:23:30,0,G33,Bedford-Nostrand Avs,-73.953522,40.689627,854.2260283099074
12:23:30,0,G34,Classon Av,-73.96007,40.688873,772.298567170011
12:23:30,0,G35,Clinton-Washington Avs,-73.966839,40.688089,688.4325877885677
12:23:30,0,G36,Fulton St,-73.975375,40.687119,589.9864339424139
12:38:30,0,H01,Aqueduct Racetrack,-73.834058,40.668234,1975.7698056594993
12:38:30,0,H02,Aqueduct-N Conduit Av,-73.834058,40.668234,1980.4886219065263
12:38:30,0,H03,Howard Beach-JFK Airport,-73.830301,40.660476,2117.4709227914823
12:38:30,0,H04,Broad Channel,-73.815925,40.608382,2545.891975423061
12:38:30,0,H06,Beach 67 St,-73.796924,40.590927,2840.9008249805834
13:38:00,0,H07,Beach 60 St,-73.788522,40.592374,2953.0938074367236
13:38:00,0,H08,Beach 44 St,-73.776013,40.592943,3066.4091227520394
13:38:00,0,H09,Beach 36 St,-73.768175,40.595398,3161.784122752039
13:38:00,0,H10,Beach 25 St,-73.761353,40.600066,3275.980551323468
13:38:00,0,H11,Far Rockaway-Mott Av,-73.755405,40.603995,3349.4435142864304
12:16:00,0,H12,Beach 90 St,-73.813641,40.588034,2816.2103074516144
12:16:00,0,H13,Beach 98 St,-73.820558,40.585307,2894.610307451614
12:16:00,0,H14,Beach 105 St,-73.827559,40.583209,2970.7214185627254
12:16:00,0,H15,Rockaway Park-Beach 116 St,-73.835592,40.580903,3074.921418562725
12:07:30,1,J12,121 St,-73.828294,40.700492,2320.3960977266415
13:38:00,1,J13,111 St,-73.836345,40.697418,2482.725577495428
13:38:00,1,J14,104 St,-73.84433,40.695178,2140.3960977266415
13:38:00,1,J15,Woodhaven Blvd,-73.851576,40.693879,2040.2531283155472
13:38:00,1,J16,85 St-Forest Pkwy,-73.86001,40.692435,2049.7176045809874
13:38:00,1,J17,75 St-Elderts Ln,-73.867139,40.691324,1860.2531283155472
13:38:00,1,J19,Cypress Hills,-73.87255,40.689941,1847.4676045809879
13:38:00,1,J20,Crescent St,-73.873785,40.683194,1710.2531283155472
13:38:00,1,J21,Norwood Av,-73.880039,40.68141,1630.3960977266415
13:38:00,1,J22,Cleveland St,-73.884639,40.679947,1607.0843693386737
13:38:00,1,J23,Van Siclen Av,-73.891688,40.678024,1480.3960977266415
13:38:00,1,J24,Alabama Av,-73.898654,40.676992,1401.2531283155472
12:02:30,1,J27,Broadway Junction,-73.904512,40.679498,1288.5864616488807
12:38:30,1,J28,Chauncey St,-73.910456,40.682893,1377.0031283155472
12:02:30,1,J29,Halsey St,-73.916559,40.68637,1424.9564307850908
12:02:30,1,J30,Gates Av,-73.92227,40.68963,1246.5833333333333
12:02:30,1,J31,Kosciuszko St,-73.928814,40.693342,1247.7025501444662
12:02:30,1,L01,8 Av,-74.002578,40.739777,1000.433976140759
12:23:30,1,L02,6 Av,-73.996786,40.737335,916.7171086708795
12:23:30,1,L03,14 St-Union Sq,-73.99073,40.734789,993.0152453168422
12:23:30,1,L05,3 Av,-73.986122,40.732849,1039.6127196221953
12:23:30,1,L06,1 Av,-73.981628,40.730953,1087.1347322008116
12:23:30,1,L08,Bedford Av,-73.956872,40.717304,1296.1007815835276
12:23:30,1,L10,Lorimer St,-73.950275,40.714063,1370.7695918729166
12:23:30,1,L11,Graham Av,-73.944053,40.714565,1405.5340363173611
12:23:30,1,L12,Grand St,-73.94067,40.711926,1485.2792592472974
12:23:30,1,L13,Montrose Av,-73.93985,40.707739,1521.3012718259138
12:23:30,1,L14,Morgan Av,-73.933147,40.706152,1606.5811460397501
12:38:30,1,L15,Jefferson St,-73.922913,40.706607,1691.7837432540186
12:38:30,1,L16,DeKalb Av,-73.918425,40.703811,1668.2104414161208
12:38:30,1,L17,Myrtle-Wyckoff Avs,-73.911586,40.699814,1597.201377972012
12:38:30,1,L19,Halsey St,-73.904084,40.695602,1553.1374049080391
12:38:30,1,L20,Wilson Av,-73.904046,40.688764,1436.1590098463107
12:38:30,1,L21,Bushwick Av-Aberdeen St,-73.905249,40.682829,1351.822204290755
12:38:30,1,L22,Broadway Junction,-73.90324,40.678856,1281.2253500079505
12:38:30,1,L24,Atlantic Av,-73.903097,40.675345,1352.4433430875351
12:38:30,1,L25,Sutter Av,-73.901975,40.669367,1429.6751612693536
12:38:30,1,L26,Livonia Av,-73.900571,40.664038,1488.6304877298346
12:38:30,1,L27,New Lots Av,-73.899232,40.658733,1573.877910410247
12:38:30,1,L28,East 105 St,-73.899485,40.650573,1683.8897105275023
12:38:30,1,L29,Canarsie-Rockaway Pkwy,-73.90185,40.646654,1759.7937796382628
13:05:00,0,M01,Middle Village-Metropolitan Av,-73.889601,40.711396,1871.3504235016178
13:05:00,0,M04,Fresh Pond Rd,-73.895877,40.706186,1729.8370901682847
13:05:00,0,M05,Forest Av,-73.903077,40.704423,1621.6791954314424
13:05:00,0,M06,Seneca Av,-73.90774,40.702762,1527.3149570208466
13:05:00,0,M08,Myrtle-Wyckoff Avs,-73.912385,40.69943,1445.08737081395
13:05:00,0,M09,Knickerbocker Av,-73.919711,40.698664,1335.7562019827812
13:05:00,0,M10,Central Av,-73.927397,40.697857,1243.5755568214909
12:02:30,1,M11,Myrtle Av,-73.935657,40.697207,1079.4166666666665
12:02:30,1,M12,Flushing Av,-73.941126,40.70026,1092.400692327325
12:02:30,1,M13,Lorimer St,-73.947408,40.703869,990.0988055348723
12:02:30,1,M14,Hewes St,-73.953431,40.70687,900.0281481481481
12:23:30,1,M16,Marcy Av,-73.957757,40.708359,811.5090909090908
13:05:00,0,M18,Delancey St-Essex St,-73.987437,40.718315,449.6666666666667
12:23:30,1,M19,Bowery,-73.993915,40.72028,526.75
12:23:30,1,M20,Canal St,-73.999892,40.718092,627.7902740138512
12:23:30,1,M21,Chambers St,-74.003401,40.713243,724.8333333333334
12:23:30,1,M22,Fulton St,-74.007582,40.710374,763.8861125614332
12:45:30,1,M23,Broad St,-74.011056,40.706476,837.0267375614332
12:01:30,1,N02,8 Av,-74.011719,40.635064,1539.9999999999998
12:01:30,1,N03,Fort Hamilton Pkwy,-74.005351,40.631386,1635.0
12:01:30,1,N04,New Utrecht Av,-73.996353,40.624842,1775.0
12:01:30,1,N05,18 Av,-73.990414,40.620671,1865.0
12:01:30,1,N06,20 Av,-73.985026,40.61741,1935.0
12:01:30,1,N07,Bay Pkwy,-73.981848,40.611815,2025.0
12:01:30,1,N08,Kings Hwy,-73.980353,40.603923,2145.0
12:01:30,1,N09,Avenue U,-73.979137,40.597473,2245.0
12:01:30,1,N10,86 St,-73.97823,40.592721,2305.0
12:01:30,1,Q01,Canal St,-74.00046,40.718383,853.51142703471
12:23:30,0,Q03,72 St,-73.958424,40.768799,1680.3131739801631
12:23:30,0,Q04,86 St,-73.951787,40.777891,1814.9203847739893
12:23:30,0,Q05,96 St,-73.947152,40.784318,1905.8490107738082
12:02:30,1,R01,Astoria-Ditmars Blvd,-73.912034,40.775036,2417.5181318340938
12:02:30,1,R03,Astoria Blvd,-73.917843,40.770258,2316.3399140123115
12:02:30,1,R04,30 Av,-73.921479,40.766779,2216.486580678978
12:02:30,1,R05,Broadway,-73.925508,40.76182,2119.9541131465103
12:02:30,1,R06,36 Av,-73.929575,40.756804,2025.1120078833528
12:02:30,1,R08,39 Av-Dutch Kills,-73.932755,40.752882,1919.7920078833527
12:02:30,1,R09,Queensboro Plaza,-73.940202,40.750582,1783.251467342812
12:02:30,1,R11,Lexington Av/59 St,-73.967258,40.76266,1622.827075238021
12:02:30,1,R13,5 Av/59 St,-73.973347,40.764811,1558.0050566420393
12:23:30,1,R14,57 St-7 Av,-73.980658,40.764664,1384.7751468059323
12:09:30,1,R15,49 St,-73.984139,40.759901,1318.3604195889516
12:54:00,1,R16,Times Sq-42 St,-73.986754,40.754672,1205.0598033917684
13:54:00,1,R17,34 St-Herald Sq,-73.98795,40.749567,1111.4660533917686
12:54:00,1,R18,28 St,-73.988691,40.745494,1188.5646449410642
12:54:00,1,R19,23 St,-73.989344,40.741303,1132.6640745432553
12:54:00,1,R20,14 St-Union Sq,-73.990568,40.735736,1032.8705850937945
13:08:00,1,R21,8 St-NYU,-73.992629,40.730328,1133.8549600937945
13:08:00,1,R22,Prince St,-73.997702,40.724329,1073.3098766471132
13:08:00,1,R23,Canal St,-74.001775,40.719527,973.5114270347101
13:08:00,1,R24,City Hall,-74.006978,40.713282,872.1300881953867
13:08:00,1,R25,Cortlandt St,-74.011029,40.710668,757.577108707279
13:08:00,1,R26,Rector St,-74.013342,40.70722,621.7297297297298
13:08:00,1,R27,Whitehall St-South Ferry,-74.012994,40.703087,555.0
13:08:00,1,R28,Court St,-73.991777,40.6941,302.5
13:08:00,1,R29,Jay St-MetroTech,-73.985942,40.69218,225.0
12:53:00,1,R30,DeKalb Av,-73.981824,40.690635,319.474358974359
12:01:30,1,R31,Atlantic Av-Barclays Ctr,-73.97881,40.683666,465.0
12:01:30,1,R32,Union St,-73.98311,40.677316,587.5
12:01:30,1,R33,4 Av-9 St,-73.988302,40.670847,709.9999999999999
12:01:30,1,R34,Prospect Av,-73.992872,40.665414,777.0
12:01:30,1,R35,25 St,-73.998091,40.660397,855.0
12:01:30,1,R36,36 St,-74.003549,40.655144,979.9999999999999
12:01:30,1,R39,45 St,-74.010006,40.648939,1158.3148971178446
12:01:30,1,R40,53 St,-74.014034,40.645069,1253.4994209273684
12:01:30,1,R41,59 St,-74.017881,40.641362,1385.0
12:01:30,1,R42,Bay Ridge Av,-74.023377,40.634967,1510.1182795955742
12:01:30,1,R43,77 St,-74.02551,40.629742,1590.3910068683012
12:01:30,1,R44,86 St,-74.028398,40.622687,1758.7914526200864
12:01:30,1,R45,Bay Ridge-95 St,-74.030876,40.616622,1843.757945375988
12:23:30,1,S01,Franklin Av,-73.955827,40.680596,846.5917914232748
12:23:30,1,S03,Park Pl,-73.957624,40.674772,969.4667914232747
12:23:30,1,S04,Botanic Garden,-73.959245,40.670343,1074.4753089313708
