start_time,ntransfers,stop_id,stop_name,stop_lon,stop_lat,duration
12:21:00,2,101,Van Cortlandt Park-242 St,-73.898583,40.889248,3475.9499971711566
12:21:00,2,103,238 St,-73.90087,40.884667,3350.139186360346
12:21:00,2,104,231 St,-73.904834,40.878856,3246.50689936483
12:21:00,2,106,Marble Hill-225 St,-73.909831,40.874561,3149.0249173828483
12:21:00,2,107,215 St,-73.915279,40.869444,3060.2321245900557
12:21:00,2,108,207 St,-73.918822,40.864621,2970.5091808671123
12:21:00,2,109,Dyckman St,-73.925536,40.860531,2870.1964055367157
12:21:00,2,110,191 St,-73.929412,40.855225,2786.3515779505087
12:21:00,2,111,181 St,-73.933596,40.849505,2695.321535032054
12:21:00,2,112,168 St-Washington Hts,-73.940133,40.840556,2576.1198182938565
12:21:00,2,113,157 St,-73.94489,40.834041,2476.8008527766156
12:21:00,2,114,145 St,-73.95036,40.826551,2359.547633892495
12:21:00,2,115,137 St-City College,-73.953676,40.822008,2258.671565516427
12:21:00,2,116,125 St,-73.958372,40.815581,2163.3465655164273
12:21:00,2,117,116 St-Columbia University,-73.96411,40.807722,2049.1173988497603
12:21:00,2,118,Cathedral Pkwy (110 St),-73.966847,40.803967,1970.1628533952153
12:21:00,2,119,103 St,-73.968379,40.799446,1890.634164870625
12:01:00,2,120,96 St,-73.972323,40.793919,1641.9585937131187
12:01:00,2,121,86 St,-73.976218,40.788644,1680.2325255263627
12:01:00,2,122,79 St,-73.979917,40.783934,1603.3585417865252
12:01:00,2,123,72 St,-73.98197,40.778453,1474.9075733049553
13:41:00,2,124,66 St-Lincoln Center,-73.982209,40.77344,1590.3095291450313
13:41:00,2,125,59 St-Columbus Circle,-73.981929,40.768247,1587.3453935977675
13:41:00,2,126,50 St,-73.983849,40.761728,1483.6762206654366
12:01:00,2,127,Times Sq-42 St,-73.987495,40.75529,1249.5233925139948
12:01:00,2,128,34 St-Penn Station,-73.991057,40.750373,1148.1644181550207
13:41:00,2,129,28 St,-73.993365,40.747215,1189.7614809860495
13:41:00,2,130,23 St,-73.995657,40.744081,1120.6131920126656
13:41:00,2,131,18 St,-73.997871,40.74104,1052.4351617096352
13:41:00,2,132,14 St,-74.000201,40.737826,977.8482891227625
12:01:00,2,133,Christopher St-Sheridan Sq,-74.002906,40.733422,1068.5705113449847
12:01:00,2,134,Houston St,-74.005367,40.728251,1154.4514637259372
12:01:00,2,135,Canal St,-74.006277,40.722854,1249.3123182333436
12:01:00,2,136,Franklin St,-74.006886,40.719318,1313.4821350402442
12:01:00,2,137,Chambers St,-74.009266,40.715478,1251.8353021097755
12:01:00,2,138,WTC Cortlandt,-74.012188,40.711835,1463.3949374081549
12:01:00,2,139,Rector St,-74.013783,40.707513,1539.9050588656446
12:01:00,2,142,South Ferry,-74.013664,40.702068,1640.9038237159666
12:01:00,2,201,Wakefield-241 St,-73.85062,40.903125,4236.501313114988
12:01:00,2,204,Nereid Av,-73.854376,40.898379,3939.4854997530233
12:01:00,2,205,233 St,-73.857473,40.893193,3849.4854997530233
12:01:00,2,206,225 St,-73.860341,40.888022,3759.4854997530233
12:01:00,2,207,219 St,-73.862633,40.883895,3669.4854997530233
12:01:00,2,208,Gun Hill Rd,-73.866256,40.87785,3564.4854997530233
12:01:00,2,209,Burke Av,-73.867164,40.871356,3555.331869792722
12:01:00,2,210,Allerton Av,-73.867352,40.865462,3463.2014350101135
12:01:00,2,211,Pelham Pkwy,-73.867615,40.857192,3358.853608923157
12:01:00,2,212,Bronx Park East,-73.868457,40.848828,3234.027521966635
12:01:00,2,213,E 180 St,-73.873488,40.841894,3023.723174140548
12:01:00,2,214,West Farms Sq-E Tremont Av,-73.880049,40.840295,2970.851632832404
12:01:00,2,215,174 St,-73.887734,40.837288,2840.7654259358524
12:01:00,2,216,Freeman St,-73.891865,40.829993,2720.927819098246
12:01:00,2,217,Simpson St,-73.893064,40.824073,2610.5464631660425
12:01:00,2,218,Intervale Av,-73.896736,40.822181,2537.6227343524833
12:01:00,2,219,Prospect Av,-73.90177,40.819585,2451.74137842028
12:01:00,2,220,Jackson Av,-73.907807,40.81649,2359.6825548908682
12:01:00,2,221,3 Av-149 St,-73.917757,40.816109,2237.974221557535
12:01:00,2,222,149 St-Grand Concourse,-73.926718,40.81841,2120.1092090881966
12:01:00,2,224,135 St,-73.94077,40.814229,2166.094716162098
12:01:00,2,225,125 St,-73.945495,40.807754,2058.014716162098
12:01:00,2,226,116 St,-73.949625,40.802098,1962.0351243253638
12:01:00,2,227,Central Park North (110 St),-73.951822,40.799075,1893.6626753457717
12:01:00,2,228,Park Place,-74.008811,40.713051,1349.0640602797102
12:46:00,1,229,Fulton St,-74.006571,40.709416,1463.9276221803216
12:05:00,1,230,Wall St,-74.0091,40.706821,1537.198298872051
12:05:00,2,231,Clark St,-73.993086,40.697466,1527.7331816842036
12:05:00,1,232,Borough Hall,-73.989998,40.693219,1432.642956120294
12:05:00,2,233,Hoyt St,-73.985065,40.690545,1517.16627218247
12:05:00,2,234,Nevins St,-73.980492,40.688246,1552.642956120294
12:05:00,2,235,Atlantic Av-Barclays Ctr,-73.977666,40.684359,1580.142956120294
12:05:00,2,236,Bergen St,-73.975098,40.680829,1657.3130592130774
12:05:00,2,237,Grand Army Plaza,-73.971046,40.675235,1769.421306635758
12:05:00,2,238,Eastern Pkwy-Brooklyn Museum,-73.964375,40.671987,1879.4366912511425
12:05:00,2,239,Franklin Av-Medgar Evers College,-73.958131,40.670682,1839.1923231287178
12:05:00,1,241,President St-Medgar Evers College,-73.950683,40.667883,2020.7819426870035
12:05:00,1,242,Sterling St,-73.95085,40.662742,2113.3635753400645
12:05:00,1,243,Winthrop St,-73.9502,40.656652,2198.7811011132603
12:05:00,1,244,Church Av,-73.949575,40.650843,2279.803200560774
12:05:00,1,245,Beverly Rd,-73.948959,40.645098,2363.224520357728
12:05:00,1,246,Newkirk Av-Little Haiti,-73.948411,40.639967,2447.006246246053
12:05:00,1,247,Flatbush Av-Brooklyn College,-73.947642,40.632836,2564.377032762907
12:05:00,1,248,Nostrand Av,-73.950466,40.669847,1969.6506484530166
12:05:00,1,249,Kingston Av,-73.942161,40.669399,2056.960000971002
12:05:00,2,250,Crown Hts-Utica Av,-73.932942,40.668897,2018.79919266454
12:12:00,2,251,Sutter Av-Rutland Rd,-73.92261,40.664717,1894.942049807397
12:12:00,2,252,Saratoga Av,-73.916327,40.661453,1790.3538145132795
12:12:00,2,253,Rockaway Av,-73.908946,40.662549,1701.4126380426915
12:12:00,2,254,Junius St,-73.902447,40.663515,1619.5695007877894
13:10:30,2,255,Pennsylvania Av,-73.894895,40.664635,1716.7851870622992
13:10:30,2,256,Van Siclen Av,-73.889395,40.665449,1791.2949909838678
13:10:30,2,257,New Lots Av,-73.884079,40.666235,1862.0695007877896
12:01:00,2,301,Harlem-148 St,-73.93647,40.82388,2413.9839266884137
12:01:00,2,302,145 St,-73.936245,40.820421,2299.599716162098
12:21:00,2,401,Woodlawn,-73.878751,40.886037,3414.7339319339694
12:21:00,2,402,Mosholu Pkwy,-73.884655,40.87975,3293.1612447093
12:21:00,2,405,Bedford Park Blvd-Lehman College,-73.890064,40.873412,3155.5190033299896
12:21:00,2,406,Kingsbridge Rd,-73.897174,40.86776,3044.029732943723
12:21:00,2,407,Fordham Rd,-73.901034,40.862803,2959.517437861756
12:21:00,2,408,183 St,-73.903879,40.858407,2879.7092745964496
12:21:00,2,409,Burnside Av,-73.907684,40.853453,2784.310934347487
12:21:00,2,410,176 St,-73.911794,40.84848,2695.825457169064
12:21:00,2,411,Mt Eden Av,-73.914685,40.844434,2618.114713367411
12:21:00,2,412,170 St,-73.917791,40.840075,2538.5733910533613
12:21:00,2,413,167 St,-73.9214,40.835537,2450.664677360415
12:21:00,2,414,161 St-Yankee Stadium,-73.925831,40.827994,2342.668861460834
12:21:00,2,415,149 St-Grand Concourse,-73.927351,40.818375,2124.417997834728
12:01:00,2,416,138 St-Grand Concourse,-73.929849,40.813224,1955.1031849918113
12:01:00,2,418,Fulton St,-74.009509,40.710368,1288.0209818038857
12:14:00,1,419,Wall St,-74.011862,40.707557,1367.4098706927746
12:14:00,1,420,Bowling Green,-74.014065,40.704817,1442.4995258651884
12:05:00,2,423,Borough Hall,-73.990151,40.692404,1431.9076624935087
12:01:00,2,501,Eastchester-Dyre Av,-73.830834,40.8883,3799.3232144695503
12:01:00,2,502,Baychester Av,-73.838591,40.878663,3668.9605771069128
12:01:00,2,503,Gun Hill Rd,-73.846384,40.869526,3510.191759902612
12:01:00,2,504,Pelham Pkwy,-73.855359,40.858985,3352.8330642504384
12:01:00,2,505,Morris Park,-73.860495,40.854364,3265.1517455691196
13:41:00,2,601,Pelham Bay Park,-73.828121,40.852462,3618.1401720052654
13:41:00,2,602,Buhre Av,-73.832569,40.84681,3434.7132216506557
13:41:00,2,603,Middletown Rd,-73.836322,40.843863,3325.8798883173226
13:41:00,2,604,Westchester Sq-E Tremont Av,-73.842952,40.839892,3181.129888317322
13:41:00,2,606,Zerega Av,-73.847036,40.836488,3083.046554983989
13:41:00,2,607,Castle Hill Av,-73.851222,40.834255,3015.7132216506557
13:01:00,2,608,Parkchester,-73.860816,40.833226,2859.7132216506557
13:01:00,2,609,St Lawrence Av,-73.867618,40.831509,3095.677521823089
13:01:00,2,610,Morrison Av-Soundview,-73.874516,40.829521,3011.2229763685436
13:01:00,2,611,Elder Av,-73.879159,40.828584,2947.08661273218
13:01:00,2,612,Whitlock Av,-73.886283,40.826525,2841.0788590511092
13:01:00,2,613,Hunts Point Av,-73.890549,40.820948,2603.3286062660404
12:01:00,2,614,Longwood Av,-73.896435,40.816104,2666.752310608336
12:01:00,2,615,E 149 St,-73.904098,40.812118,2565.6439772750027
12:01:00,2,616,E 143 St-St Mary's St,-73.907657,40.808719,2490.8016536235505
12:01:00,2,617,Cypress Av,-73.914042,40.805368,2391.8811515315
12:01:00,2,618,Brook Av,-73.91924,40.807566,2322.3223280020884
12:01:00,2,619,3 Av-138 St,-73.926138,40.810476,2224.2516831891176
12:01:00,2,621,125 St,-73.937594,40.804138,1797.3945389695825
12:01:00,2,622,116 St,-73.941617,40.798629,1904.0560529141628
12:01:00,2,623,110 St,-73.94425,40.79502,1824.1051757211803
12:01:00,2,624,103 St,-73.947478,40.7906,1747.7332458966189
12:01:00,2,625,96 St,-73.95107,40.785672,1661.2630704580226
12:01:00,2,626,86 St,-73.955589,40.779492,1512.9988555163452
12:01:00,2,627,77 St,-73.959874,40.77362,1453.9316339480272
12:01:00,2,628,68 St-Hunter College,-73.96387,40.768141,1364.0576843681952
12:01:00,2,629,59 St,-73.967967,40.762526,1276.2341549564305
12:01:00,2,630,51 St,-73.97192,40.757107,1181.1160114965148
12:01:00,2,631,Grand Central-42 St,-73.976848,40.751776,1155.4456640269834
12:51:00,2,632,33 St,-73.982076,40.746081,1150.1086314120348
12:51:00,2,633,28 St,-73.984264,40.74307,1083.2654110730518
12:51:00,2,634,23 St,-73.986599,40.739864,1011.2569364967806
12:01:00,2,635,14 St-Union Sq,-73.989951,40.734673,911.2990832231454
12:01:00,2,636,Astor Pl,-73.99107,40.730054,986.98980487263
12:01:00,2,637,Bleecker St,-73.994659,40.725915,1077.706528422118
12:01:00,2,638,Spring St,-73.997141,40.722301,1146.8561882860636
12:01:00,2,639,Canal St,-74.000193,40.718803,1220.6332153130907
12:51:00,2,640,Brooklyn Bridge-City Hall,-74.004131,40.713065,1178.8195929149967
12:12:00,1,701,Flushing-Main St,-73.83003,40.7596,1930.381503817763
12:12:00,1,702,Mets-Willets Point,-73.845625,40.754622,1754.0719800082393
12:12:00,1,705,111 St,-73.855334,40.75173,1774.0277348847114
12:12:00,1,706,103 St-Corona Plaza,-73.8627,40.749865,1680.4017264066586
12:12:00,1,707,Junction Blvd,-73.869527,40.749145,1510.0683930733253
12:12:00,1,708,90 St-Elmhurst Av,-73.876613,40.748408,1564.8167124550162
12:12:00,1,709,82 St-Jackson Hts,-73.883697,40.747659,1485.4364307648752
12:12:00,1,710,74 St-Broadway,-73.891394,40.746848,1343.1881314451473
12:12:00,1,711,69 St,-73.896403,40.746325,1295.776366739265
12:12:00,1,712,61 St-Woodside,-73.902984,40.74563,1223.8679160350396
12:12:00,1,713,52 St,-73.912549,40.744149,1134.6827308498544
12:12:00,1,714,46 St-Bliss St,-73.918435,40.743132,1076.8522223752782
12:12:00,1,715,40 St-Lowery St,-73.924016,40.743781,1021.5403579684985
12:12:00,1,716,33 St-Rawson St,-73.930997,40.744587,957.3731224736179
12:12:00,1,718,Queensboro Plaza,-73.940202,40.750582,831.0683930733253
12:12:00,1,719,Court Sq,-73.945264,40.747023,742.0683930733254
12:12:00,1,720,Hunters Point Av,-73.948916,40.742216,828.0683930733254
12:12:00,1,721,Vernon Blvd-Jackson Av,-73.953581,40.742626,856.0683930733254
12:12:00,1,723,Grand Central-42 St,-73.976041,40.751431,1059.0683930733253
12:12:00,1,724,5 Av,-73.981963,40.753821,1178.9584463012013
12:12:00,1,725,Times Sq-42 St,-73.987691,40.755477,1251.645946301201
12:12:00,1,726,34 St-Hudson Yards,-74.00191,40.755882,1402.6160549968533
12:01:00,3,901,Grand Central-42 St,-73.979189,40.752769,1263.5687614874478
12:01:00,3,902,Times Sq-42 St,-73.986229,40.755983,1358.0087614874478
13:46:00,0,A02,Inwood-207 St,-73.919899,40.868072,2966.343433509156
12:01:00,1,A03,Dyckman St,-73.927271,40.865491,2876.2704408084264
12:01:00,1,A05,190 St,-73.93418,40.859022,2752.6780495040784
12:01:00,1,A06,181 St,-73.937969,40.851695,2639.4427553864316
12:01:00,1,A07,175 St,-73.939704,40.847391,2542.7223252789045
12:01:00,1,A09,168 St,-73.939561,40.840719,2415.2838226051076
12:01:00,1,A10,163 St-Amsterdam Av,-73.939892,40.836013,2436.2374184445753
12:01:00,1,A11,155 St,-73.941514,40.830518,2354.4040851112422
12:01:00,1,A12,145 St,-73.944216,40.824783,2170.4068172575144
12:01:00,1,A14,135 St,-73.947649,40.817894,2092.242620802995
12:01:00,1,A15,125 St,-73.952343,40.811109,1944.7831613435358
12:01:00,1,A16,116 St,-73.954882,40.805085,2068.6187435742377
12:01:00,1,A17,Cathedral Pkwy (110 St),-73.958161,40.800603,2093.357762464374
12:01:00,1,A18,103 St,-73.961454,40.796092,2005.5915286981399
12:01:00,1,A19,96 St,-73.964696,40.791642,1920.8382819448932
12:01:00,1,A20,86 St,-73.968916,40.785868,1818.9567029975246
12:01:00,1,A21,81 St-Museum of Natural History,-73.972143,40.781433,1722.930036330858
12:01:00,1,A22,72 St,-73.97641,40.775594,1634.0500363308581
13:41:00,1,A24,59 St-Columbus Circle,-73.981736,40.768296,1432.0114222131012
13:41:00,1,A25,50 St,-73.985984,40.762456,1252.7558651291242
12:01:00,2,A27,42 St-Port Authority Bus Terminal,-73.989735,40.757308,1270.0060168076957
12:01:00,2,A28,34 St-Penn Station,-73.993391,40.752287,1173.7156942270506
12:01:00,2,A30,23 St,-73.998041,40.745906,1110.2874332121446
12:01:00,2,A31,14 St,-74.00169,40.740893,1018.6177903550016
12:01:00,2,A32,W 4 St-Wash Sq,-74.000495,40.732338,1130.7405973725454
12:01:00,2,A33,Spring St,-74.003739,40.726227,1237.8107728111418
12:05:00,0,A34,Canal St,-74.005229,40.720824,1303.1449774318687
12:05:00,0,A36,Chambers St,-74.008585,40.714111,1389.8660642885284
12:05:00,0,A38,Fulton St,-74.007691,40.710197,1293.7108918747354
12:05:00,0,A40,High St,-73.990531,40.699337,1107.7626160126663
12:05:00,0,A41,Jay St-MetroTech,-73.987342,40.692338,980.1429561202939
12:05:00,0,A42,Hoyt-Schermerhorn Sts,-73.985001,40.688484,637.6103479947731
12:36:00,0,A43,Lafayette Av,-73.973946,40.686113,996.8875102027395
12:36:00,0,A44,Clinton-Washington Avs,-73.965838,40.683263,1081.5511465663758
12:36:00,0,A45,Franklin Av,-73.956848,40.68138,1187.6761465663758
13:36:00,0,A46,Nostrand Av,-73.950426,40.680438,1163.5071462779622
12:36:00,0,A47,Kingston-Throop Avs,-73.940858,40.679921,1263.861312944629
13:36:00,0,A48,Utica Av,-73.930729,40.679364,1334.3273709970636
12:36:00,0,A49,Ralph Av,-73.920786,40.678822,1445.0447623014115
12:36:00,0,A50,Rockaway Av,-73.911946,40.67834,1375.8278021991925
13:36:00,0,A51,Broadway Junction,-73.905316,40.678334,1291.7294415434549
12:36:00,0,A52,Liberty Av,-73.896548,40.674542,1425.6887911369508
13:36:00,0,A53,Van Siclen Av,-73.890358,40.67271,1520.8676529255688
13:36:00,0,A54,Shepherd Av,-73.88075,40.67413,1624.940823657276
13:36:00,0,A55,Euclid Av,-73.872106,40.675377,1592.0410694504315
13:36:00,0,A57,Grant Av,-73.86505,40.677044,1714.2236420645395
13:36:00,0,A59,80 St,-73.858992,40.679371,1811.5756420645396
13:36:00,0,A60,88 St,-73.85147,40.679843,1907.5358014270894
13:36:00,0,A61,Rockaway Blvd,-73.843853,40.680429,1997.8810395223272
13:36:00,0,A63,104 St,-73.837683,40.681711,2081.5530395223273
13:36:00,0,A64,111 St,-73.832163,40.684331,2167.6841870633107
13:36:00,0,A65,Ozone Park-Lefferts Blvd,-73.825798,40.685951,2256.747478202551
13:31:00,1,B04,21 St-Queensbridge,-73.942836,40.754203,1724.1524254034673
13:31:00,1,B06,Roosevelt Island,-73.95326,40.759145,1577.531735748295
13:31:00,1,B08,Lexington Av/63 St,-73.966113,40.764629,1312.382003035958
13:31:00,1,B10,57 St,-73.97745,40.763972,1495.3482891227625
12:05:00,0,B12,9 Av,-73.994324,40.646292,1868.7854118854368
12:05:00,0,B13,Fort Hamilton Pkwy,-73.994304,40.640914,2026.8367767150114
12:05:00,0,B14,50 St,-73.994791,40.63626,2101.952786227661
12:05:00,0,B15,55 St,-73.995476,40.631435,2184.613500513375
12:05:00,0,B16,62 St,-73.996895,40.626472,2271.5922441774856
12:05:00,0,B17,71 St,-73.998864,40.619589,2374.0826900373586
12:05:00,0,B18,79 St,-74.00061,40.613501,2480.6431995914986
12:05:00,0,B19,18 Av,-74.001736,40.607954,2562.2367479785953
12:05:00,0,B20,20 Av,-73.998168,40.604556,2644.230254472102
12:05:00,0,B21,Bay Pkwy,-73.993728,40.601875,2721.775709017556
12:05:00,0,B22,25 Av,-73.986829,40.597704,2840.885386436911
13:06:00,0,B23,Bay 50 St,-73.983765,40.588841,2986.084412373483
12:01:00,1,D01,Norwood-205 St,-73.878855,40.874811,3395.2475837649285
12:01:00,1,D03,Bedford Park Blvd,-73.887138,40.873244,3223.7610972784423
12:01:00,1,D04,Kingsbridge Rd,-73.893509,40.866978,3106.6048472784423
12:01:00,1,D05,Fordham Rd,-73.897749,40.861296,3012.073378746974
12:01:00,1,D06,182-183 Sts,-73.900741,40.856093,2925.139471945811
12:01:00,1,D07,Tremont Av,-73.905227,40.85041,2847.024427698023
12:01:00,1,D08,174-175 Sts,-73.910136,40.8459,2802.6217248842404
12:01:00,1,D09,170 St,-73.9134,40.839306,2696.3653146278302
12:01:00,1,D10,167 St,-73.91844,40.833771,2591.4459597891205
12:01:00,1,D11,161 St-Yankee Stadium,-73.925651,40.827905,2474.0650074081677
12:01:00,1,D12,155 St,-73.938209,40.830135,2350.4867824279336
12:01:00,1,D13,145 St,-73.944216,40.824783,2212.365007408168
13:41:00,1,D14,7 Av,-73.981637,40.762862,1158.7652990913884
12:01:00,1,D15,47-50 Sts-Rockefeller Ctr,-73.981329,40.758663,1196.3541073590397
12:21:00,1,D16,42 St-Bryant Pk,-73.984569,40.754222,1260.1300358988215
12:01:00,2,D17,34 St-Herald Sq,-73.987823,40.749719,1181.44902676536
12:01:00,2,D18,23 St,-73.992821,40.742878,1072.0841619004952
12:01:00,2,D19,14 St,-73.996209,40.738228,992.8482891227625
12:01:00,2,D20,W 4 St-Wash Sq,-74.000495,40.732338,1074.1816224560957
12:05:00,0,D21,Broadway-Lafayette St,-73.996204,40.725297,1237.514955789429
12:05:00,0,D22,Grand St,-73.993753,40.718267,1418.346865496622
12:05:00,1,D24,Atlantic Av-Barclays Ctr,-73.97689,40.68446,1646.965065827193
12:05:00,1,D25,7 Av,-73.972367,40.67705,1777.426205723566
12:05:00,1,D26,Prospect Park,-73.962246,40.661614,1726.4500436251994
12:05:00,1,D27,Parkside Av,-73.961495,40.655292,2040.4469311121672
12:05:00,1,D28,Church Av,-73.962982,40.650527,2070.1771033948403
12:05:00,1,D29,Beverley Rd,-73.964492,40.644031,2177.048831004475
12:05:00,1,D30,Cortelyou Rd,-73.963891,40.640927,2255.2443617307317
12:05:00,1,D31,Newkirk Plaza,-73.962793,40.635082,2241.619960537697
12:05:00,1,D32,Avenue H,-73.961639,40.62927,2358.443067014676
12:05:00,1,D33,Avenue J,-73.960803,40.625039,2452.426021560131
12:05:00,1,D34,Avenue M,-73.959399,40.617618,2563.817083012645
12:36:00,1,D35,Kings Hwy,-73.957734,40.60867,2479.7523134788735
13:56:00,1,D37,Avenue U,-73.955929,40.5993,2695.232013314359
13:56:00,1,D38,Neck Rd,-73.955161,40.595246,2794.768095788586
12:36:00,1,D39,Sheepshead Bay,-73.954155,40.586896,2717.7373881057392
13:56:00,1,D40,Brighton Beach,-73.961376,40.577621,2867.4646608330117
13:36:00,0,D41,Ocean Pkwy,-73.968501,40.576312,2959.4777180182523
13:36:00,0,D42,W 8 St-NY Aquarium,-73.975939,40.576127,2620.0261051150264
13:36:00,0,D43,Coney Island-Stillwell Av,-73.981233,40.577422,2736.0261051150264
12:25:00,0,E01,World Trade Center,-74.009781,40.712582,1479.8492414671964
12:21:00,1,F01,Jamaica-179 St,-73.783817,40.712646,2345.6131810255115
12:21:00,1,F02,169 St,-73.793604,40.71047,2353.3274667397973
12:21:00,1,F03,Parsons Blvd,-73.803326,40.707564,2178.470323882654
12:21:00,1,F04,Sutphin Blvd,-73.810708,40.70546,2236.3274667397973
12:21:00,1,F05,Briarwood,-73.820574,40.709179,2079.3468842155253
13:41:00,1,F06,Kew Gardens-Union Tpke,-73.831008,40.714441,1951.3274667397973
12:21:00,1,F07,75 Av,-73.837324,40.718331,1848.0575973761229
12:21:00,1,F09,Court Sq-23 St,-73.946,40.747846,742.0683930733254
13:41:00,1,F11,Lexington Av/53 St,-73.969055,40.757552,945.639821644754
13:41:00,1,F12,5 Av/53 St,-73.975224,40.760167,1044.8234951141417
12:05:00,0,F14,2 Av,-73.989938,40.723402,1334.5149557894292
12:05:00,0,F15,Delancey St-Essex St,-73.988114,40.718611,1373.6456131313425
12:05:00,0,F16,East Broadway,-73.990173,40.713715,1285.4730242988553
12:05:00,0,F18,York St,-73.986751,40.701397,1134.275054755708
12:14:00,0,F20,Bergen St,-73.990862,40.686145,736.9068835029852
12:14:00,0,F21,Carroll St,-73.995048,40.680303,862.749815440158
12:14:00,0,F22,Smith-9 Sts,-73.995959,40.67358,989.8852321068247
12:14:00,0,F23,4 Av-9 St,-73.989779,40.670272,1082.5018124177054
12:14:00,0,F24,7 Av,-73.980305,40.666271,1203.6782830059408
12:14:00,0,F25,15 St-Prospect Park,-73.979493,40.660365,1320.1755803032381
12:14:00,0,F26,Fort Hamilton Pkwy,-73.975776,40.650782,1465.6437883957237
12:14:00,0,F27,Church Av,-73.979678,40.644041,1493.692771781693
12:14:00,0,F29,Ditmas Av,-73.978172,40.636119,1614.3594384483597
12:14:00,0,F30,18 Av,-73.976971,40.629755,1734.3594384483597
12:14:00,0,F31,Avenue I,-73.976127,40.625322,1794.3594384483597
12:14:00,0,F32,Bay Pkwy,-73.975264,40.620769,1854.3594384483597
12:14:00,0,F33,Avenue N,-73.974197,40.61514,1974.3594384483597
12:14:00,0,F34,Avenue P,-73.973022,40.608944,2064.35943844836
12:14:00,0,F35,Kings Hwy,-73.972361,40.603217,2217.0261051150264
13:36:00,0,F36,Avenue U,-73.973357,40.596063,2333.692771781693
13:36:00,0,F38,Avenue X,-73.97425,40.58962,2395.3594384483595
13:36:00,0,F39,Neptune Av,-73.974574,40.581011,2535.35943844836
13:41:00,1,G05,Jamaica Center-Parsons/Archer,-73.801109,40.702147,2409.285501761092
13:41:00,1,G06,Sutphin Blvd-Archer Av-JFK Airport,-73.807969,40.700486,2318.0005855599748
13:41:00,1,G07,Jamaica-Van Wyck,-73.816859,40.702566,2198.648733708123
13:41:00,1,G08,Forest Hills-71 Av,-73.844521,40.721691,1739.6195021380274
13:41:00,1,G09,67 Av,-73.852719,40.726523,1888.38924174928
13:41:00,1,G10,63 Dr-Rego Park,-73.861604,40.729846,1795.8517857131349
13:41:00,1,G11,Woodhaven Blvd,-73.869229,40.733106,1692.2216487268336
13:41:00,1,G12,Grand Av-Newtown,-73.877223,40.737015,1569.3466487268336
13:41:00,1,G13,Elmhurst Av,-73.882017,40.742454,1469.8124021514911
13:41:00,1,G14,Jackson Hts-Roosevelt Av,-73.891338,40.746644,1311.5212878523132
13:41:00,1,G15,65 St,-73.898453,40.749669,1432.0810166794688
12:21:00,1,G16,Northern Blvd,-73.906006,40.752885,1337.7511197722524
12:21:00,1,G18,46 St,-73.913333,40.756312,1247.7511197722524
12:21:00,1,G19,Steinway St,-73.92074,40.756879,1130.843903277407
12:21:00,1,G20,36 St,-73.928781,40.752039,1010.843903277407
12:21:00,1,G21,Queens Plaza,-73.937243,40.748973,865.435740012101
12:01:00,0,G22,Court Sq,-73.943832,40.746554,562.0683930733254
12:01:00,0,G24,21 St,-73.949724,40.744065,472.7554159740887
12:01:00,0,G26,Greenpoint Av,-73.954449,40.731352,327.0261263148825
12:01:00,0,G28,Nassau Av,-73.951277,40.724635,224.43942604006165
12:01:00,0,G29,Metropolitan Av,-73.951418,40.712792,85.7784090909091
12:36:00,0,G30,Broadway,-73.950308,40.706092,0.0
12:05:00,0,G31,Flushing Av,-73.950234,40.700377,86.3945945945946
12:05:00,0,G32,Myrtle-Willoughby Avs,-73.949046,40.694568,168.11891891891892
12:05:00,0,G33,Bedford-Nostrand Avs,-73.953522,40.689627,280.0490264458006
12:05:00,0,G34,Classon Av,-73.96007,40.688873,357.23879331993976
12:05:00,0,G35,Clinton-Washington Avs,-73.966839,40.688089,438.33168949480313
12:05:00,0,G36,Fulton St,-73.975375,40.687119,530.6158425002676
12:46:00,0,H01,Aqueduct Racetrack,-73.834058,40.668234,2203.9127855540737
13:26:00,0,H02,Aqueduct-N Conduit Av,-73.834058,40.668234,2276.981838493649
13:26:00,0,H03,Howard Beach-JFK Airport,-73.830301,40.660476,2375.1016744429626
13:26:00,0,H04,Broad Channel,-73.815925,40.608382,2793.0532873461884
13:26:00,0,H06,Beach 67 St,-73.796924,40.590927,3104.342761030399
13:26:00,0,H07,Beach 60 St,-73.788522,40.592374,3207.7901294514513
13:26:00,0,H08,Beach 44 St,-73.776013,40.592943,3311.2725855918025
13:26:00,0,H09,Beach 36 St,-73.768175,40.595398,3408.51819962689
13:26:00,0,H10,Beach 25 St,-73.761353,40.600066,3508.898730600341
13:26:00,0,H11,Far Rockaway-Mott Av,-73.755405,40.603995,3608.065397267008
12:46:00,0,H12,Beach 90 St,-73.813641,40.588034,3044.3532873461886
12:46:00,0,H13,Beach 98 St,-73.820558,40.585307,3122.7532873461882
12:46:00,0,H14,Beach 105 St,-73.827559,40.583209,3198.8643984572996
12:46:00,0,H15,Rockaway Park-Beach 116 St,-73.835592,40.580903,3303.0643984572994
13:36:00,1,J12,121 St,-73.828294,40.700492,2281.729441543455
13:36:00,1,J13,111 St,-73.836345,40.697418,2444.058921312241
13:36:00,1,J14,104 St,-73.84433,40.695178,2101.729441543455
13:36:00,1,J15,Woodhaven Blvd,-73.851576,40.693879,2011.7294415434549
13:36:00,1,J16,85 St-Forest Pkwy,-73.86001,40.692435,2015.9605839033572
13:36:00,1,J17,75 St-Elderts Ln,-73.867139,40.691324,1831.7294415434549
13:36:00,1,J19,Cypress Hills,-73.87255,40.689941,1813.7105839033575
13:36:00,1,J20,Crescent St,-73.873785,40.683194,1681.7294415434549
13:36:00,1,J21,Norwood Av,-73.880039,40.68141,1591.7294415434549
13:36:00,1,J22,Cleveland St,-73.884639,40.679947,1596.9089619632741
13:36:00,1,J23,Van Siclen Av,-73.891688,40.678024,1441.7294415434549
13:36:00,1,J24,Alabama Av,-73.898654,40.676992,1381.7294415434549
13:36:00,1,J27,Broadway Junction,-73.904512,40.679498,1278.411054273481
13:36:00,1,J28,Chauncey St,-73.910456,40.682893,1351.7294415434549
13:36:00,1,J29,Halsey St,-73.916559,40.68637,1474.074679638693
13:36:00,1,J30,Gates Av,-73.92227,40.68963,1501.7294415434549
13:36:00,1,J31,Kosciuszko St,-73.928814,40.693342,1469.1229190971144
12:01:00,1,L01,8 Av,-74.002578,40.739777,851.5651565926419
12:01:00,1,L02,6 Av,-73.996786,40.737335,767.8482891227625
12:01:00,1,L03,14 St-Union Sq,-73.99073,40.734789,687.8419399164133
12:01:00,1,L05,3 Av,-73.986122,40.732849,627.8011757282228
12:01:00,1,L06,1 Av,-73.981628,40.730953,597.4306655928305
12:01:00,1,L08,Bedford Av,-73.956872,40.717304,388.46461621011434
12:01:00,1,L10,Lorimer St,-73.950275,40.714063,313.7958059207253
12:12:00,1,L11,Graham Av,-73.944053,40.714565,348.5602503651697
12:12:00,1,L12,Grand St,-73.94067,40.711926,428.305473295106
12:12:00,1,L13,Montrose Av,-73.93985,40.707739,464.32748587372237
12:12:00,1,L14,Morgan Av,-73.933147,40.706152,537.5219977425652
12:12:00,1,L15,Jefferson St,-73.922913,40.706607,621.4036545472989
12:12:00,1,L16,DeKalb Av,-73.918425,40.703811,687.1054617762145
12:12:00,1,L17,Myrtle-Wyckoff Avs,-73.911586,40.699814,758.1145252203232
12:12:00,1,L19,Halsey St,-73.904084,40.695602,802.1784982842963
12:12:00,1,L20,Wilson Av,-73.904046,40.688764,919.1568933460247
12:12:00,1,L21,Bushwick Av-Aberdeen St,-73.905249,40.682829,1003.4936989015803
12:12:00,1,L22,Broadway Junction,-73.90324,40.678856,1053.411054273481
12:12:00,1,L24,Atlantic Av,-73.903097,40.675345,1161.4882147673081
12:12:00,1,L25,Sutter Av,-73.901975,40.669367,1231.860522459616
12:12:00,1,L26,Livonia Av,-73.900571,40.664038,1289.5695007877894
12:12:00,1,L27,New Lots Av,-73.899232,40.658733,1338.6695007877895
12:12:00,1,L28,East 105 St,-73.899485,40.650573,1435.3959158821292
12:12:00,1,L29,Canarsie-Rockaway Pkwy,-73.90185,40.646654,1560.4601050713184
12:01:00,2,M01,Middle Village-Metropolitan Av,-73.889601,40.711396,1383.566086781187
12:01:00,2,M04,Fresh Pond Rd,-73.895877,40.706186,1266.2830679132626
12:01:00,2,M05,Forest Av,-73.903077,40.704423,1173.696734178102
12:01:00,2,M06,Seneca Av,-73.90774,40.702762,1079.3324957675059
12:12:00,2,M08,Myrtle-Wyckoff Avs,-73.912385,40.69943,983.1145252203232
12:01:00,2,M09,Knickerbocker Av,-73.919711,40.698664,1078.31335562968
12:01:00,2,M10,Central Av,-73.927397,40.697857,1189.3015909237977
12:01:00,2,M11,Myrtle Av,-73.935657,40.697207,1314.862992209785
12:01:00,2,M12,Flushing Av,-73.941126,40.70026,1419.576836809473
12:01:00,2,M13,Lorimer St,-73.947408,40.703869,1516.008836809473
12:01:00,2,M14,Hewes St,-73.953431,40.70687,1613.0914814375722
12:01:00,2,M16,Marcy Av,-73.957757,40.708359,1610.9422803745595
12:01:00,2,M18,Delancey St-Essex St,-73.987437,40.718315,1427.652666687742
12:05:00,1,M19,Bowery,-73.993915,40.72028,1520.3375640229176
12:01:00,3,M20,Canal St,-73.999892,40.718092,1422.3497591448688
12:01:00,3,M21,Chambers St,-74.003401,40.713243,1403.8195929149967
12:01:00,3,M22,Fulton St,-74.007582,40.710374,1505.891054121456
12:36:00,1,M23,Broad St,-74.011056,40.706476,1572.5857909635613
12:05:00,0,N02,8 Av,-74.011719,40.635064,2032.720246687356
12:05:00,0,N03,Fort Hamilton Pkwy,-74.005351,40.631386,2176.1653333925583
12:05:00,0,N04,New Utrecht Av,-73.996353,40.624842,2312.4543507335984
12:05:00,0,N05,18 Av,-73.990414,40.620671,2404.7260270341767
12:05:00,0,N06,20 Av,-73.985026,40.61741,2483.848120057432
12:05:00,0,N07,Bay Pkwy,-73.981848,40.611815,2577.887022278919
12:05:00,0,N08,Kings Hwy,-73.980353,40.603923,2689.5229921589535
12:05:00,0,N09,Avenue U,-73.979137,40.597473,2782.249736345
12:05:00,0,N10,86 St,-73.97823,40.592721,2857.887022278919
12:01:00,2,Q01,Canal St,-74.00046,40.718383,1176.3497866795656
12:01:00,1,Q03,72 St,-73.958424,40.768799,1432.382003035958
12:01:00,1,Q04,86 St,-73.951787,40.777891,1567.882003035958
12:01:00,1,Q05,96 St,-73.947152,40.784318,1645.382003035958
12:12:00,2,R01,Astoria-Ditmars Blvd,-73.912034,40.775036,1517.0273657520916
12:12:00,2,R03,Astoria Blvd,-73.917843,40.770258,1415.8491479303095
12:12:00,2,R04,30 Av,-73.921479,40.766779,1315.9958145969763
12:12:00,2,R05,Broadway,-73.925508,40.76182,1219.4633470645085
12:12:00,2,R06,36 Av,-73.929575,40.756804,1124.6212418013506
12:12:00,2,R08,39 Av-Dutch Kills,-73.932755,40.752882,1019.3012418013506
12:12:00,2,R09,Queensboro Plaza,-73.940202,40.750582,882.76070126081
12:12:00,2,R11,Lexington Av/59 St,-73.967258,40.76266,1132.382003035958
12:01:00,2,R13,5 Av/59 St,-73.973347,40.764811,1223.985553331816
12:01:00,2,R14,57 St-7 Av,-73.980658,40.764664,1348.1453166454255
12:01:00,2,R15,49 St,-73.984139,40.759901,1326.2675914314045
12:01:00,2,R16,Times Sq-42 St,-73.986754,40.754672,1185.554337118162
12:01:00,2,R17,34 St-Herald Sq,-73.98795,40.749567,1085.5174950128987
12:01:00,2,R18,28 St,-73.988691,40.745494,1085.8400302241664
12:01:00,2,R19,23 St,-73.989344,40.741303,1004.6569316326171
12:01:00,2,R20,14 St-Union Sq,-73.990568,40.735736,912.8419399164133
12:01:00,2,R21,8 St-NYU,-73.992629,40.730328,1013.8263149164133
12:01:00,2,R22,Prince St,-73.997702,40.724329,1099.5138149164134
12:01:00,2,R23,Canal St,-74.001775,40.719527,1199.3122645288165
12:01:00,2,R24,City Hall,-74.006978,40.713282,1344.804572221124
12:46:00,1,R25,Cortlandt St,-74.011029,40.710668,1459.2473203127272
12:46:00,1,R26,Rector St,-74.013342,40.70722,1527.6335534456962
12:46:00,1,R27,Whitehall St-South Ferry,-74.012994,40.703087,1460.9038237159666
12:46:00,1,R28,Court St,-73.991777,40.6941,1192.642956120294
12:36:00,1,R29,Jay St-MetroTech,-73.985942,40.69218,1115.142956120294
12:36:00,1,R30,DeKalb Av,-73.981824,40.690635,1212.642956120294
12:05:00,1,R31,Atlantic Av-Barclays Ctr,-73.97881,40.683666,1355.142956120294
13:06:00,1,R32,Union St,-73.98311,40.677316,1412.5494314653245
12:14:00,1,R33,4 Av-9 St,-73.988302,40.670847,1307.5018124177054
12:14:00,1,R34,Prospect Av,-73.992872,40.665414,1389.5018124177054
12:14:00,1,R35,25 St,-73.998091,40.660397,1467.5018124177057
12:14:00,1,R36,36 St,-74.003549,40.655144,1573.3878874432492
12:05:00,0,R39,45 St,-74.010006,40.648939,1770.8167095355502
12:05:00,0,R40,53 St,-74.014034,40.645069,1866.0012333450738
12:05:00,0,R41,59 St,-74.017881,40.641362,1865.4443846183901
12:05:00,0,R42,Bay Ridge Av,-74.023377,40.634967,2026.2543859145876
12:05:00,0,R43,77 St,-74.02551,40.629742,2106.5271131873146
12:05:00,0,R44,86 St,-74.028398,40.622687,2282.878303663505
12:05:00,0,R45,Bay Ridge-95 St,-74.030876,40.616622,2359.894051695001
12:36:00,1,S01,Franklin Av,-73.955827,40.680596,1367.6761465663758
12:36:00,1,S03,Park Pl,-73.957624,40.674772,1490.5511465663758
12:36:00,1,S04,Botanic Garden,-73.959245,40.670343,1598.0947631998238
