start_time,ntransfers,stop_id,stop_name,stop_lon,stop_lat,duration
12:40:00,1,101,Van Cortlandt Park-242 St,-73.898583,40.889248,3619.8792133045577
12:40:00,1,103,238 St,-73.90087,40.884667,3494.0684024937473
12:40:00,1,104,231 St,-73.904834,40.878856,3390.4361154982316
12:40:00,1,106,Marble Hill-225 St,-73.909831,40.874561,3292.95413351625
12:40:00,1,107,215 St,-73.915279,40.869444,3204.1613407234568
12:40:00,1,108,207 St,-73.918822,40.864621,3114.4383970005133
12:40:00,1,109,Dyckman St,-73.925536,40.860531,3014.1256216701167
12:40:00,1,110,191 St,-73.929412,40.855225,2930.2807940839098
12:40:00,1,111,181 St,-73.933596,40.849505,2839.2507511654553
12:40:00,1,112,168 St-Washington Hts,-73.940133,40.840556,2720.049034427258
12:40:00,1,113,157 St,-73.94489,40.834041,2620.7300689100166
12:40:00,1,114,145 St,-73.95036,40.826551,2503.4768500258965
12:40:00,1,115,137 St-City College,-73.953676,40.822008,2402.600781649828
12:40:00,1,116,125 St,-73.958372,40.815581,2307.2757816498283
12:40:00,1,117,116 St-Columbia University,-73.96411,40.807722,2193.046614983162
12:40:00,1,118,Cathedral Pkwy (110 St),-73.966847,40.803967,2114.0920695286163
12:40:00,1,119,103 St,-73.968379,40.799446,2034.563381004026
12:00:00,1,120,96 St,-73.972323,40.793919,1785.88780984652
12:20:00,1,121,86 St,-73.976218,40.788644,1824.161741659764
12:20:00,1,122,79 St,-73.979917,40.783934,1747.2877579199264
12:00:00,1,123,72 St,-73.98197,40.778453,1618.8367894383566
12:00:00,1,124,66 St-Lincoln Center,-73.982209,40.77344,1734.2387452784326
12:00:00,1,125,59 St-Columbus Circle,-73.981929,40.768247,1731.2746097311685
12:00:00,1,126,50 St,-73.983849,40.761728,1627.605436798838
12:00:00,1,127,Times Sq-42 St,-73.987495,40.75529,1393.4526086473961
12:00:00,1,128,34 St-Penn Station,-73.991057,40.750373,1292.093634288422
12:05:00,1,129,28 St,-73.993365,40.747215,1333.6906971194508
12:05:00,1,130,23 St,-73.995657,40.744081,1264.5424081460667
12:05:00,1,131,18 St,-73.997871,40.74104,1196.3643778430364
12:05:00,1,132,14 St,-74.000201,40.737826,1121.7775052561637
12:20:00,1,133,Christopher St-Sheridan Sq,-74.002906,40.733422,1212.499727478386
12:20:00,1,134,Houston St,-74.005367,40.728251,1298.3806798593382
12:20:00,1,135,Canal St,-74.006277,40.722854,1393.2415343667449
12:20:00,1,136,Franklin St,-74.006886,40.719318,1457.4113511736455
12:00:00,1,137,Chambers St,-74.009266,40.715478,1395.7645182431768
12:35:00,1,138,WTC Cortlandt,-74.012188,40.711835,1607.324153541556
12:35:00,1,139,Rector St,-74.013783,40.707513,1683.8342749990459
12:35:00,1,142,South Ferry,-74.013664,40.702068,1786.9251840899549
13:55:00,1,201,Wakefield-241 St,-73.85062,40.903125,4367.024226493861
13:55:00,1,204,Nereid Av,-73.854376,40.898379,4070.0084131318963
13:55:00,1,205,233 St,-73.857473,40.893193,3980.0084131318963
13:55:00,1,206,225 St,-73.860341,40.888022,3890.0084131318963
13:55:00,1,207,219 St,-73.862633,40.883895,3800.0084131318963
13:55:00,1,208,Gun Hill Rd,-73.866256,40.87785,3695.0084131318963
13:55:00,1,209,Burke Av,-73.867164,40.871356,3685.854783171595
13:55:00,1,210,Allerton Av,-73.867352,40.865462,3593.724348388986
13:55:00,1,211,Pelham Pkwy,-73.867615,40.857192,3489.3765223020296
13:55:00,1,212,Bronx Park East,-73.868457,40.848828,3364.550435345508
13:55:00,1,213,E 180 St,-73.873488,40.841894,3154.246087519421
12:35:00,1,214,West Farms Sq-E Tremont Av,-73.880049,40.840295,3101.374546211277
12:35:00,1,215,174 St,-73.887734,40.837288,2971.288339314725
12:35:00,1,216,Freeman St,-73.891865,40.829993,2851.4507324771184
12:35:00,1,217,Simpson St,-73.893064,40.824073,2741.069376544915
13:55:00,1,218,Intervale Av,-73.896736,40.822181,2668.145647731356
13:55:00,1,219,Prospect Av,-73.90177,40.819585,2582.2642917991525
12:35:00,1,220,Jackson Av,-73.907807,40.81649,2490.205468269741
13:55:00,1,221,3 Av-149 St,-73.917757,40.816109,2368.4971349364077
12:35:00,1,222,149 St-Grand Concourse,-73.926718,40.81841,2250.632122467069
12:00:00,1,224,135 St,-73.94077,40.814229,2310.0239322954994
12:00:00,1,225,125 St,-73.945495,40.807754,2201.9439322954995
12:00:00,1,226,116 St,-73.949625,40.802098,2105.964340458765
12:00:00,1,227,Central Park North (110 St),-73.951822,40.799075,2037.5918914791732
12:00:00,1,228,Park Place,-74.008811,40.713051,1484.238414347073
12:00:00,1,229,Fulton St,-74.006571,40.709416,1594.4505355591941
12:00:00,1,230,Wall St,-74.0091,40.706821,1667.7212122509236
12:00:00,1,231,Clark St,-73.993086,40.697466,1851.2693603990717
12:00:00,1,232,Borough Hall,-73.989998,40.693219,1824.701377972012
12:02:30,3,233,Hoyt St,-73.985065,40.690545,1909.2246940341881
12:27:30,1,234,Nevins St,-73.980492,40.688246,1913.623569293161
12:27:30,1,235,Atlantic Av-Barclays Ctr,-73.977666,40.684359,1823.445791515383
12:27:30,1,236,Bergen St,-73.975098,40.680829,1875.1899464789078
12:27:30,1,237,Grand Army Plaza,-73.971046,40.675235,1778.974260204398
12:27:30,1,238,Eastern Pkwy-Brooklyn Museum,-73.964375,40.671987,1675.993868047535
12:27:30,1,239,Franklin Av-Medgar Evers College,-73.958131,40.670682,1509.6635692931607
12:27:30,1,241,President St-Medgar Evers College,-73.950683,40.667883,1727.6376678751585
12:27:30,1,242,Sterling St,-73.95085,40.662742,1818.1088217213123
12:27:30,1,243,Winthrop St,-73.9502,40.656652,1903.261202673693
12:27:30,1,244,Church Av,-73.949575,40.650843,1985.1134754009659
12:27:30,1,245,Beverly Rd,-73.948959,40.645098,2066.5474376651164
12:27:30,1,246,Newkirk Av-Little Haiti,-73.948411,40.639967,2152.5474376651164
12:27:30,1,247,Flatbush Av-Brooklyn College,-73.947642,40.632836,2269.8842797703796
12:27:30,1,248,Nostrand Av,-73.950466,40.669847,1439.3075935377312
12:27:30,1,249,Kingston Av,-73.942161,40.669399,1341.5785117139553
12:27:30,1,250,Crown Hts-Utica Av,-73.932942,40.668897,1260.6846674442168
12:27:30,1,251,Sutter Av-Rutland Rd,-73.92261,40.664717,1136.8275245870739
12:27:30,1,252,Saratoga Av,-73.916327,40.661453,1032.2392892929563
12:27:30,1,253,Rockaway Av,-73.908946,40.662549,943.2981128223681
12:27:30,1,254,Junius St,-73.902447,40.663515,861.4549755674661
12:47:30,1,255,Pennsylvania Av,-73.894895,40.664635,958.6706618419759
12:47:30,1,256,Van Siclen Av,-73.889395,40.665449,1033.1804657635446
12:47:30,1,257,New Lots Av,-73.884079,40.666235,1103.9549755674664
12:20:00,1,301,Harlem-148 St,-73.93647,40.82388,2557.913142821815
12:20:00,1,302,145 St,-73.936245,40.820421,2443.528932295499
12:15:00,1,401,Woodlawn,-73.878751,40.886037,3605.322244291361
12:15:00,1,402,Mosholu Pkwy,-73.884655,40.87975,3459.8273989305367
12:15:00,1,405,Bedford Park Blvd-Lehman College,-73.890064,40.873412,3338.316909420047
12:15:00,1,406,Kingsbridge Rd,-73.897174,40.86776,3203.767889812204
12:15:00,1,407,Fordham Rd,-73.901034,40.862803,3112.4214845834463
12:15:00,1,408,183 St,-73.903879,40.858407,3031.7221381782174
12:15:00,1,409,Burnside Av,-73.907684,40.853453,2938.5500070306766
12:15:00,1,410,176 St,-73.911794,40.84848,2864.199060421503
12:15:00,1,411,Mt Eden Av,-73.914685,40.844434,2788.4539623822875
12:15:00,1,412,170 St,-73.917791,40.840075,2710.931086565294
12:15:00,1,413,167 St,-73.9214,40.835537,2630.4004743203964
12:15:00,1,414,161 St-Yankee Stadium,-73.925831,40.827994,2484.8859112136
12:15:00,1,415,149 St-Grand Concourse,-73.927351,40.818375,2254.9409112136
12:35:00,1,416,138 St-Grand Concourse,-73.929849,40.813224,2085.626098370684
12:05:00,1,418,Fulton St,-74.009509,40.710368,1418.5438951827582
12:05:00,1,419,Wall St,-74.011862,40.707557,1497.9327840716473
12:05:00,1,420,Bowling Green,-74.014065,40.704817,1573.0224392440612
12:05:00,1,423,Borough Hall,-73.990151,40.692404,1823.9660843452268
13:55:00,1,501,Eastchester-Dyre Av,-73.830834,40.8883,3929.846127848423
13:55:00,1,502,Baychester Av,-73.838591,40.878663,3799.4834904857858
13:55:00,1,503,Gun Hill Rd,-73.846384,40.869526,3640.714673281485
13:55:00,1,504,Pelham Pkwy,-73.855359,40.858985,3483.3559776293114
13:55:00,1,505,Morris Park,-73.860495,40.854364,3395.6746589479926
13:35:00,1,601,Pelham Bay Park,-73.828121,40.852462,3748.663085384138
13:35:00,1,602,Buhre Av,-73.832569,40.84681,3565.236135029528
13:35:00,1,603,Middletown Rd,-73.836322,40.843863,3456.4028016961947
13:35:00,1,604,Westchester Sq-E Tremont Av,-73.842952,40.839892,3311.6528016961947
13:35:00,1,606,Zerega Av,-73.847036,40.836488,3213.5694683628612
13:35:00,1,607,Castle Hill Av,-73.851222,40.834255,3146.236135029528
12:55:00,1,608,Parkchester,-73.860816,40.833226,2990.236135029528
12:55:00,1,609,St Lawrence Av,-73.867618,40.831509,3228.173501513647
12:55:00,1,610,Morrison Av-Soundview,-73.874516,40.829521,3143.1057724299817
12:55:00,1,611,Elder Av,-73.879159,40.828584,3077.941772429982
12:55:00,1,612,Whitlock Av,-73.886283,40.826525,2971.601772429982
12:55:00,1,613,Hunts Point Av,-73.890549,40.820948,2733.851519644913
12:15:00,1,614,Longwood Av,-73.896435,40.816104,2816.143702881617
12:15:00,1,615,E 149 St,-73.904098,40.812118,2715.035369548284
12:15:00,1,616,E 143 St-St Mary's St,-73.907657,40.808719,2640.193045896832
12:15:00,1,617,Cypress Av,-73.914042,40.805368,2541.2725438047814
12:15:00,1,618,Brook Av,-73.91924,40.807566,2471.71372027537
12:15:00,1,619,3 Av-138 St,-73.926138,40.810476,2354.7745965679896
12:35:00,1,621,125 St,-73.937594,40.804138,1927.9174523484553
12:35:00,1,622,116 St,-73.941617,40.798629,2254.316307942066
12:15:00,1,623,110 St,-73.94425,40.79502,2174.3654307490838
12:15:00,1,624,103 St,-73.947478,40.7906,2097.993500924522
12:15:00,1,625,96 St,-73.95107,40.785672,2011.5233254859254
12:35:00,1,626,86 St,-73.955589,40.779492,1643.5217688952177
12:15:00,1,627,77 St,-73.959874,40.77362,1816.377754240739
12:15:00,1,628,68 St-Hunter College,-73.96387,40.768141,1726.7527542407393
12:35:00,1,629,59 St,-73.967967,40.762526,1446.372832725005
12:15:00,1,630,51 St,-73.97192,40.757107,1533.8311100455358
12:35:00,1,631,Grand Central-42 St,-73.976848,40.751776,1285.968577405856
12:05:00,1,632,33 St,-73.982076,40.746081,1296.0540447554076
12:05:00,1,633,28 St,-73.984264,40.74307,1225.1563174826806
12:05:00,1,634,23 St,-73.986599,40.739864,1149.3835902099534
12:00:00,1,635,14 St-Union Sq,-73.989951,40.734673,1049.4404083917716
12:00:00,1,636,Astor Pl,-73.99107,40.730054,1125.1311300412563
12:00:00,1,637,Bleecker St,-73.994659,40.725915,1215.847853590744
12:00:00,1,638,Spring St,-73.997141,40.722301,1284.9975134546896
12:00:00,1,639,Canal St,-74.000193,40.718803,1358.774540481717
12:05:00,1,640,Brooklyn Bridge-City Hall,-74.004131,40.713065,1309.3425062938693
12:00:00,2,701,Flushing-Main St,-73.83003,40.7596,2556.8947864194884
12:00:00,2,702,Mets-Willets Point,-73.845625,40.754622,2380.5852626099645
12:00:00,2,705,111 St,-73.855334,40.75173,2400.5410174864364
12:00:00,2,706,103 St-Corona Plaza,-73.8627,40.749865,2306.9150090083835
12:00:00,2,707,Junction Blvd,-73.869527,40.749145,2136.58167567505
12:00:00,2,708,90 St-Elmhurst Av,-73.876613,40.748408,2191.3299950567407
12:00:00,2,709,82 St-Jackson Hts,-73.883697,40.747659,2111.9497133666
12:00:00,2,710,74 St-Broadway,-73.891394,40.746848,1969.701414046872
12:00:00,2,711,69 St,-73.896403,40.746325,1922.2896493409899
12:00:00,2,712,61 St-Woodside,-73.902984,40.74563,1850.3811986367646
12:00:00,2,713,52 St,-73.912549,40.744149,1761.1960134515793
12:00:00,2,714,46 St-Bliss St,-73.918435,40.743132,1703.3655049770032
12:00:00,2,715,40 St-Lowery St,-73.924016,40.743781,1648.0536405702235
12:00:00,2,716,33 St-Rawson St,-73.930997,40.744587,1583.8864050753427
12:00:00,2,718,Queensboro Plaza,-73.940202,40.750582,1457.5816756750505
12:00:00,2,719,Court Sq,-73.945264,40.747023,1368.5816756750503
12:00:00,2,720,Hunters Point Av,-73.948916,40.742216,1454.5816756750503
12:00:00,2,721,Vernon Blvd-Jackson Av,-73.953581,40.742626,1482.5816756750503
12:00:00,2,723,Grand Central-42 St,-73.976041,40.751431,1521.6391661557466
12:10:00,2,724,5 Av,-73.981963,40.753821,1619.3103838016643
12:10:00,2,725,Times Sq-42 St,-73.987691,40.755477,1543.17027475088
12:00:00,2,726,34 St-Hudson Yards,-74.00191,40.755882,1709.9078769537289
12:00:00,2,901,Grand Central-42 St,-73.979189,40.752769,1476.6391661557466
12:15:00,2,902,Times Sq-42 St,-73.986229,40.755983,1496.0772504970348
13:25:00,1,A02,Inwood-207 St,-73.919899,40.868072,3116.2094762013853
12:40:00,1,A03,Dyckman St,-73.927271,40.865491,3026.1364835006552
12:40:00,1,A05,190 St,-73.93418,40.859022,2902.5440921963077
12:40:00,1,A06,181 St,-73.937969,40.851695,2789.3087980786604
12:40:00,1,A07,175 St,-73.939704,40.847391,2692.5883679711337
12:00:00,1,A09,168 St,-73.939561,40.840719,2565.149865297337
13:25:00,1,A10,163 St-Amsterdam Av,-73.939892,40.836013,2586.1034611368045
13:25:00,1,A11,155 St,-73.941514,40.830518,2504.270127803471
12:00:00,1,A12,145 St,-73.944216,40.824783,2320.272859949743
13:25:00,1,A14,135 St,-73.947649,40.817894,2242.1086634952244
12:00:00,1,A15,125 St,-73.952343,40.811109,2094.649204035765
12:20:00,1,A16,116 St,-73.954882,40.805085,2218.484786266467
12:20:00,1,A17,Cathedral Pkwy (110 St),-73.958161,40.800603,2268.2132683615996
12:20:00,1,A18,103 St,-73.961454,40.796092,2184.4942600971367
12:20:00,1,A19,96 St,-73.964696,40.791642,2099.9860633758253
12:20:00,1,A20,86 St,-73.968916,40.785868,2000.3579642022717
12:20:00,1,A21,81 St-Museum of Natural History,-73.972143,40.781433,1904.6162975356049
12:20:00,1,A22,72 St,-73.97641,40.775594,1811.2162975356048
12:00:00,1,A24,59 St-Columbus Circle,-73.981736,40.768296,1581.8774649053303
12:20:00,1,A25,50 St,-73.985984,40.762456,1561.889320134475
12:00:00,1,A27,42 St-Port Authority Bus Terminal,-73.989735,40.757308,1419.872059499925
12:00:00,1,A28,34 St-Penn Station,-73.993391,40.752287,1323.5817369192796
12:20:00,1,A30,23 St,-73.998041,40.745906,1260.1534759043736
12:30:00,1,A31,14 St,-74.00169,40.740893,1168.4838330472307
13:10:00,1,A32,W 4 St-Wash Sq,-74.000495,40.732338,1280.6066400647746
12:25:00,1,A33,Spring St,-74.003739,40.726227,1387.676815503371
13:10:00,1,A34,Canal St,-74.005229,40.720824,1453.0110201240977
13:10:00,1,A36,Chambers St,-74.008585,40.714111,1566.0551377711565
12:32:30,1,A38,Fulton St,-74.007691,40.710197,1641.4749285556372
12:32:30,1,A40,High St,-73.990531,40.699337,1499.4053580715145
12:32:30,1,A41,Jay St-MetroTech,-73.987342,40.692338,1372.2013779720119
12:32:30,1,A42,Hoyt-Schermerhorn Sts,-73.985001,40.688484,1251.9264964554243
12:32:30,1,A43,Lafayette Av,-73.973946,40.686113,1274.9809554081537
12:32:30,1,A44,Clinton-Washington Avs,-73.965838,40.683263,1190.3173190445173
12:32:30,1,A45,Franklin Av,-73.956848,40.68138,1084.1923190445173
12:32:30,1,A46,Nostrand Av,-73.950426,40.680438,918.9595153233489
12:32:30,1,A47,Kingston-Throop Avs,-73.940858,40.679921,909.0614599953095
12:32:30,1,A48,Utica Av,-73.930729,40.679364,756.87073027662
13:02:30,1,A49,Ralph Av,-73.920786,40.678822,716.1595579706049
13:02:30,1,A50,Rockaway Av,-73.911946,40.67834,617.7132769788693
12:37:30,1,A51,Broadway Junction,-73.905316,40.678334,533.6149163231316
12:14:30,1,A52,Liberty Av,-73.896548,40.674542,667.5742659166275
12:14:30,1,A53,Van Siclen Av,-73.890358,40.67271,762.7531277052454
12:14:30,1,A54,Shepherd Av,-73.88075,40.67413,866.8262984369527
12:22:30,1,A55,Euclid Av,-73.872106,40.675377,833.9265442301083
12:22:30,1,A57,Grant Av,-73.86505,40.677044,956.1091168442163
12:22:30,1,A59,80 St,-73.858992,40.679371,1053.4611168442161
12:22:30,1,A60,88 St,-73.85147,40.679843,1149.4212762067662
12:22:30,1,A61,Rockaway Blvd,-73.843853,40.680429,1239.7665143020042
12:52:30,1,A63,104 St,-73.837683,40.681711,1323.4385143020043
13:12:30,1,A64,111 St,-73.832163,40.684331,1409.569661842988
13:12:30,1,A65,Ozone Park-Lefferts Blvd,-73.825798,40.685951,1498.6329529822283
12:10:00,1,B04,21 St-Queensbridge,-73.942836,40.754203,2038.1432550925142
12:10:00,1,B06,Roosevelt Island,-73.95326,40.759145,1891.5225654373419
12:10:00,1,B08,Lexington Av/63 St,-73.966113,40.764629,1667.5256676090441
12:20:00,1,B10,57 St,-73.97745,40.763972,1631.7775052561637
12:00:00,1,B12,9 Av,-73.994324,40.646292,2626.8999371057607
12:00:00,1,B13,Fort Hamilton Pkwy,-73.994304,40.640914,2747.9663503359357
12:00:00,1,B14,50 St,-73.994791,40.63626,2826.991828042942
12:00:00,1,B15,55 St,-73.995476,40.631435,2926.749789826382
12:00:00,1,B16,62 St,-73.996895,40.626472,2992.7218177984096
12:00:00,1,B17,71 St,-73.998864,40.619589,3095.2122636582826
12:00:00,1,B18,79 St,-74.00061,40.613501,3201.772773212423
12:00:00,1,B19,18 Av,-74.001736,40.607954,3283.36632159952
12:00:00,1,B20,20 Av,-73.998168,40.604556,3365.359828093026
12:00:00,1,B21,Bay Pkwy,-73.993728,40.601875,3442.9052826384805
13:30:00,1,B22,25 Av,-73.986829,40.597704,3562.014960057835
13:30:00,1,B23,Bay 50 St,-73.983765,40.588841,3528.1159157365214
12:00:00,1,D01,Norwood-205 St,-73.878855,40.874811,3603.2488075210044
12:00:00,1,D03,Bedford Park Blvd,-73.887138,40.873244,3431.7623210345178
12:00:00,1,D04,Kingsbridge Rd,-73.893509,40.866978,3314.6060710345178
12:00:00,1,D05,Fordham Rd,-73.897749,40.861296,3220.0746025030494
12:00:00,1,D06,182-183 Sts,-73.900741,40.856093,3133.140695701886
13:50:00,1,D07,Tremont Av,-73.905227,40.85041,3055.025651454099
13:50:00,1,D08,174-175 Sts,-73.910136,40.8459,2974.749970181891
13:50:00,1,D09,170 St,-73.9134,40.839306,2881.4318494202353
13:50:00,1,D10,167 St,-73.91844,40.833771,2770.256220181891
13:50:00,1,D11,161 St-Yankee Stadium,-73.925651,40.827905,2625.081220181891
13:50:00,1,D12,155 St,-73.938209,40.830135,2500.3528251201624
12:00:00,1,D13,145 St,-73.944216,40.824783,2385.2651827535683
12:05:00,1,D14,7 Av,-73.981637,40.762862,1695.4499343366915
12:20:00,1,D15,47-50 Sts-Rockefeller Ctr,-73.981329,40.758663,1493.3830665892
12:20:00,1,D16,42 St-Bryant Pk,-73.984569,40.754222,1400.9111039723778
12:20:00,1,D17,34 St-Herald Sq,-73.987823,40.749719,1324.1354030377984
12:20:00,1,D18,23 St,-73.992821,40.742878,1213.3936190002396
13:50:00,1,D19,14 St,-73.996209,40.738228,1136.7775052561637
13:40:00,1,D20,W 4 St-Wash Sq,-74.000495,40.732338,1218.110838589497
13:40:00,1,D21,Broadway-Lafayette St,-73.996204,40.725297,1381.4441719228303
14:00:00,1,D22,Grand St,-73.993753,40.718267,1556.4881906652483
13:45:00,1,D24,Atlantic Av-Barclays Ctr,-73.97689,40.68446,1949.9781960407436
13:45:00,1,D25,7 Av,-73.972367,40.67705,2001.7918674222774
12:02:30,2,D26,Prospect Park,-73.962246,40.661614,1622.966216103341
12:10:30,2,D27,Parkside Av,-73.961495,40.655292,1954.3708540750313
12:02:30,2,D28,Church Av,-73.962982,40.650527,1966.6932758729815
12:10:30,2,D29,Beverley Rd,-73.964492,40.644031,2073.5650034826162
12:10:30,2,D30,Cortelyou Rd,-73.963891,40.640927,2151.760534208873
12:02:30,2,D31,Newkirk Plaza,-73.962793,40.635082,2138.1361330158384
12:10:30,2,D32,Avenue H,-73.961639,40.62927,2254.9592394928177
12:10:30,2,D33,Avenue J,-73.960803,40.625039,2348.942194038272
12:10:30,2,D34,Avenue M,-73.959399,40.617618,2460.333255490786
12:02:30,2,D35,Kings Hwy,-73.957734,40.60867,2376.268485957015
12:02:30,2,D37,Avenue U,-73.955929,40.5993,2591.7481857925004
12:02:30,2,D38,Neck Rd,-73.955161,40.595246,2691.2842682667274
12:02:30,2,D39,Sheepshead Bay,-73.954155,40.586896,2614.2535605838807
12:02:30,2,D40,Brighton Beach,-73.961376,40.577621,2763.980833311153
12:02:30,2,D41,Ocean Pkwy,-73.968501,40.576312,2946.327794896788
12:02:30,2,D42,W 8 St-NY Aquarium,-73.975939,40.576127,3060.7794078000134
12:02:30,2,D43,Coney Island-Stillwell Av,-73.981233,40.577422,3140.734963355569
12:35:00,1,E01,World Trade Center,-74.009781,40.712582,1629.7152841594257
12:32:30,1,F01,Jamaica-179 St,-73.783817,40.712646,2799.9967654958264
12:32:30,1,F02,169 St,-73.793604,40.71047,2709.9967654958264
12:32:30,1,F03,Parsons Blvd,-73.803326,40.707564,2619.9967654958264
12:32:30,1,F04,Sutphin Blvd,-73.810708,40.70546,2529.9967654958264
12:32:30,1,F05,Briarwood,-73.820574,40.709179,2309.689540452211
13:02:30,1,F06,Kew Gardens-Union Tpke,-73.831008,40.714441,2430.288035143309
13:02:30,1,F07,75 Av,-73.837324,40.718331,2474.570879977847
12:00:00,2,F09,Court Sq-23 St,-73.946,40.747846,1368.5816756750503
12:00:00,2,F11,Lexington Av/53 St,-73.969055,40.757552,1572.153104246479
12:00:00,2,F12,5 Av/53 St,-73.975224,40.760167,1645.0002088212805
13:40:00,1,F14,2 Av,-73.989938,40.723402,1478.4441719228303
13:40:00,1,F15,Delancey St-Essex St,-73.988114,40.718611,1459.4110884875697
13:17:30,1,F16,East Broadway,-73.990173,40.713715,1540.4110884875697
13:17:30,1,F18,York St,-73.986751,40.701397,1597.2013779720119
12:20:00,1,F20,Bergen St,-73.990862,40.686145,1495.0214087233087
12:20:00,1,F21,Carroll St,-73.995048,40.680303,1620.8643406604815
12:20:00,1,F22,Smith-9 Sts,-73.995959,40.67358,1747.999757327148
12:20:00,1,F23,4 Av-9 St,-73.989779,40.670272,1840.6163376380289
12:20:00,1,F24,7 Av,-73.980305,40.666271,1927.2013779720119
12:20:00,1,F25,15 St-Prospect Park,-73.979493,40.660365,2078.2901055235616
12:20:00,1,F26,Fort Hamilton Pkwy,-73.975776,40.650782,2223.758313616047
12:20:00,1,F27,Church Av,-73.979678,40.644041,2167.201377972012
13:50:00,1,F29,Ditmas Av,-73.978172,40.636119,2287.201377972012
13:50:00,1,F30,18 Av,-73.976971,40.629755,2407.201377972012
13:50:00,1,F31,Avenue I,-73.976127,40.625322,2467.201377972012
13:50:00,1,F32,Bay Pkwy,-73.975264,40.620769,2527.201377972012
13:50:00,1,F33,Avenue N,-73.974197,40.61514,2647.201377972012
13:50:00,1,F34,Avenue P,-73.973022,40.608944,2737.201377972012
13:50:00,1,F35,Kings Hwy,-73.972361,40.603217,2910.863499959805
13:20:00,1,F36,Avenue U,-73.973357,40.596063,3019.464563789592
13:20:00,1,F38,Avenue X,-73.97425,40.58962,3112.667772345742
12:02:30,2,F39,Neptune Av,-73.974574,40.581011,3227.1396824581016
13:32:30,1,G05,Jamaica Center-Parsons/Archer,-73.801109,40.702147,1823.6149163231316
13:32:30,1,G06,Sutphin Blvd-Archer Av-JFK Airport,-73.807969,40.700486,1763.6149163231316
13:02:30,1,G07,Jamaica-Van Wyck,-73.816859,40.702566,2182.9667681749834
13:02:30,1,G08,Forest Hills-71 Av,-73.844521,40.721691,2366.132784739752
12:02:30,1,G09,67 Av,-73.852719,40.726523,2514.9025243510046
12:00:00,2,G10,63 Dr-Rego Park,-73.861604,40.729846,2422.3650683148594
12:00:00,2,G11,Woodhaven Blvd,-73.869229,40.733106,2318.734931328558
12:00:00,2,G12,Grand Av-Newtown,-73.877223,40.737015,2195.859931328558
12:00:00,2,G13,Elmhurst Av,-73.882017,40.742454,2096.3256847532157
12:00:00,2,G14,Jackson Hts-Roosevelt Av,-73.891338,40.746644,1938.034570454038
12:00:00,2,G15,65 St,-73.898453,40.749669,2058.5942992811943
12:00:00,2,G16,Northern Blvd,-73.906006,40.752885,1964.2644023739774
12:00:00,2,G18,46 St,-73.913333,40.756312,1874.2644023739774
12:00:00,2,G19,Steinway St,-73.92074,40.756879,1757.357185879132
12:00:00,2,G20,36 St,-73.928781,40.752039,1637.357185879132
12:00:00,2,G21,Queens Plaza,-73.937243,40.748973,1491.949022613826
12:00:00,1,G22,Court Sq,-73.943832,40.746554,1157.6631313174144
12:00:00,1,G24,21 St,-73.949724,40.744065,1091.8008124768346
12:00:00,1,G26,Greenpoint Av,-73.954449,40.731352,883.9776080569451
12:00:00,1,G28,Nassau Av,-73.951277,40.724635,789.6149706943077
12:20:00,1,G29,Metropolitan Av,-73.951418,40.712792,657.5330034811928
12:10:00,1,G30,Broadway,-73.950308,40.706092,758.1145252203233
12:10:00,1,G31,Flushing Av,-73.950234,40.700377,844.5091198149179
12:10:00,1,G32,Myrtle-Willoughby Avs,-73.949046,40.694568,926.2334441392422
12:10:00,1,G33,Bedford-Nostrand Avs,-73.953522,40.689627,1038.1635516661238
12:10:00,1,G34,Classon Av,-73.96007,40.688873,1120.0910128060202
12:10:00,1,G35,Clinton-Washington Avs,-73.966839,40.688089,1203.9569921874636
12:10:00,1,G36,Fulton St,-73.975375,40.687119,1302.4031460336173
13:02:30,1,H01,Aqueduct Racetrack,-73.834058,40.668234,1445.7982603337502
12:22:30,1,H02,Aqueduct-N Conduit Av,-73.834058,40.668234,1518.8673132733259
12:22:30,1,H03,Howard Beach-JFK Airport,-73.830301,40.660476,1616.9871492226391
12:22:30,1,H04,Broad Channel,-73.815925,40.608382,2034.9387621258647
12:22:30,1,H06,Beach 67 St,-73.796924,40.590927,2346.228235810075
13:02:30,1,H07,Beach 60 St,-73.788522,40.592374,2449.675604231128
13:02:30,1,H08,Beach 44 St,-73.776013,40.592943,2553.1580603714788
13:02:30,1,H09,Beach 36 St,-73.768175,40.595398,2650.403674406566
13:02:30,1,H10,Beach 25 St,-73.761353,40.600066,2750.7842053800173
13:02:30,1,H11,Far Rockaway-Mott Av,-73.755405,40.603995,2849.9508720466843
12:22:30,1,H12,Beach 90 St,-73.813641,40.588034,2286.238762125865
12:22:30,1,H13,Beach 98 St,-73.820558,40.585307,2364.6387621258646
12:22:30,1,H14,Beach 105 St,-73.827559,40.583209,2440.749873236976
12:22:30,1,H15,Rockaway Park-Beach 116 St,-73.835592,40.580903,2544.9498732369757
13:32:30,1,J12,121 St,-73.828294,40.700492,1523.6149163231316
13:32:30,1,J13,111 St,-73.836345,40.697418,1685.9443960919177
13:32:30,1,J14,104 St,-73.84433,40.695178,1343.6149163231316
13:32:30,1,J15,Woodhaven Blvd,-73.851576,40.693879,1253.6149163231316
13:32:30,1,J16,85 St-Forest Pkwy,-73.86001,40.692435,1257.8460586830342
13:32:30,1,J17,75 St-Elderts Ln,-73.867139,40.691324,1073.6149163231316
13:32:30,1,J19,Cypress Hills,-73.87255,40.689941,1055.5960586830342
13:32:30,1,J20,Crescent St,-73.873785,40.683194,923.6149163231316
13:32:30,1,J21,Norwood Av,-73.880039,40.68141,833.6149163231316
13:32:30,1,J22,Cleveland St,-73.884639,40.679947,838.794436742951
13:32:30,1,J23,Van Siclen Av,-73.891688,40.678024,683.6149163231316
13:32:30,1,J24,Alabama Av,-73.898654,40.676992,623.6149163231316
12:42:30,1,J27,Broadway Junction,-73.904512,40.679498,520.2965290531579
12:02:30,1,J28,Chauncey St,-73.910456,40.682893,593.6149163231316
12:02:30,1,J29,Halsey St,-73.916559,40.68637,715.9601544183697
12:02:30,1,J30,Gates Av,-73.92227,40.68963,743.6149163231316
12:02:30,1,J31,Kosciuszko St,-73.928814,40.693342,711.0083938767913
12:00:00,0,L01,8 Av,-74.002578,40.739777,1001.4311992848711
12:00:00,0,L02,6 Av,-73.996786,40.737335,911.7775052561639
12:00:00,0,L03,14 St-Union Sq,-73.99073,40.734789,835.4793686102012
12:00:00,0,L05,3 Av,-73.986122,40.732849,758.3240891070956
12:00:00,0,L06,1 Av,-73.981628,40.730953,730.0907557737621
12:00:00,0,L08,Bedford Av,-73.956872,40.717304,532.1789016704187
12:00:00,0,L10,Lorimer St,-73.950275,40.714063,444.318719299598
12:00:00,0,L11,Graham Av,-73.944053,40.714565,406.947898630905
12:00:00,0,L12,Grand St,-73.94067,40.711926,326.4255105712035
12:00:00,0,L13,Montrose Av,-73.93985,40.707739,288.00202302671954
12:00:00,0,L14,Morgan Av,-73.933147,40.706152,220.59252747775813
12:00:00,0,L15,Jefferson St,-73.922913,40.706607,127.15409191447532
12:00:00,0,L16,DeKalb Av,-73.918425,40.703811,67.92332268370608
12:06:30,0,L17,Myrtle-Wyckoff Avs,-73.911586,40.699814,0.0
12:02:30,0,L19,Halsey St,-73.904084,40.695602,44.063973063973066
12:02:30,0,L20,Wilson Av,-73.904046,40.688764,161.04236812570147
12:02:30,0,L21,Bushwick Av-Aberdeen St,-73.905249,40.682829,245.37917368125704
12:02:30,0,L22,Broadway Junction,-73.90324,40.678856,295.2965290531579
12:02:30,0,L24,Atlantic Av,-73.903097,40.675345,403.373689546985
12:02:30,0,L25,Sutter Av,-73.901975,40.669367,473.7459972392927
12:02:30,0,L26,Livonia Av,-73.900571,40.664038,531.4549755674661
12:02:30,0,L27,New Lots Av,-73.899232,40.658733,580.554975567466
12:02:30,0,L28,East 105 St,-73.899485,40.650573,677.2813906618056
12:02:30,0,L29,Canarsie-Rockaway Pkwy,-73.90185,40.646654,802.3455798509949
12:06:30,1,M01,Middle Village-Metropolitan Av,-73.889601,40.711396,625.4515615608639
12:06:30,1,M04,Fresh Pond Rd,-73.895877,40.706186,508.16854269293924
12:06:30,1,M05,Forest Av,-73.903077,40.704423,415.5822089577788
12:06:30,1,M06,Seneca Av,-73.90774,40.702762,321.21797054718274
12:06:30,1,M08,Myrtle-Wyckoff Avs,-73.912385,40.69943,225.0
12:15:00,1,M09,Knickerbocker Av,-73.919711,40.698664,320.19883040935673
12:15:00,1,M10,Central Av,-73.927397,40.697857,431.1870657034744
12:15:00,1,M11,Myrtle Av,-73.935657,40.697207,556.7484669894618
12:15:00,1,M12,Flushing Av,-73.941126,40.70026,661.4623115891499
12:15:00,1,M13,Lorimer St,-73.947408,40.703869,757.8943115891499
12:15:00,1,M14,Hewes St,-73.953431,40.70687,854.976956217249
12:15:00,1,M16,Marcy Av,-73.957757,40.708359,852.8277551542363
12:15:00,1,M18,Delancey St-Essex St,-73.987437,40.718315,1234.4110884875697
12:02:30,1,M19,Bowery,-73.993915,40.72028,1311.494421820903
12:02:30,1,M20,Canal St,-73.999892,40.718092,1413.994421820903
12:25:00,2,M21,Chambers St,-74.003401,40.713243,1509.5777551542362
12:15:00,2,M22,Fulton St,-74.007582,40.710374,1621.4944218209027
12:15:00,2,M23,Broad St,-74.011056,40.706476,1687.6610884875695
12:00:00,1,N02,8 Av,-74.011719,40.635064,2783.89509024081
12:00:00,1,N03,Fort Hamilton Pkwy,-74.005351,40.631386,2917.201377972012
12:00:00,1,N04,New Utrecht Av,-73.996353,40.624842,3057.201377972012
12:00:00,1,N05,18 Av,-73.990414,40.620671,3147.201377972012
12:00:00,1,N06,20 Av,-73.985026,40.61741,3217.201377972012
12:00:00,1,N07,Bay Pkwy,-73.981848,40.611815,3307.201377972012
12:00:00,1,N08,Kings Hwy,-73.980353,40.603923,3427.201377972012
12:00:00,1,N09,Avenue U,-73.979137,40.597473,3494.7349633555687
12:00:00,1,N10,86 St,-73.97823,40.592721,3434.7349633555687
12:35:00,1,Q01,Canal St,-74.00046,40.718383,1306.872700058438
12:10:00,1,Q03,72 St,-73.958424,40.768799,1801.005049052343
12:10:00,1,Q04,86 St,-73.951787,40.777891,1919.4947397739925
12:10:00,1,Q05,96 St,-73.947152,40.784318,2010.7371640164165
12:00:00,3,R01,Astoria-Ditmars Blvd,-73.912034,40.775036,2143.540648353817
12:00:00,3,R03,Astoria Blvd,-73.917843,40.770258,2042.3624305320345
12:00:00,3,R04,30 Av,-73.921479,40.766779,1942.5090971987013
12:00:00,3,R05,Broadway,-73.925508,40.76182,1845.9766296662335
12:00:00,3,R06,36 Av,-73.929575,40.756804,1751.1345244030756
12:00:00,3,R08,39 Av-Dutch Kills,-73.932755,40.752882,1645.8145244030757
12:05:00,2,R09,Queensboro Plaza,-73.940202,40.750582,1509.2739838625353
12:00:00,3,R11,Lexington Av/59 St,-73.967258,40.76266,1675.8873946165609
12:00:00,1,R13,5 Av/59 St,-73.973347,40.764811,1695.21441896886
12:10:00,1,R14,57 St-7 Av,-73.980658,40.764664,1489.3495018059352
12:05:00,1,R15,49 St,-73.984139,40.759901,1456.7905048102773
12:10:00,1,R16,Times Sq-42 St,-73.986754,40.754672,1316.0772504970348
12:10:00,1,R17,34 St-Herald Sq,-73.98795,40.749567,1216.0404083917715
12:05:00,1,R18,28 St,-73.988691,40.745494,1216.3629436030392
12:05:00,1,R19,23 St,-73.989344,40.741303,1135.17984501149
12:05:00,1,R20,14 St-Union Sq,-73.990568,40.735736,1049.4404083917716
12:05:00,1,R21,8 St-NYU,-73.992629,40.730328,1150.4247833917716
12:05:00,1,R22,Prince St,-73.997702,40.724329,1236.1122833917716
12:05:00,1,R23,Canal St,-74.001775,40.719527,1335.9107330041747
12:05:00,1,R24,City Hall,-74.006978,40.713282,1481.4030406964825
12:05:00,1,R25,Cortlandt St,-74.011029,40.710668,1595.8457887880857
12:05:00,1,R26,Rector St,-74.013342,40.70722,1695.9373918415208
12:02:30,2,R27,Whitehall St-South Ferry,-74.012994,40.703087,1780.020725174854
12:32:30,2,R28,Court St,-73.991777,40.6941,1584.701377972012
12:02:30,2,R29,Jay St-MetroTech,-73.985942,40.69218,1507.2013779720119
12:47:30,2,R30,DeKalb Av,-73.981824,40.690635,1604.7013779720119
13:45:00,1,R31,Atlantic Av-Barclays Ctr,-73.97881,40.683666,1747.2013779720119
13:45:00,1,R32,Union St,-73.98311,40.677316,1869.701377972012
13:45:00,1,R33,4 Av-9 St,-73.988302,40.670847,1992.2013779720119
13:45:00,1,R34,Prospect Av,-73.992872,40.665414,2059.201377972012
13:45:00,1,R35,25 St,-73.998091,40.660397,2137.201377972012
12:00:00,1,R36,36 St,-74.003549,40.655144,2262.201377972012
13:45:00,1,R39,45 St,-74.010006,40.648939,2440.516275089856
13:45:00,1,R40,53 St,-74.014034,40.645069,2535.70079889938
12:00:00,1,R41,59 St,-74.017881,40.641362,2616.6192281718445
13:45:00,1,R42,Bay Ridge Av,-74.023377,40.634967,2777.4292294680417
13:45:00,1,R43,77 St,-74.02551,40.629742,2857.701956740769
13:45:00,1,R44,86 St,-74.028398,40.622687,3034.053147216959
13:45:00,1,R45,Bay Ridge-95 St,-74.030876,40.616622,3111.068895248455
12:32:30,2,S01,Franklin Av,-73.955827,40.680596,1264.1923190445173
12:32:30,2,S03,Park Pl,-73.957624,40.674772,1387.0673190445173
12:32:30,2,S04,Botanic Garden,-73.959245,40.670343,1494.6109356779652
