start_time,ntransfers,stop_id,stop_name,stop_lon,stop_lat,duration
12:57:30,1,101,Van Cortlandt Park-242 St,-73.898583,40.889248,4051.066279008032
12:57:30,1,103,238 St,-73.90087,40.884667,3925.2554681972215
12:57:30,1,104,231 St,-73.904834,40.878856,3821.623181201706
12:57:30,1,106,Marble Hill-225 St,-73.909831,40.874561,3724.141199219724
12:57:30,1,107,215 St,-73.915279,40.869444,3635.348406426931
12:57:30,1,108,207 St,-73.918822,40.864621,3545.6254627039875
12:57:30,1,109,Dyckman St,-73.925536,40.860531,3445.312687373591
12:57:30,1,110,191 St,-73.929412,40.855225,3361.4678597873844
12:57:30,1,111,181 St,-73.933596,40.849505,3270.4378168689295
12:57:30,1,112,168 St-Washington Hts,-73.940133,40.840556,3151.236100130732
12:57:30,1,113,157 St,-73.94489,40.834041,3051.917134613491
12:57:30,1,114,145 St,-73.95036,40.826551,2934.6639157293707
12:57:30,1,115,137 St-City College,-73.953676,40.822008,2833.7878473533024
12:57:30,1,116,125 St,-73.958372,40.815581,2738.4628473533025
12:57:30,1,117,116 St-Columbia University,-73.96411,40.807722,2624.233680686636
12:57:30,1,118,Cathedral Pkwy (110 St),-73.966847,40.803967,2545.2791352320905
12:57:30,1,119,103 St,-73.968379,40.799446,2465.7504467075005
12:57:30,1,120,96 St,-73.972323,40.793919,2217.074875549994
13:19:00,1,121,86 St,-73.976218,40.788644,2255.348807363238
13:19:00,1,122,79 St,-73.979917,40.783934,2178.474823623401
12:57:30,1,123,72 St,-73.98197,40.778453,2050.023855141831
13:19:00,1,124,66 St-Lincoln Center,-73.982209,40.77344,2165.425810981907
13:19:00,1,125,59 St-Columbus Circle,-73.981929,40.768247,2162.461675434643
12:57:30,1,126,50 St,-73.983849,40.761728,2058.792502502312
12:57:30,1,127,Times Sq-42 St,-73.987495,40.75529,1824.6396743508703
12:57:30,1,128,34 St-Penn Station,-73.991057,40.750373,1723.2806999918962
12:57:30,1,129,28 St,-73.993365,40.747215,1764.877762822925
12:57:30,1,130,23 St,-73.995657,40.744081,1695.7294738495411
12:57:30,1,131,18 St,-73.997871,40.74104,1627.5514435465107
12:57:30,1,132,14 St,-74.000201,40.737826,1552.964570959638
12:19:00,1,133,Christopher St-Sheridan Sq,-74.002906,40.733422,1643.6867931818601
12:19:00,1,134,Houston St,-74.005367,40.728251,1729.5677455628127
12:19:00,1,135,Canal St,-74.006277,40.722854,1824.428600070219
12:19:00,1,136,Franklin St,-74.006886,40.719318,1888.5984168771197
12:57:30,1,137,Chambers St,-74.009266,40.715478,1715.578443354072
12:57:30,1,138,WTC Cortlandt,-74.012188,40.711835,2004.2495460564485
12:57:30,1,139,Rector St,-74.013783,40.707513,2080.7596675139384
12:57:30,1,142,South Ferry,-74.013664,40.702068,2004.6745492974214
13:49:00,1,201,Wakefield-241 St,-73.85062,40.903125,4798.211292197334
13:49:00,1,204,Nereid Av,-73.854376,40.898379,4501.19547883537
13:49:00,1,205,233 St,-73.857473,40.893193,4411.19547883537
13:49:00,1,206,225 St,-73.860341,40.888022,4321.19547883537
13:49:00,1,207,219 St,-73.862633,40.883895,4231.19547883537
13:49:00,1,208,Gun Hill Rd,-73.866256,40.87785,4126.19547883537
13:49:00,1,209,Burke Av,-73.867164,40.871356,4117.041848875067
13:49:00,1,210,Allerton Av,-73.867352,40.865462,4024.9114140924594
13:49:00,1,211,Pelham Pkwy,-73.867615,40.857192,3920.563588005503
13:49:00,1,212,Bronx Park East,-73.868457,40.848828,3795.7375010489814
13:49:00,1,213,E 180 St,-73.873488,40.841894,3585.4331532228944
13:09:00,1,214,West Farms Sq-E Tremont Av,-73.880049,40.840295,3532.5616119147503
13:09:00,1,215,174 St,-73.887734,40.837288,3402.4754050181987
13:09:00,1,216,Freeman St,-73.891865,40.829993,3282.6377981805917
13:09:00,1,217,Simpson St,-73.893064,40.824073,3172.256442248389
13:49:00,1,218,Intervale Av,-73.896736,40.822181,3099.3327134348297
13:49:00,1,219,Prospect Av,-73.90177,40.819585,3013.4513575026263
13:09:00,1,220,Jackson Av,-73.907807,40.81649,2921.3925339732145
13:49:00,1,221,3 Av-149 St,-73.917757,40.816109,2799.6842006398815
13:09:00,1,222,149 St-Grand Concourse,-73.926718,40.81841,2681.819188170543
12:57:30,1,224,135 St,-73.94077,40.814229,2741.2109979989737
12:57:30,1,225,125 St,-73.945495,40.807754,2633.1309979989737
12:57:30,1,226,116 St,-73.949625,40.802098,2537.1514061622393
12:57:30,1,227,Central Park North (110 St),-73.951822,40.799075,2468.7789571826474
12:57:30,1,228,Park Place,-74.008811,40.713051,1628.458443354072
12:57:30,1,229,Fulton St,-74.006571,40.709416,1518.2463221419507
13:09:00,1,230,Wall St,-74.0091,40.706821,1591.5169988336802
13:09:00,1,231,Clark St,-73.993086,40.697466,1775.0651469818283
12:09:00,1,232,Borough Hall,-73.989998,40.693219,1830.4088901548243
12:09:00,1,233,Hoyt St,-73.985065,40.690545,1914.9322062170006
12:09:00,1,234,Nevins St,-73.980492,40.688246,1944.8824320392698
12:09:00,1,235,Atlantic Av-Barclays Ctr,-73.977666,40.684359,1977.9088901548243
12:09:00,1,236,Bergen St,-73.975098,40.680829,2055.0789932476077
12:09:00,1,237,Grand Army Plaza,-73.971046,40.675235,2167.187240670288
12:09:00,1,238,Eastern Pkwy-Brooklyn Museum,-73.964375,40.671987,2107.000745300621
12:19:30,2,239,Franklin Av-Medgar Evers College,-73.958131,40.670682,1940.8506349966353
12:09:00,1,241,President St-Medgar Evers College,-73.950683,40.667883,2158.8247335786323
12:09:00,1,242,Sterling St,-73.95085,40.662742,2249.295887424786
12:09:00,1,243,Winthrop St,-73.9502,40.656652,2334.448268377167
12:09:00,1,244,Church Av,-73.949575,40.650843,2416.30054110444
12:09:00,1,245,Beverly Rd,-73.948959,40.645098,2497.734503368591
12:09:00,1,246,Newkirk Av-Little Haiti,-73.948411,40.639967,2583.7345033685906
12:09:00,1,247,Flatbush Av-Brooklyn College,-73.947642,40.632836,2701.071345473854
12:19:30,2,248,Nostrand Av,-73.950466,40.669847,1870.4946592412055
13:40:30,2,249,Kingston Av,-73.942161,40.669399,1772.7655774174298
13:40:30,2,250,Crown Hts-Utica Av,-73.932942,40.668897,1691.871733147691
13:40:30,2,251,Sutter Av-Rutland Rd,-73.92261,40.664717,1568.014590290548
13:40:30,2,252,Saratoga Av,-73.916327,40.661453,1463.4263549964305
13:40:30,2,253,Rockaway Av,-73.908946,40.662549,1374.4851785258425
13:21:00,2,254,Junius St,-73.902447,40.663515,1292.6420412709404
13:21:00,2,255,Pennsylvania Av,-73.894895,40.664635,1389.8577275454502
13:21:00,2,256,Van Siclen Av,-73.889395,40.665449,1464.3675314670188
13:21:00,2,257,New Lots Av,-73.884079,40.666235,1535.1420412709406
13:09:00,1,301,Harlem-148 St,-73.93647,40.82388,2989.1002085252894
13:09:00,1,302,145 St,-73.936245,40.820421,2874.7159979989733
12:57:30,1,401,Woodlawn,-73.878751,40.886037,4036.5093099948363
12:57:30,1,402,Mosholu Pkwy,-73.884655,40.87975,3891.0144646340113
12:57:30,1,405,Bedford Park Blvd-Lehman College,-73.890064,40.873412,3769.5039751235213
12:57:30,1,406,Kingsbridge Rd,-73.897174,40.86776,3634.954955515678
12:57:30,1,407,Fordham Rd,-73.901034,40.862803,3543.6085502869205
12:57:30,1,408,183 St,-73.903879,40.858407,3462.9092038816916
12:57:30,1,409,Burnside Av,-73.907684,40.853453,3369.737072734151
12:57:30,1,410,176 St,-73.911794,40.84848,3295.3861261249776
12:57:30,1,411,Mt Eden Av,-73.914685,40.844434,3219.6410280857617
12:57:30,1,412,170 St,-73.917791,40.840075,3142.1181522687684
12:57:30,1,413,167 St,-73.9214,40.835537,3061.5875400238706
12:57:30,1,414,161 St-Yankee Stadium,-73.925831,40.827994,2916.0729769170744
12:57:30,1,415,149 St-Grand Concourse,-73.927351,40.818375,2686.127976917074
12:57:30,1,416,138 St-Grand Concourse,-73.929849,40.813224,2516.8131640741576
12:19:00,1,418,Fulton St,-74.009509,40.710368,1403.2769457103798
12:19:00,1,419,Wall St,-74.011862,40.707557,1482.242957702548
12:19:00,1,420,Bowling Green,-74.014065,40.704817,1556.2337833906213
12:48:00,1,423,Borough Hall,-73.990151,40.692404,1824.463513120351
13:49:00,1,501,Eastchester-Dyre Av,-73.830834,40.8883,4361.033193551897
13:49:00,1,502,Baychester Av,-73.838591,40.878663,4230.6705561892595
13:49:00,1,503,Gun Hill Rd,-73.846384,40.869526,4071.9017389849582
13:49:00,1,504,Pelham Pkwy,-73.855359,40.858985,3914.5430433327847
13:49:00,1,505,Morris Park,-73.860495,40.854364,3826.861724651466
13:27:00,1,601,Pelham Bay Park,-73.828121,40.852462,4179.850151087612
13:27:00,1,602,Buhre Av,-73.832569,40.84681,3996.4232007330015
13:27:00,1,603,Middletown Rd,-73.836322,40.843863,3887.589867399669
13:27:00,1,604,Westchester Sq-E Tremont Av,-73.842952,40.839892,3742.8398673996685
13:27:00,1,606,Zerega Av,-73.847036,40.836488,3644.7565340663355
13:27:00,1,607,Castle Hill Av,-73.851222,40.834255,3577.423200733002
12:57:30,1,608,Parkchester,-73.860816,40.833226,3421.423200733002
12:57:30,1,609,St Lawrence Av,-73.867618,40.831509,3659.360567217121
12:57:30,1,610,Morrison Av-Soundview,-73.874516,40.829521,3574.2928381334555
12:57:30,1,611,Elder Av,-73.879159,40.828584,3509.1288381334557
12:57:30,1,612,Whitlock Av,-73.886283,40.826525,3402.7888381334556
12:57:30,1,613,Hunts Point Av,-73.890549,40.820948,3165.0385853483867
12:09:00,1,614,Longwood Av,-73.896435,40.816104,3247.330768585091
12:09:00,1,615,E 149 St,-73.904098,40.812118,3146.222435251758
12:09:00,1,616,E 143 St-St Mary's St,-73.907657,40.808719,3071.3801116003056
12:09:00,1,617,Cypress Av,-73.914042,40.805368,2972.4596095082557
12:09:00,1,618,Brook Av,-73.91924,40.807566,2902.900785978844
12:57:30,1,619,3 Av-138 St,-73.926138,40.810476,2785.961662271464
12:57:30,1,621,125 St,-73.937594,40.804138,2359.104518051929
13:09:00,1,622,116 St,-73.941617,40.798629,2668.152761777733
12:57:30,1,623,110 St,-73.94425,40.79502,2588.2018845847506
12:57:30,1,624,103 St,-73.947478,40.7906,2511.8299547601887
12:57:30,1,625,96 St,-73.95107,40.785672,2425.359779321592
12:57:30,1,626,86 St,-73.955589,40.779492,2074.7088345986917
12:57:30,1,627,77 St,-73.959874,40.77362,2230.214208076406
12:57:30,1,628,68 St-Hunter College,-73.96387,40.768141,2140.589208076406
12:57:30,1,629,59 St,-73.967967,40.762526,1877.5598984284793
12:57:30,1,630,51 St,-73.97192,40.757107,1947.6675638812026
12:57:30,1,631,Grand Central-42 St,-73.976848,40.751776,1717.1556431093304
12:57:30,1,632,33 St,-73.982076,40.746081,1727.2411104588818
12:57:30,1,633,28 St,-73.984264,40.74307,1656.3433831861548
12:57:30,1,634,23 St,-73.986599,40.739864,1580.5706559134276
12:57:30,1,635,14 St-Union Sq,-73.989951,40.734673,1463.2768622274384
12:57:30,1,636,Astor Pl,-73.99107,40.730054,1387.5861405779538
12:27:00,1,637,Bleecker St,-73.994659,40.725915,1296.869417028466
12:27:00,1,638,Spring St,-73.997141,40.722301,1274.4446032484457
12:27:00,1,639,Canal St,-74.000193,40.718803,1210.9922222960647
12:27:00,1,640,Brooklyn Bridge-City Hall,-74.004131,40.713065,1292.5547222960647
12:39:00,1,701,Flushing-Main St,-73.83003,40.7596,2988.0818521229626
12:39:00,1,702,Mets-Willets Point,-73.845625,40.754622,2811.7723283134387
12:39:00,1,705,111 St,-73.855334,40.75173,2831.728083189911
12:39:00,1,706,103 St-Corona Plaza,-73.8627,40.749865,2738.102074711858
12:39:00,1,707,Junction Blvd,-73.869527,40.749145,2567.7687413785247
12:39:00,1,708,90 St-Elmhurst Av,-73.876613,40.748408,2622.5170607602154
12:39:00,1,709,82 St-Jackson Hts,-73.883697,40.747659,2543.1367790700747
12:09:00,1,710,74 St-Broadway,-73.891394,40.746848,2400.888479750347
12:09:00,1,711,69 St,-73.896403,40.746325,2353.4767150444645
12:09:00,1,712,61 St-Woodside,-73.902984,40.74563,2281.5682643402392
12:09:00,1,713,52 St,-73.912549,40.744149,2192.3830791550536
12:09:00,1,714,46 St-Bliss St,-73.918435,40.743132,2134.5525706804774
12:09:00,1,715,40 St-Lowery St,-73.924016,40.743781,2079.240706273698
12:09:00,1,716,33 St-Rawson St,-73.930997,40.744587,2015.0734707788174
12:09:00,1,718,Queensboro Plaza,-73.940202,40.750582,1888.768741378525
12:09:00,1,719,Court Sq,-73.945264,40.747023,1799.7687413785247
12:09:00,1,720,Hunters Point Av,-73.948916,40.742216,1885.7687413785247
12:09:00,1,721,Vernon Blvd-Jackson Av,-73.953581,40.742626,1913.7687413785247
12:09:00,1,723,Grand Central-42 St,-73.976041,40.751431,1935.2325173924364
12:09:00,1,724,5 Av,-73.981963,40.753821,1879.8039459638649
12:09:00,1,725,Times Sq-42 St,-73.987691,40.755477,1930.303945963865
12:09:00,1,726,34 St-Hudson Yards,-74.00191,40.755882,2060.303945963865
12:09:00,2,901,Grand Central-42 St,-73.979189,40.752769,1907.826231859221
12:09:00,2,902,Times Sq-42 St,-73.986229,40.755983,1927.264316200509
13:19:00,0,A02,Inwood-207 St,-73.919899,40.868072,3548.852852653914
13:19:00,0,A03,Dyckman St,-73.927271,40.865491,3458.7798599531843
13:19:00,0,A05,190 St,-73.93418,40.859022,3335.1874686488363
13:19:00,0,A06,181 St,-73.937969,40.851695,3221.952174531189
13:19:00,0,A07,175 St,-73.939704,40.847391,3125.2317444236623
13:19:00,0,A09,168 St,-73.939561,40.840719,2997.7932417498655
12:09:00,0,A10,163 St-Amsterdam Av,-73.939892,40.836013,3018.746837589333
12:09:00,0,A11,155 St,-73.941514,40.830518,2936.9135042559997
12:09:00,0,A12,145 St,-73.944216,40.824783,2752.916236402272
12:09:00,0,A14,135 St,-73.947649,40.817894,2674.752039947753
13:09:00,0,A15,125 St,-73.952343,40.811109,2527.2925804882934
12:09:00,0,A16,116 St,-73.954882,40.805085,2651.1281627189956
13:19:00,0,A17,Cathedral Pkwy (110 St),-73.958161,40.800603,2657.8211172565934
13:19:00,0,A18,103 St,-73.961454,40.796092,2570.0548834903598
13:19:00,0,A19,96 St,-73.964696,40.791642,2485.301636737113
13:19:00,0,A20,86 St,-73.968916,40.785868,2383.4200577897445
13:19:00,0,A21,81 St-Museum of Natural History,-73.972143,40.781433,2287.393391123078
13:19:00,0,A22,72 St,-73.97641,40.775594,2198.513391123078
13:09:00,0,A24,59 St-Columbus Circle,-73.981736,40.768296,2014.5208413578587
13:09:00,0,A25,50 St,-73.985984,40.762456,1993.076385837949
13:09:00,0,A27,42 St-Port Authority Bus Terminal,-73.989735,40.757308,1852.5154359524531
12:19:00,1,A28,34 St-Penn Station,-73.993391,40.752287,1756.225113371808
12:57:30,1,A30,23 St,-73.998041,40.745906,1680.2705038368565
12:57:30,1,A31,14 St,-74.00169,40.740893,1588.6008609797136
12:09:00,1,A32,W 4 St-Wash Sq,-74.000495,40.732338,1476.4780539621697
13:39:00,1,A33,Spring St,-74.003739,40.726227,1582.0566255951
13:09:00,1,A34,Canal St,-74.005229,40.720824,1623.7578708842395
12:09:00,1,A36,Chambers St,-74.008585,40.714111,1503.4317839277178
12:09:00,1,A38,Fulton St,-74.007691,40.710197,1405.9922234881574
12:09:00,1,A40,High St,-73.990531,40.699337,1603.7449707409046
12:09:00,1,A41,Jay St-MetroTech,-73.987342,40.692338,1377.9088901548243
12:19:00,1,A42,Hoyt-Schermerhorn Sts,-73.985001,40.688484,1508.970470287117
12:09:00,1,A43,Lafayette Av,-73.973946,40.686113,1532.0249292398462
12:02:00,2,A44,Clinton-Washington Avs,-73.965838,40.683263,1447.36129287621
12:02:00,2,A45,Franklin Av,-73.956848,40.68138,1341.23629287621
12:19:00,1,A46,Nostrand Av,-73.950426,40.680438,1176.0034891550415
13:57:00,1,A47,Kingston-Throop Avs,-73.940858,40.679921,1166.1054338270021
12:19:00,1,A48,Utica Av,-73.930729,40.679364,1013.9147041083127
12:02:00,2,A49,Ralph Av,-73.920786,40.678822,973.2035318022973
12:02:00,2,A50,Rockaway Av,-73.911946,40.67834,874.7572508105619
12:09:00,1,A51,Broadway Junction,-73.905316,40.678334,790.6588901548242
12:09:00,1,A52,Liberty Av,-73.896548,40.674542,924.6182397483201
12:09:00,1,A53,Van Siclen Av,-73.890358,40.67271,1019.797101536938
12:09:00,1,A54,Shepherd Av,-73.88075,40.67413,1123.8702722686453
13:49:00,1,A55,Euclid Av,-73.872106,40.675377,1090.970518061801
13:49:00,1,A57,Grant Av,-73.86505,40.677044,1213.153090675909
13:49:00,1,A59,80 St,-73.858992,40.679371,1310.5050906759088
13:49:00,1,A60,88 St,-73.85147,40.679843,1406.4652500384586
13:49:00,1,A61,Rockaway Blvd,-73.843853,40.680429,1496.810488133697
13:39:00,1,A63,104 St,-73.837683,40.681711,1580.4824881336967
13:39:00,1,A64,111 St,-73.832163,40.684331,1666.6136356746806
13:39:00,1,A65,Ozone Park-Lefferts Blvd,-73.825798,40.685951,1755.676926813921
12:39:00,0,B04,21 St-Queensbridge,-73.942836,40.754203,2416.848852323328
12:39:00,0,B06,Roosevelt Island,-73.95326,40.759145,2270.2281626681556
12:39:00,0,B08,Lexington Av/63 St,-73.966113,40.764629,2098.7127333125186
12:39:00,0,B10,57 St,-73.97745,40.763972,2023.9088901548243
13:49:00,0,B12,9 Av,-73.994324,40.646292,2591.4870980898913
13:49:00,0,B13,Fort Hamilton Pkwy,-73.994304,40.640914,2692.5896621924553
13:49:00,0,B14,50 St,-73.994791,40.63626,2771.615139899462
13:49:00,0,B15,55 St,-73.995476,40.631435,2871.3731016829015
13:49:00,0,B16,62 St,-73.996895,40.626472,2937.3451296549297
13:49:00,0,B17,71 St,-73.998864,40.619589,3039.8355755148023
13:49:00,0,B18,79 St,-74.00061,40.613501,3146.3960850689427
13:49:00,0,B19,18 Av,-74.001736,40.607954,3227.9896334560394
13:49:00,0,B20,20 Av,-73.998168,40.604556,3309.983139949546
13:49:00,0,B21,Bay Pkwy,-73.993728,40.601875,3387.528594495
13:49:00,0,B22,25 Av,-73.986829,40.597704,3506.638271914355
13:49:00,0,B23,Bay 50 St,-73.983765,40.588841,3704.086608828329
12:09:00,0,D01,Norwood-205 St,-73.878855,40.874811,3949.7063427683106
12:09:00,0,D03,Bedford Park Blvd,-73.887138,40.873244,3778.2198562818244
12:09:00,0,D04,Kingsbridge Rd,-73.893509,40.866978,3661.0636062818244
12:09:00,0,D05,Fordham Rd,-73.897749,40.861296,3566.532137750356
12:09:00,0,D06,182-183 Sts,-73.900741,40.856093,3479.598230949193
13:09:00,0,D07,Tremont Av,-73.905227,40.85041,3401.483186701405
13:09:00,0,D08,174-175 Sts,-73.910136,40.8459,3357.0804838876224
13:09:00,0,D09,170 St,-73.9134,40.839306,3250.8240736312123
13:09:00,0,D10,167 St,-73.91844,40.833771,3145.9047187925025
13:09:00,0,D11,161 St-Yankee Stadium,-73.925651,40.827905,3028.52376641155
13:09:00,0,D12,155 St,-73.938209,40.830135,2910.32376641155
13:09:00,0,D13,145 St,-73.944216,40.824783,2766.82376641155
13:09:00,0,D14,7 Av,-73.981637,40.762862,1952.6633119018384
12:09:00,0,D15,47-50 Sts-Rockefeller Ctr,-73.981329,40.758663,1742.3814107525973
12:09:00,0,D16,42 St-Bryant Pk,-73.984569,40.754222,1654.8039459638649
12:09:00,0,D17,34 St-Herald Sq,-73.987823,40.749719,1574.2900570749762
12:27:00,0,D18,23 St,-73.992821,40.742878,1464.3133480798167
12:27:00,0,D19,14 St,-73.996209,40.738228,1330.654524550405
12:09:00,0,D20,W 4 St-Wash Sq,-74.000495,40.732338,1236.4780539621697
12:27:00,0,D21,Broadway-Lafayette St,-73.996204,40.725297,1084.640844659844
12:48:00,0,D22,Grand St,-73.993753,40.718267,1458.25668851688
12:09:00,0,D24,Atlantic Av-Barclays Ctr,-73.97689,40.68446,1890.648351287368
12:09:00,0,D25,7 Av,-73.972367,40.67705,2026.771256315301
12:09:00,0,D26,Prospect Park,-73.962246,40.661614,1880.0101899350334
12:09:00,0,D27,Parkside Av,-73.961495,40.655292,2211.414827906724
12:09:00,0,D28,Church Av,-73.962982,40.650527,2223.737249704674
12:09:00,0,D29,Beverley Rd,-73.964492,40.644031,2330.6089773143085
12:09:00,0,D30,Cortelyou Rd,-73.963891,40.640927,2408.804508040566
12:09:00,0,D31,Newkirk Plaza,-73.962793,40.635082,2395.180106847531
12:09:00,0,D32,Avenue H,-73.961639,40.62927,2512.0032133245104
12:09:00,0,D33,Avenue J,-73.960803,40.625039,2605.986167869965
12:09:00,0,D34,Avenue M,-73.959399,40.617618,2717.377229322479
12:19:00,0,D35,Kings Hwy,-73.957734,40.60867,2633.3124597887077
13:49:00,0,D37,Avenue U,-73.955929,40.5993,2848.792159624193
13:49:00,0,D38,Neck Rd,-73.955161,40.595246,2948.32824209842
12:19:00,0,D39,Sheepshead Bay,-73.954155,40.586896,2871.2975344155734
13:49:00,0,D40,Brighton Beach,-73.961376,40.577621,3021.024807142846
13:49:00,0,D41,Ocean Pkwy,-73.968501,40.576312,3203.3717687284807
13:49:00,0,D42,W 8 St-NY Aquarium,-73.975939,40.576127,3210.0157339667567
13:49:00,0,D43,Coney Island-Stillwell Av,-73.981233,40.577422,3316.705656447377
12:09:00,1,E01,World Trade Center,-74.009781,40.712582,1808.0993283697348
12:27:00,0,F01,Jamaica-179 St,-73.783817,40.712646,2902.6281225977827
13:39:00,0,F02,169 St,-73.793604,40.71047,2812.6281225977827
13:39:00,0,F03,Parsons Blvd,-73.803326,40.707564,2722.6281225977827
13:39:00,0,F04,Sutphin Blvd,-73.810708,40.70546,2632.6281225977827
13:39:00,0,F05,Briarwood,-73.820574,40.709179,2412.3208975541675
12:57:30,0,F06,Kew Gardens-Union Tpke,-73.831008,40.714441,2532.919392245265
12:57:30,0,F07,75 Av,-73.837324,40.718331,2646.9578537837265
13:19:00,0,F09,Court Sq-23 St,-73.946,40.747846,1799.7687413785247
13:19:00,0,F11,Lexington Av/53 St,-73.969055,40.757552,1993.095696466883
13:19:00,0,F12,5 Av/53 St,-73.975224,40.760167,1893.9120229974953
12:27:00,0,F14,2 Av,-73.989938,40.723402,1129.74889494584
12:27:00,0,F15,Delancey St-Essex St,-73.988114,40.718611,1018.9088901548243
12:09:00,1,F16,East Broadway,-73.990173,40.713715,1099.9088901548243
12:09:00,1,F18,York St,-73.986751,40.701397,1243.575556821491
12:09:00,1,F20,Bergen St,-73.990862,40.686145,1582.511802753921
12:09:00,1,F21,Carroll St,-73.995048,40.680303,1678.1816592132511
12:09:00,1,F22,Smith-9 Sts,-73.995959,40.67358,1820.5951207517128
12:09:00,1,F23,4 Av-9 St,-73.989779,40.670272,1904.0608070262224
12:09:00,1,F24,7 Av,-73.980305,40.666271,1813.9088901548243
12:09:00,1,F25,15 St-Prospect Park,-73.979493,40.660365,1981.8184735591535
12:09:00,1,F26,Fort Hamilton Pkwy,-73.975776,40.650782,2143.4776914362487
12:09:00,1,F27,Church Av,-73.979678,40.644041,2053.9088901548243
12:09:00,1,F29,Ditmas Av,-73.978172,40.636119,2173.9088901548243
12:09:00,1,F30,18 Av,-73.976971,40.629755,2293.9088901548243
12:09:00,1,F31,Avenue I,-73.976127,40.625322,2353.9088901548243
12:09:00,1,F32,Bay Pkwy,-73.975264,40.620769,2413.9088901548243
12:09:00,1,F33,Avenue N,-73.974197,40.61514,2533.9088901548243
12:09:00,1,F34,Avenue P,-73.973022,40.608944,2623.9088901548243
12:09:00,1,F35,Kings Hwy,-73.972361,40.603217,2797.5710121426173
12:09:00,1,F36,Avenue U,-73.973357,40.596063,2906.172075972405
12:09:00,1,F38,Avenue X,-73.97425,40.58962,2999.3752845285544
13:19:00,0,F39,Neptune Av,-73.974574,40.581011,3113.847194640914
13:39:00,0,G05,Jamaica Center-Parsons/Archer,-73.801109,40.702147,1926.2462734250878
13:39:00,0,G06,Sutphin Blvd-Archer Av-JFK Airport,-73.807969,40.700486,1866.246273425088
12:57:30,0,G07,Jamaica-Van Wyck,-73.816859,40.702566,2285.5981252769393
12:57:30,0,G08,Forest Hills-71 Av,-73.844521,40.721691,2744.627356847035
13:09:00,0,G09,67 Av,-73.852719,40.726523,2893.3970964582873
13:19:00,0,G10,63 Dr-Rego Park,-73.861604,40.729846,2853.5521340183336
13:19:00,0,G11,Woodhaven Blvd,-73.869229,40.733106,2749.9219970320323
13:19:00,0,G12,Grand Av-Newtown,-73.877223,40.737015,2627.0469970320323
13:19:00,0,G13,Elmhurst Av,-73.882017,40.742454,2527.51275045669
13:19:00,0,G14,Jackson Hts-Roosevelt Av,-73.891338,40.746644,2369.221636157513
13:19:00,0,G15,65 St,-73.898453,40.749669,2489.7813649846685
13:19:00,0,G16,Northern Blvd,-73.906006,40.752885,2395.451468077452
12:27:00,0,G18,46 St,-73.913333,40.756312,2305.451468077452
12:27:00,0,G19,Steinway St,-73.92074,40.756879,2188.5442515826066
12:27:00,0,G20,36 St,-73.928781,40.752039,2068.5442515826066
13:19:00,0,G21,Queens Plaza,-73.937243,40.748973,1923.1360883173002
12:02:00,2,G22,Court Sq,-73.943832,40.746554,1588.8501970208888
12:02:00,2,G24,21 St,-73.949724,40.744065,1522.987878180309
12:02:00,2,G26,Greenpoint Av,-73.954449,40.731352,1315.1646737604196
12:02:00,2,G28,Nassau Av,-73.951277,40.724635,1220.802036397782
12:02:00,2,G29,Metropolitan Av,-73.951418,40.712792,1088.7200691846674
12:02:00,2,G30,Broadway,-73.950308,40.706092,1189.3015909237977
12:02:00,2,G31,Flushing Av,-73.950234,40.700377,1275.6961855183924
12:02:00,2,G32,Myrtle-Willoughby Avs,-73.949046,40.694568,1357.4205098427167
12:02:00,2,G33,Bedford-Nostrand Avs,-73.953522,40.689627,1469.3506173695985
12:02:00,2,G34,Classon Av,-73.96007,40.688873,1551.2780785094947
12:02:00,2,G35,Clinton-Washington Avs,-73.966839,40.688089,1635.144057890938
12:02:00,2,G36,Fulton St,-73.975375,40.687119,1733.5902117370917
13:49:00,1,H01,Aqueduct Racetrack,-73.834058,40.668234,1702.842234165443
13:49:00,1,H02,Aqueduct-N Conduit Av,-73.834058,40.668234,1779.4755674987762
13:49:00,1,H03,Howard Beach-JFK Airport,-73.830301,40.660476,1874.0311230543318
13:49:00,1,H04,Broad Channel,-73.815925,40.608382,2291.9827359575575
13:49:00,1,H06,Beach 67 St,-73.796924,40.590927,2603.272209641768
13:49:00,1,H07,Beach 60 St,-73.788522,40.592374,2706.7195780628203
13:49:00,1,H08,Beach 44 St,-73.776013,40.592943,2810.2020342031715
13:49:00,1,H09,Beach 36 St,-73.768175,40.595398,2907.447648238259
13:49:00,1,H10,Beach 25 St,-73.761353,40.600066,3007.82817921171
13:49:00,1,H11,Far Rockaway-Mott Av,-73.755405,40.603995,3106.9948458783765
13:49:00,1,H12,Beach 90 St,-73.813641,40.588034,2543.2827359575576
13:49:00,1,H13,Beach 98 St,-73.820558,40.585307,2621.6827359575573
13:49:00,1,H14,Beach 105 St,-73.827559,40.583209,2697.7938470686686
13:49:00,1,H15,Rockaway Park-Beach 116 St,-73.835592,40.580903,2801.9938470686684
13:39:00,0,J12,121 St,-73.828294,40.700492,1626.246273425088
13:39:00,0,J13,111 St,-73.836345,40.697418,1765.8104055592075
13:39:00,0,J14,104 St,-73.84433,40.695178,1446.246273425088
13:39:00,0,J15,Woodhaven Blvd,-73.851576,40.693879,1317.3255568214909
13:39:00,0,J16,85 St-Forest Pkwy,-73.86001,40.692435,1359.2322765979889
13:39:00,0,J17,75 St-Elderts Ln,-73.867139,40.691324,1137.3255568214909
13:39:00,0,J19,Cypress Hills,-73.87255,40.689941,1156.9822765979889
13:39:00,0,J20,Crescent St,-73.873785,40.683194,987.325556821491
13:39:00,0,J21,Norwood Av,-73.880039,40.68141,936.2462734250879
13:39:00,0,J22,Cleveland St,-73.884639,40.679947,960.1950283794507
13:39:00,0,J23,Van Siclen Av,-73.891688,40.678024,786.2462734250879
13:39:00,0,J24,Alabama Av,-73.898654,40.676992,678.325556821491
13:39:00,0,J27,Broadway Junction,-73.904512,40.679498,565.6588901548242
13:39:00,0,J28,Chauncey St,-73.910456,40.682893,477.2422234881576
13:39:00,0,J29,Halsey St,-73.916559,40.68637,452.65589614284823
13:39:00,0,J30,Gates Av,-73.92227,40.68963,331.325556821491
13:39:00,0,J31,Kosciuszko St,-73.928814,40.693342,270.50619554404585
12:52:30,1,L01,8 Av,-74.002578,40.739777,1434.0745757373993
12:52:30,1,L02,6 Av,-73.996786,40.737335,1342.964570959638
12:52:30,1,L03,14 St-Union Sq,-73.99073,40.734789,1266.6664343136754
12:52:30,1,L05,3 Av,-73.986122,40.732849,1189.51115481057
12:52:30,1,L06,1 Av,-73.981628,40.730953,1161.2778214772363
12:52:30,1,L08,Bedford Av,-73.956872,40.717304,963.365967373893
12:52:30,1,L10,Lorimer St,-73.950275,40.714063,875.5057850030724
12:52:30,1,L11,Graham Av,-73.944053,40.714565,838.1349643343793
12:52:30,1,L12,Grand St,-73.94067,40.711926,757.6125762746778
12:52:30,1,L13,Montrose Av,-73.93985,40.707739,719.1890887301939
12:52:30,1,L14,Morgan Av,-73.933147,40.706152,651.7795931812325
12:52:30,1,L15,Jefferson St,-73.922913,40.706607,559.7974683670036
12:52:30,1,L16,DeKalb Av,-73.918425,40.703811,500.56669913623443
12:02:00,1,L17,Myrtle-Wyckoff Avs,-73.911586,40.699814,431.1870657034744
13:11:00,1,L19,Halsey St,-73.904084,40.695602,475.2510387674475
13:11:00,1,L20,Wilson Av,-73.904046,40.688764,592.2294338291758
13:11:00,1,L21,Bushwick Av-Aberdeen St,-73.905249,40.682829,676.5662393847314
13:11:00,1,L22,Broadway Junction,-73.90324,40.678856,726.4835947566322
13:11:00,1,L24,Atlantic Av,-73.903097,40.675345,834.5607552504594
13:11:00,1,L25,Sutter Av,-73.901975,40.669367,904.933062942767
13:11:00,1,L26,Livonia Av,-73.900571,40.664038,962.6420412709405
13:11:00,1,L27,New Lots Av,-73.899232,40.658733,1011.7420412709406
13:11:00,1,L28,East 105 St,-73.899485,40.650573,1108.4684563652802
12:02:00,1,L29,Canarsie-Rockaway Pkwy,-73.90185,40.646654,1233.5326455544694
12:02:00,0,M01,Middle Village-Metropolitan Av,-73.889601,40.711396,606.6386272643381
12:02:00,0,M04,Fresh Pond Rd,-73.895877,40.706186,486.26153334679384
12:02:00,0,M05,Forest Av,-73.903077,40.704423,378.10363860995176
12:02:00,0,M06,Seneca Av,-73.90774,40.702762,283.7394001993557
12:02:00,0,M08,Myrtle-Wyckoff Avs,-73.912385,40.69943,201.51181399245914
12:02:00,0,M09,Knickerbocker Av,-73.919711,40.698664,92.18064516129033
12:27:00,0,M10,Central Av,-73.927397,40.697857,0.0
12:09:00,0,M11,Myrtle Av,-73.935657,40.697207,116.24626865671642
12:09:00,0,M12,Flushing Av,-73.941126,40.70026,230.27524588567533
12:09:00,0,M13,Lorimer St,-73.947408,40.703869,326.7072458856753
12:09:00,0,M14,Hewes St,-73.953431,40.70687,423.78989051377454
12:09:00,0,M16,Marcy Av,-73.957757,40.708359,412.325556821491
12:09:00,0,M18,Delancey St-Essex St,-73.987437,40.718315,793.9088901548243
12:19:00,0,M19,Bowery,-73.993915,40.72028,870.9922234881576
12:19:00,0,M20,Canal St,-73.999892,40.718092,973.4922234881575
12:19:00,0,M21,Chambers St,-74.003401,40.713243,1069.0755568214909
12:19:00,0,M22,Fulton St,-74.007582,40.710374,1180.9922234881574
12:19:00,0,M23,Broad St,-74.011056,40.706476,1247.1588901548241
12:09:00,0,N02,8 Av,-74.011719,40.635064,2666.157049072639
12:09:00,0,N03,Fort Hamilton Pkwy,-74.005351,40.631386,2809.6021357778413
12:09:00,0,N04,New Utrecht Av,-73.996353,40.624842,2945.8911531188814
12:09:00,0,N05,18 Av,-73.990414,40.620671,3038.1628294194593
12:09:00,0,N06,20 Av,-73.985026,40.61741,3117.284922442715
12:09:00,0,N07,Bay Pkwy,-73.981848,40.611815,3213.7126681074546
12:09:00,0,N08,Kings Hwy,-73.980353,40.603923,3322.9597945442365
12:09:00,0,N09,Avenue U,-73.979137,40.597473,3415.6865387302832
12:09:00,0,N10,86 St,-73.97823,40.592721,3498.2309174285083
13:57:00,2,Q01,Canal St,-74.00046,40.718383,1210.9922222960647
12:09:00,0,Q03,72 St,-73.958424,40.768799,2232.192114755818
12:09:00,0,Q04,86 St,-73.951787,40.777891,2350.681805477467
12:09:00,0,Q05,96 St,-73.947152,40.784318,2441.924229719891
12:09:00,1,R01,Astoria-Ditmars Blvd,-73.912034,40.775036,2574.727714057291
12:09:00,1,R03,Astoria Blvd,-73.917843,40.770258,2473.5494962355087
12:09:00,1,R04,30 Av,-73.921479,40.766779,2373.6961629021753
12:09:00,1,R05,Broadway,-73.925508,40.76182,2277.163695369708
12:09:00,1,R06,36 Av,-73.929575,40.756804,2182.32159010655
12:09:00,1,R08,39 Av-Dutch Kills,-73.932755,40.752882,2077.0015901065503
12:09:00,1,R09,Queensboro Plaza,-73.940202,40.750582,1940.4610495660095
12:09:00,1,R11,Lexington Av/59 St,-73.967258,40.76266,2107.074460320035
12:09:00,1,R13,5 Av/59 St,-73.973347,40.764811,2126.4014846723344
12:09:00,1,R14,57 St-7 Av,-73.980658,40.764664,1920.5365675094097
12:09:00,1,R15,49 St,-73.984139,40.759901,1887.9775705137517
12:09:00,1,R16,Times Sq-42 St,-73.986754,40.754672,1747.264316200509
12:02:00,2,R17,34 St-Herald Sq,-73.98795,40.749567,1647.227474095246
12:02:00,2,R18,28 St,-73.988691,40.745494,1647.5500093065134
12:57:30,2,R19,23 St,-73.989344,40.741303,1566.3669107149642
12:39:00,1,R20,14 St-Union Sq,-73.990568,40.735736,1480.6274740952458
12:09:00,2,R21,8 St-NYU,-73.992629,40.730328,1514.9585684499107
12:19:00,1,R22,Prince St,-73.997702,40.724329,1430.7906719084679
12:19:00,1,R23,Canal St,-74.001775,40.719527,1330.9922222960647
12:09:00,1,R24,City Hall,-74.006978,40.713282,1476.4845299883723
12:09:00,1,R25,Cortlandt St,-74.011029,40.710668,1590.9272780799754
12:09:00,1,R26,Rector St,-74.013342,40.70722,1687.7995492974214
12:09:00,0,R27,Whitehall St-South Ferry,-74.012994,40.703087,1772.1745492974214
12:09:00,0,R28,Court St,-73.991777,40.6941,1590.4088901548243
12:09:00,0,R29,Jay St-MetroTech,-73.985942,40.69218,1512.9088901548243
12:09:00,2,R30,DeKalb Av,-73.981824,40.690635,1610.4088901548243
13:49:00,0,R31,Atlantic Av-Barclays Ctr,-73.97881,40.683666,1752.9088901548243
12:09:00,0,R32,Union St,-73.98311,40.677316,1875.4088901548243
12:09:00,0,R33,4 Av-9 St,-73.988302,40.670847,1997.9088901548246
12:09:00,0,R34,Prospect Av,-73.992872,40.665414,2064.9088901548243
12:09:00,0,R35,25 St,-73.998091,40.660397,2142.9088901548243
13:49:00,0,R36,36 St,-74.003549,40.655144,2206.824689828532
12:09:00,0,R39,45 St,-74.010006,40.648939,2405.2894328469515
12:09:00,0,R40,53 St,-74.014034,40.645069,2494.5139226428696
12:09:00,0,R41,59 St,-74.017881,40.641362,2498.881187003673
12:09:00,0,R42,Bay Ridge Av,-74.023377,40.634967,2659.6911882998706
12:09:00,0,R43,77 St,-74.02551,40.629742,2739.9639155725977
12:09:00,0,R44,86 St,-74.028398,40.622687,2916.315106048788
13:49:00,0,R45,Bay Ridge-95 St,-74.030876,40.616622,2993.330854080284
12:02:00,3,S01,Franklin Av,-73.955827,40.680596,1521.23629287621
12:02:00,3,S03,Park Pl,-73.957624,40.674772,1644.11129287621
12:02:00,3,S04,Botanic Garden,-73.959245,40.670343,1751.654909509658
