start_time,ntransfers,stop_id,stop_name,stop_lon,stop_lat,duration
12:09:00,0,101,Van Cortlandt Park-242 St,-73.898583,40.889248,4371.643836498261
12:09:00,0,103,238 St,-73.90087,40.884667,4252.393836498261
12:09:00,0,104,231 St,-73.904834,40.878856,4150.393836498261
12:09:00,0,106,Marble Hill-225 St,-73.909831,40.874561,4050.393836498261
12:09:00,0,107,215 St,-73.915279,40.869444,3945.937425851821
12:09:00,0,108,207 St,-73.918822,40.864621,3850.1438364982605
12:09:00,0,109,Dyckman St,-73.925536,40.860531,3743.1438364982605
12:09:00,0,110,191 St,-73.929412,40.855225,3652.1438364982605
12:09:00,0,111,181 St,-73.933596,40.849505,3550.1438364982605
12:09:00,0,112,168 St-Washington Hts,-73.940133,40.840556,3424.1438364982605
12:09:00,0,113,157 St,-73.94489,40.834041,3529.1438364982605
12:09:00,0,114,145 St,-73.95036,40.826551,3547.2295899391174
12:09:00,0,115,137 St-City College,-73.953676,40.822008,3455.2295899391174
12:09:00,0,116,125 St,-73.958372,40.815581,3329.2295899391174
12:09:00,0,117,116 St-Columbia University,-73.96411,40.807722,3205.2295899391174
12:09:00,0,118,Cathedral Pkwy (110 St),-73.966847,40.803967,3128.2295899391174
12:09:00,0,119,103 St,-73.968379,40.799446,3042.2295899391174
12:01:00,0,120,96 St,-73.972323,40.793919,2685.25
12:09:00,0,121,86 St,-73.976218,40.788644,2798.0000000000005
12:09:00,0,122,79 St,-73.979917,40.783934,2884.0
12:01:00,0,123,72 St,-73.98197,40.778453,2878.2500000000005
12:17:00,0,124,66 St-Lincoln Center,-73.982209,40.77344,3015.3979072570805
12:17:00,0,125,59 St-Columbus Circle,-73.981929,40.768247,3120.3979072570805
12:17:00,0,126,50 St,-73.983849,40.761728,3224.397907257081
12:01:00,0,127,Times Sq-42 St,-73.987495,40.75529,3147.0000000000005
12:01:00,0,128,34 St-Penn Station,-73.991057,40.750373,3261.0000000000005
12:09:00,0,129,28 St,-73.993365,40.747215,3399.9189147949214
12:09:00,0,130,23 St,-73.995657,40.744081,3473.9189147949214
12:09:00,0,131,18 St,-73.997871,40.74104,3545.918914794922
12:01:00,0,132,14 St,-74.000201,40.737826,3434.0000000000005
12:09:00,0,133,Christopher St-Sheridan Sq,-74.002906,40.733422,3658.71103978157
12:09:00,0,134,Houston St,-74.005367,40.728251,3749.71103978157
12:09:00,0,135,Canal St,-74.006277,40.722854,3838.71103978157
12:01:00,0,136,Franklin St,-74.006886,40.719318,3907.7110397815704
12:01:00,0,137,Chambers St,-74.009266,40.715478,3720.0000000000005
12:01:00,0,138,WTC Cortlandt,-74.012188,40.711835,4030.1730134487143
12:01:00,0,139,Rector St,-74.013783,40.707513,4112.173013448714
12:01:00,0,142,South Ferry,-74.013664,40.702068,4218.173013448714
12:21:00,0,201,Wakefield-241 St,-73.85062,40.903125,328.0
12:03:00,0,204,Nereid Av,-73.854376,40.898379,192.0
12:03:00,0,205,233 St,-73.857473,40.893193,92.0
13:05:00,0,206,225 St,-73.860341,40.888022,0.0
12:01:00,0,207,219 St,-73.862633,40.883895,80.0
12:01:00,0,208,Gun Hill Rd,-73.866256,40.87785,177.0
12:01:00,0,209,Burke Av,-73.867164,40.871356,277.0
12:01:00,0,210,Allerton Av,-73.867352,40.865462,369.0
12:01:00,0,211,Pelham Pkwy,-73.867615,40.857192,479.0
12:01:00,0,212,Bronx Park East,-73.868457,40.848828,605.0
12:01:00,0,213,E 180 St,-73.873488,40.841894,626.5
12:01:00,0,214,West Farms Sq-E Tremont Av,-73.880049,40.840295,784.5
12:01:00,0,215,174 St,-73.887734,40.837288,915.5
12:01:00,0,216,Freeman St,-73.891865,40.829993,1040.5
12:01:00,0,217,Simpson St,-73.893064,40.824073,1156.5
12:01:00,0,218,Intervale Av,-73.896736,40.822181,1235.5
12:01:00,0,219,Prospect Av,-73.90177,40.819585,1323.4999999999998
12:01:00,0,220,Jackson Av,-73.907807,40.81649,1427.4999999999998
12:01:00,0,221,3 Av-149 St,-73.917757,40.816109,1568.5
12:01:00,0,222,149 St-Grand Concourse,-73.926718,40.81841,1704.5
12:01:00,0,224,135 St,-73.94077,40.814229,2101.0000000000005
12:01:00,0,225,125 St,-73.945495,40.807754,2221.0000000000005
12:01:00,0,226,116 St,-73.949625,40.802098,2325.0000000000005
12:01:00,0,227,Central Park North (110 St),-73.951822,40.799075,2408.0000000000005
12:01:00,0,228,Park Place,-74.008811,40.713051,3822.0000000000005
12:01:00,0,229,Fulton St,-74.006571,40.709416,3788.431033372879
12:01:00,0,230,Wall St,-74.0091,40.706821,3867.4310333728786
12:01:00,0,231,Clark St,-73.993086,40.697466,4062.4310333728786
12:01:00,0,232,Borough Hall,-73.989998,40.693219,4182.431033372879
12:01:00,0,233,Hoyt St,-73.985065,40.690545,4180.4790070056915
12:01:00,1,234,Nevins St,-73.980492,40.688246,4033.25
12:01:00,1,235,Atlantic Av-Barclays Ctr,-73.977666,40.684359,4136.25
12:01:00,1,236,Bergen St,-73.975098,40.680829,4246.4790070056915
12:01:00,1,237,Grand Army Plaza,-73.971046,40.675235,4361.838237047195
12:01:00,1,238,Eastern Pkwy-Brooklyn Museum,-73.964375,40.671987,4465.838237047195
12:01:00,1,239,Franklin Av-Medgar Evers College,-73.958131,40.670682,4449.25
12:01:00,0,241,President St-Medgar Evers College,-73.950683,40.667883,4641.25
12:01:00,0,242,Sterling St,-73.95085,40.662742,4735.25
12:01:00,0,243,Winthrop St,-73.9502,40.656652,4828.25
12:01:00,0,244,Church Av,-73.949575,40.650843,4920.25
13:45:00,0,245,Beverly Rd,-73.948959,40.645098,5012.25
13:45:00,0,246,Newkirk Av-Little Haiti,-73.948411,40.639967,5104.25
13:45:00,0,247,Flatbush Av-Brooklyn College,-73.947642,40.632836,5286.249999999999
12:01:00,0,248,Nostrand Av,-73.950466,40.669847,4569.25
12:01:00,0,249,Kingston Av,-73.942161,40.669399,4668.25
12:01:00,1,250,Crown Hts-Utica Av,-73.932942,40.668897,4750.75
12:01:00,0,251,Sutter Av-Rutland Rd,-73.92261,40.664717,4894.5
12:01:00,0,252,Saratoga Av,-73.916327,40.661453,5015.000000000001
12:01:00,0,253,Rockaway Av,-73.908946,40.662549,5108.0
12:01:00,0,254,Junius St,-73.902447,40.663515,5150.711039781571
12:01:00,0,255,Pennsylvania Av,-73.894895,40.664635,5254.711039781571
12:01:00,0,256,Van Siclen Av,-73.889395,40.665449,5333.711039781571
12:01:00,0,257,New Lots Av,-73.884079,40.666235,5448.211039781571
12:01:00,0,301,Harlem-148 St,-73.93647,40.82388,2563.250000000001
12:01:00,0,302,145 St,-73.936245,40.820421,2431.231404781342
12:01:00,1,401,Woodlawn,-73.878751,40.886037,3378.499997615814
12:01:00,1,402,Mosholu Pkwy,-73.884655,40.87975,3228.0723676681523
12:01:00,1,405,Bedford Park Blvd-Lehman College,-73.890064,40.873412,3111.572367668152
12:01:00,1,406,Kingsbridge Rd,-73.897174,40.86776,2991.572367668152
12:01:00,1,407,Fordham Rd,-73.901034,40.862803,2890.5723676681523
12:01:00,1,408,183 St,-73.903879,40.858407,2803.572367668152
12:01:00,1,409,Burnside Av,-73.907684,40.853453,2700.572367668152
12:01:00,1,410,176 St,-73.911794,40.84848,2614.499997615814
12:01:00,1,411,Mt Eden Av,-73.914685,40.844434,2529.499997615814
12:01:00,1,412,170 St,-73.917791,40.840075,2442.499997615814
12:01:00,1,413,167 St,-73.9214,40.835537,2346.499997615814
12:01:00,1,414,161 St-Yankee Stadium,-73.925831,40.827994,2153.822367668152
12:01:00,1,415,149 St-Grand Concourse,-73.927351,40.818375,1972.8223676681519
12:01:00,1,416,138 St-Grand Concourse,-73.929849,40.813224,1896.7499999999998
12:01:00,1,418,Fulton St,-74.009509,40.710368,3445.5
12:01:00,1,419,Wall St,-74.011862,40.707557,3531.25
12:01:00,1,420,Bowling Green,-74.014065,40.704817,3614.25
12:01:00,1,423,Borough Hall,-73.990151,40.692404,3886.2499999999995
13:37:00,0,501,Eastchester-Dyre Av,-73.830834,40.8883,1402.75
12:33:00,0,502,Baychester Av,-73.838591,40.878663,1246.75
12:33:00,0,503,Gun Hill Rd,-73.846384,40.869526,1123.7499999999998
12:33:00,0,504,Pelham Pkwy,-73.855359,40.858985,983.7499999999999
12:33:00,0,505,Morris Park,-73.860495,40.854364,885.75
13:29:00,0,601,Pelham Bay Park,-73.828121,40.852462,4078.89285850525
13:29:00,0,602,Buhre Av,-73.832569,40.84681,3868.3928585052495
13:29:00,0,603,Middletown Rd,-73.836322,40.843863,3790.392858505249
13:29:00,0,604,Westchester Sq-E Tremont Av,-73.842952,40.839892,3635.892858505249
13:29:00,0,606,Zerega Av,-73.847036,40.836488,3543.642858505249
13:29:00,0,607,Castle Hill Av,-73.851222,40.834255,3469.6428585052486
12:17:00,0,608,Parkchester,-73.860816,40.833226,3233.642858505249
12:17:00,0,609,St Lawrence Av,-73.867618,40.831509,3413.737170696258
12:17:00,0,610,Morrison Av-Soundview,-73.874516,40.829521,3321.737170696258
12:17:00,0,611,Elder Av,-73.879159,40.828584,3247.737170696258
12:17:00,0,612,Whitlock Av,-73.886283,40.826525,3135.737170696258
12:01:00,1,613,Hunts Point Av,-73.890549,40.820948,2902.8928585052486
12:01:00,1,614,Longwood Av,-73.896435,40.816104,3021.7023844718933
12:01:00,1,615,E 149 St,-73.904098,40.812118,2917.7023844718933
12:01:00,1,616,E 143 St-St Mary's St,-73.907657,40.808719,2833.7023844718933
12:01:00,1,617,Cypress Av,-73.914042,40.805368,2728.2383737564082
12:01:00,1,618,Brook Av,-73.91924,40.807566,2650.2383737564087
12:01:00,1,619,3 Av-138 St,-73.926138,40.810476,2525.892858505249
12:01:00,1,621,125 St,-73.937594,40.804138,2083.75
12:01:00,1,622,116 St,-73.941617,40.798629,2417.2383737564087
12:01:00,1,623,110 St,-73.94425,40.79502,2501.2383737564087
12:01:00,1,624,103 St,-73.947478,40.7906,2584.2383737564082
12:01:00,1,625,96 St,-73.95107,40.785672,2679.2383737564087
12:01:00,1,626,86 St,-73.955589,40.779492,2407.75
12:01:00,1,627,77 St,-73.959874,40.77362,2804.9078969955444
12:01:00,1,628,68 St-Hunter College,-73.96387,40.768141,2901.9078969955444
12:01:00,1,629,59 St,-73.967967,40.762526,2609.75
12:01:00,1,630,51 St,-73.97192,40.757107,2938.75
12:01:00,1,631,Grand Central-42 St,-73.976848,40.751776,2782.75
12:01:00,1,632,33 St,-73.982076,40.746081,3160.9189147949214
12:01:00,1,633,28 St,-73.984264,40.74307,3232.918914794922
12:01:00,1,634,23 St,-73.986599,40.739864,3307.918914794922
12:01:00,1,635,14 St-Union Sq,-73.989951,40.734673,3040.7499999999995
12:01:00,1,636,Astor Pl,-73.99107,40.730054,3351.207143306732
12:01:00,1,637,Bleecker St,-73.994659,40.725915,3454.207143306732
12:01:00,1,638,Spring St,-73.997141,40.722301,3526.207143306732
12:01:00,1,639,Canal St,-74.000193,40.718803,3495.4999999999995
12:01:00,1,640,Brooklyn Bridge-City Hall,-74.004131,40.713065,3320.4999999999995
12:01:00,2,701,Flushing-Main St,-73.83003,40.7596,4380.806181907654
12:01:00,2,702,Mets-Willets Point,-73.845625,40.754622,4201.599727221897
12:01:00,2,705,111 St,-73.855334,40.75173,4222.4568700790405
12:01:00,2,706,103 St-Corona Plaza,-73.8627,40.749865,4146.4568700790405
12:01:00,2,707,Junction Blvd,-73.869527,40.749145,3954.4568700790405
12:01:00,2,708,90 St-Elmhurst Av,-73.876613,40.748408,4038.1491782665253
12:33:00,2,709,82 St-Jackson Hts,-73.883697,40.747659,3962.1491782665253
12:01:00,3,710,74 St-Broadway,-73.891394,40.746848,3786.149178266525
12:01:00,3,711,69 St,-73.896403,40.746325,3694.149178266525
12:01:00,3,712,61 St-Woodside,-73.902984,40.74563,3613.149178266525
12:01:00,1,713,52 St,-73.912549,40.744149,3480.8061802387233
12:01:00,1,714,46 St-Bliss St,-73.918435,40.743132,3421.8061802387233
12:01:00,1,715,40 St-Lowery St,-73.924016,40.743781,3362.8061802387233
12:01:00,1,716,33 St-Rawson St,-73.930997,40.744587,3279.8061802387233
12:01:00,1,718,Queensboro Plaza,-73.940202,40.750582,3136.8061802387233
12:01:00,1,719,Court Sq,-73.945264,40.747023,3240.8061802387233
12:01:00,1,720,Hunters Point Av,-73.948916,40.742216,3300.9189147949214
12:01:00,1,721,Vernon Blvd-Jackson Av,-73.953581,40.742626,3252.918914794922
12:01:00,2,723,Grand Central-42 St,-73.976041,40.751431,3037.918914794922
12:01:00,2,724,5 Av,-73.981963,40.753821,3113.9189147949214
12:01:00,2,725,Times Sq-42 St,-73.987691,40.755477,3193.9189147949214
12:01:00,1,726,34 St-Hudson Yards,-74.00191,40.755882,3345.918914794921
12:01:00,1,901,Grand Central-42 St,-73.979189,40.752769,2977.918914794922
12:01:00,2,902,Times Sq-42 St,-73.986229,40.755983,3083.9189147949214
13:21:00,1,A02,Inwood-207 St,-73.919899,40.868072,3810.6547052860255
13:21:00,1,A03,Dyckman St,-73.927271,40.865491,3696.6547052860255
13:21:00,1,A05,190 St,-73.93418,40.859022,3563.6547052860255
13:21:00,1,A06,181 St,-73.937969,40.851695,3443.6547052860255
13:21:00,1,A07,175 St,-73.939704,40.847391,3328.6547052860255
12:01:00,3,A09,168 St,-73.939561,40.840719,3198.654705286026
12:01:00,3,A10,163 St-Amsterdam Av,-73.939892,40.836013,3112.788211584091
12:01:00,3,A11,155 St,-73.941514,40.830518,3007.788211584091
12:25:00,2,A12,145 St,-73.944216,40.824783,2882.7882115840907
12:25:00,2,A14,135 St,-73.947649,40.817894,2786.6303153038025
13:45:00,2,A15,125 St,-73.952343,40.811109,2897.630315303802
12:01:00,2,A16,116 St,-73.954882,40.805085,3057.7882115840907
12:01:00,2,A17,Cathedral Pkwy (110 St),-73.958161,40.800603,3162.7882115840907
12:01:00,2,A18,103 St,-73.961454,40.796092,3269.0435814857483
12:17:00,1,A19,96 St,-73.964696,40.791642,3377.7882115840903
12:17:00,1,A20,86 St,-73.968916,40.785868,3494.0435814857483
12:17:00,1,A21,81 St-Museum of Natural History,-73.972143,40.781433,3598.4607324600224
12:17:00,1,A22,72 St,-73.97641,40.775594,3483.4607324600224
12:09:00,1,A24,59 St-Columbus Circle,-73.981736,40.768296,3349.109247684479
13:29:00,1,A25,50 St,-73.985984,40.762456,3322.918914794922
13:29:00,1,A27,42 St-Port Authority Bus Terminal,-73.989735,40.757308,3203.9189147949214
13:45:00,1,A28,34 St-Penn Station,-73.993391,40.752287,3322.918914794922
13:45:00,1,A30,23 St,-73.998041,40.745906,3435.9189147949214
13:45:00,1,A31,14 St,-74.00169,40.740893,3495.9189147949214
13:45:00,1,A32,W 4 St-Wash Sq,-74.000495,40.732338,3625.9189147949214
13:45:00,1,A33,Spring St,-74.003739,40.726227,3790.9189147949214
13:45:00,1,A34,Canal St,-74.005229,40.720824,3815.9189147949214
12:41:00,1,A36,Chambers St,-74.008585,40.714111,3785.431033372879
12:25:00,1,A38,Fulton St,-74.007691,40.710197,3668.431033372879
12:01:00,2,A40,High St,-73.990531,40.699337,3853.4310333728786
12:01:00,2,A41,Jay St-MetroTech,-73.987342,40.692338,3978.431033372878
12:01:00,2,A42,Hoyt-Schermerhorn Sts,-73.985001,40.688484,4098.431033372878
12:25:00,1,A43,Lafayette Av,-73.973946,40.686113,4278.431033372878
12:25:00,1,A44,Clinton-Washington Avs,-73.965838,40.683263,4380.431033372879
12:25:00,1,A45,Franklin Av,-73.956848,40.68138,4502.431033372878
12:01:00,2,A46,Nostrand Av,-73.950426,40.680438,4430.431033372879
12:25:00,1,A47,Kingston-Throop Avs,-73.940858,40.679921,4550.431033372879
12:01:00,2,A48,Utica Av,-73.930729,40.679364,4612.431033372879
12:25:00,1,A49,Ralph Av,-73.920786,40.678822,4732.431033372879
12:49:00,1,A50,Rockaway Av,-73.911946,40.67834,4847.431033372879
12:01:00,2,A51,Broadway Junction,-73.905316,40.678334,4797.029427051546
12:41:00,1,A52,Liberty Av,-73.896548,40.674542,4954.029427051545
12:41:00,1,A53,Van Siclen Av,-73.890358,40.67271,5069.029427051545
12:41:00,1,A54,Shepherd Av,-73.88075,40.67413,5187.029427051546
12:01:00,2,A55,Euclid Av,-73.872106,40.675377,5112.029427051546
12:01:00,2,A57,Grant Av,-73.86505,40.677044,5237.029427051545
12:01:00,2,A59,80 St,-73.858992,40.679371,5352.029427051546
12:01:00,2,A60,88 St,-73.85147,40.679843,5470.029427051546
12:01:00,2,A61,Rockaway Blvd,-73.843853,40.680429,5582.029427051545
12:01:00,2,A63,104 St,-73.837683,40.681711,5692.029427051545
12:01:00,2,A64,111 St,-73.832163,40.684331,5800.029427051545
12:01:00,2,A65,Ozone Park-Lefferts Blvd,-73.825798,40.685951,5920.029427051545
12:01:00,2,B04,21 St-Queensbridge,-73.942836,40.754203,3201.108697891235
12:01:00,2,B06,Roosevelt Island,-73.95326,40.759145,3109.342589855194
12:01:00,2,B08,Lexington Av/63 St,-73.966113,40.764629,2969.75
12:01:00,2,B10,57 St,-73.97745,40.763972,3134.75
12:33:00,1,B12,9 Av,-73.994324,40.646292,5123.34205341339
12:33:00,1,B13,Fort Hamilton Pkwy,-73.994304,40.640914,5243.34205341339
12:33:00,1,B14,50 St,-73.994791,40.63626,5343.59205341339
12:33:00,1,B15,55 St,-73.995476,40.631435,5463.59205341339
12:33:00,1,B16,62 St,-73.996895,40.626472,5533.592053413391
12:33:00,1,B17,71 St,-73.998864,40.619589,5653.592053413391
12:33:00,1,B18,79 St,-74.00061,40.613501,5773.592053413391
12:33:00,1,B19,18 Av,-74.001736,40.607954,5878.592053413391
12:33:00,1,B20,20 Av,-73.998168,40.604556,5983.592053413391
12:33:00,1,B21,Bay Pkwy,-73.993728,40.601875,6075.592053413391
13:13:00,1,B22,25 Av,-73.986829,40.597704,6200.59205341339
13:13:00,1,B23,Bay 50 St,-73.983765,40.588841,6450.592053413391
12:33:00,2,D01,Norwood-205 St,-73.878855,40.874811,3524.130315303802
12:33:00,2,D03,Bedford Park Blvd,-73.887138,40.873244,3299.630315303802
12:33:00,2,D04,Kingsbridge Rd,-73.893509,40.866978,3179.630315303802
12:33:00,2,D05,Fordham Rd,-73.897749,40.861296,3063.630315303802
12:33:00,2,D06,182-183 Sts,-73.900741,40.856093,2985.6303153038025
12:33:00,2,D07,Tremont Av,-73.905227,40.85041,2883.630315303802
12:33:00,2,D08,174-175 Sts,-73.910136,40.8459,2770.630315303802
12:33:00,2,D09,170 St,-73.9134,40.839306,2650.630315303802
12:33:00,2,D10,167 St,-73.91844,40.833771,2530.630315303802
13:21:00,2,D11,161 St-Yankee Stadium,-73.925651,40.827905,2407.6303153038025
12:25:00,2,D12,155 St,-73.938209,40.830135,2532.6303153038025
12:25:00,2,D13,145 St,-73.944216,40.824783,2657.630315303802
13:05:00,1,D14,7 Av,-73.981637,40.762862,3383.6810333728786
12:01:00,2,D15,47-50 Sts-Rockefeller Ctr,-73.981329,40.758663,3224.75
12:01:00,2,D16,42 St-Bryant Pk,-73.984569,40.754222,3314.75
12:01:00,2,D17,34 St-Herald Sq,-73.987823,40.749719,3404.75
12:01:00,2,D18,23 St,-73.992821,40.742878,3524.75
12:01:00,2,D19,14 St,-73.996209,40.738228,3577.71103978157
12:33:00,1,D20,W 4 St-Wash Sq,-74.000495,40.732338,3625.9189147949214
12:33:00,1,D21,Broadway-Lafayette St,-73.996204,40.725297,3666.435715675354
12:57:00,1,D22,Grand St,-73.993753,40.718267,3804.4357156753535
12:09:00,1,D24,Atlantic Av-Barclays Ctr,-73.97689,40.68446,4363.51190328598
12:01:00,2,D25,7 Av,-73.972367,40.67705,4523.51190328598
12:01:00,2,D26,Prospect Park,-73.962246,40.661614,4741.511903285981
12:09:00,1,D27,Parkside Av,-73.961495,40.655292,4856.511903285981
12:01:00,2,D28,Church Av,-73.962982,40.650527,4942.4790070056915
12:09:00,1,D29,Beverley Rd,-73.964492,40.644031,5048.51190328598
12:09:00,1,D30,Cortelyou Rd,-73.963891,40.640927,5148.511903285981
12:01:00,2,D31,Newkirk Plaza,-73.962793,40.635082,5122.4790070056915
12:09:00,1,D32,Avenue H,-73.961639,40.62927,5240.799007892609
12:09:00,1,D33,Avenue J,-73.960803,40.625039,5360.799007892609
12:09:00,1,D34,Avenue M,-73.959399,40.617618,5480.799007892609
12:01:00,2,D35,Kings Hwy,-73.957734,40.60867,5367.4790070056915
12:01:00,2,D37,Avenue U,-73.955929,40.5993,5609.489319086075
12:01:00,2,D38,Neck Rd,-73.955161,40.595246,5730.489319086075
12:01:00,2,D39,Sheepshead Bay,-73.954155,40.586896,5616.4790070056915
12:01:00,2,D40,Brighton Beach,-73.961376,40.577621,5810.4790070056915
12:01:00,2,D41,Ocean Pkwy,-73.968501,40.576312,6019.4790070056915
12:01:00,2,D42,W 8 St-NY Aquarium,-73.975939,40.576127,6108.681033372878
12:01:00,2,D43,Coney Island-Stillwell Av,-73.981233,40.577422,6231.681033372878
12:33:00,1,E01,World Trade Center,-74.009781,40.712582,3929.25
12:01:00,2,F01,Jamaica-179 St,-73.783817,40.712646,4814.75
12:17:00,1,F02,169 St,-73.793604,40.71047,4724.75
12:01:00,2,F03,Parsons Blvd,-73.803326,40.707564,4604.75
12:01:00,2,F04,Sutphin Blvd,-73.810708,40.70546,4514.75
12:01:00,2,F05,Briarwood,-73.820574,40.709179,4394.75
12:01:00,2,F06,Kew Gardens-Union Tpke,-73.831008,40.714441,4274.75
12:01:00,2,F07,75 Av,-73.837324,40.718331,4184.75
12:01:00,2,F09,Court Sq-23 St,-73.946,40.747846,3360.8061802387233
12:17:00,1,F11,Lexington Av/53 St,-73.969055,40.757552,3167.697367668152
12:17:00,1,F12,5 Av/53 St,-73.975224,40.760167,3260.681033372879
12:33:00,1,F14,2 Av,-73.989938,40.723402,3784.435715675354
12:33:00,1,F15,Delancey St-Essex St,-73.988114,40.718611,3904.435715675354
12:33:00,1,F16,East Broadway,-73.990173,40.713715,4016.4357156753535
12:33:00,1,F18,York St,-73.986751,40.701397,4191.435715675354
13:05:00,1,F20,Bergen St,-73.990862,40.686145,4250.087282180785
13:05:00,1,F21,Carroll St,-73.995048,40.680303,4418.616217851639
13:05:00,1,F22,Smith-9 Sts,-73.995959,40.67358,4586.087282180786
13:05:00,1,F23,4 Av-9 St,-73.989779,40.670272,4698.616217851639
13:05:00,1,F24,7 Av,-73.980305,40.666271,4533.431033372878
13:05:00,1,F25,15 St-Prospect Park,-73.979493,40.660365,4701.596172332763
13:05:00,1,F26,Fort Hamilton Pkwy,-73.975776,40.650782,4881.596172332763
13:05:00,1,F27,Church Av,-73.979678,40.644041,4773.431033372878
13:05:00,1,F29,Ditmas Av,-73.978172,40.636119,4893.431033372878
13:05:00,1,F30,18 Av,-73.976971,40.629755,5013.431033372878
13:05:00,1,F31,Avenue I,-73.976127,40.625322,5073.431033372878
13:05:00,1,F32,Bay Pkwy,-73.975264,40.620769,5133.431033372878
13:05:00,1,F33,Avenue N,-73.974197,40.61514,5253.431033372878
13:05:00,1,F34,Avenue P,-73.973022,40.608944,5343.431033372878
13:05:00,1,F35,Kings Hwy,-73.972361,40.603217,5624.181033372878
13:29:00,1,F36,Avenue U,-73.973357,40.596063,5744.181033372878
13:29:00,1,F38,Avenue X,-73.97425,40.58962,5864.181033372878
12:09:00,1,F39,Neptune Av,-73.974574,40.581011,5988.681033372878
12:33:00,1,G05,Jamaica Center-Parsons/Archer,-73.801109,40.702147,4826.75
12:33:00,1,G06,Sutphin Blvd-Archer Av-JFK Airport,-73.807969,40.700486,4706.75
12:33:00,1,G07,Jamaica-Van Wyck,-73.816859,40.702566,4581.75
12:01:00,2,G08,Forest Hills-71 Av,-73.844521,40.721691,4064.75
13:45:00,1,G09,67 Av,-73.852719,40.726523,4202.75
13:45:00,1,G10,63 Dr-Rego Park,-73.861604,40.729846,4304.75
13:45:00,1,G11,Woodhaven Blvd,-73.869229,40.733106,4214.75
13:45:00,1,G12,Grand Av-Newtown,-73.877223,40.737015,4094.75
13:45:00,1,G13,Elmhurst Av,-73.882017,40.742454,4004.61111164093
12:01:00,2,G14,Jackson Hts-Roosevelt Av,-73.891338,40.746644,3644.75
12:01:00,1,G15,65 St,-73.898453,40.749669,3912.909089803695
12:01:00,1,G16,Northern Blvd,-73.906006,40.752885,3798.659089803695
12:01:00,1,G18,46 St,-73.913333,40.756312,3683.659089803695
12:01:00,1,G19,Steinway St,-73.92074,40.756879,3563.659089803695
12:01:00,1,G20,36 St,-73.928781,40.752039,3440.659089803695
12:01:00,2,G21,Queens Plaza,-73.937243,40.748973,3319.6590898036957
13:05:00,2,G22,Court Sq,-73.943832,40.746554,3300.8061802387233
13:05:00,2,G24,21 St,-73.949724,40.744065,3415.8061802387233
13:05:00,2,G26,Greenpoint Av,-73.954449,40.731352,3575.8061802387233
13:05:00,2,G28,Nassau Av,-73.951277,40.724635,3695.8061802387233
13:05:00,2,G29,Metropolitan Av,-73.951418,40.712792,3865.806180238723
13:05:00,2,G30,Broadway,-73.950308,40.706092,3975.806180238723
13:05:00,2,G31,Flushing Av,-73.950234,40.700377,4088.806180238723
13:05:00,2,G32,Myrtle-Willoughby Avs,-73.949046,40.694568,4196.806180238723
12:01:00,2,G33,Bedford-Nostrand Avs,-73.953522,40.689627,4316.806180238723
12:25:00,1,G34,Classon Av,-73.96007,40.688873,4421.806180238723
12:25:00,1,G35,Clinton-Washington Avs,-73.966839,40.688089,4524.806180238723
12:25:00,1,G36,Fulton St,-73.975375,40.687119,4459.212285757064
13:29:00,1,H01,Aqueduct Racetrack,-73.834058,40.668234,5807.029427051545
12:09:00,1,H02,Aqueduct-N Conduit Av,-73.834058,40.668234,5912.029427051545
12:09:00,1,H03,Howard Beach-JFK Airport,-73.830301,40.660476,6032.029427051545
12:09:00,1,H04,Broad Channel,-73.815925,40.608382,6515.029427051545
12:09:00,1,H06,Beach 67 St,-73.796924,40.590927,6875.029427051545
12:09:00,1,H07,Beach 60 St,-73.788522,40.592374,6995.029427051545
12:09:00,1,H08,Beach 44 St,-73.776013,40.592943,7115.029427051545
12:09:00,1,H09,Beach 36 St,-73.768175,40.595398,7235.029427051545
12:09:00,1,H10,Beach 25 St,-73.761353,40.600066,7353.029427051545
12:09:00,1,H11,Far Rockaway-Mott Av,-73.755405,40.603995,7428.700169801713
12:09:00,1,H12,Beach 90 St,-73.813641,40.588034,6812.029427051545
12:09:00,1,H13,Beach 98 St,-73.820558,40.585307,6927.029427051546
12:09:00,1,H14,Beach 105 St,-73.827559,40.583209,7035.029427051545
12:09:00,1,H15,Rockaway Park-Beach 116 St,-73.835592,40.580903,7155.029427051545
12:33:00,1,J12,121 St,-73.828294,40.700492,5111.5
12:33:00,1,J13,111 St,-73.836345,40.697418,5186.75
12:33:00,1,J14,104 St,-73.84433,40.695178,5306.5
12:33:00,1,J15,Woodhaven Blvd,-73.851576,40.693879,5396.75
12:33:00,1,J16,85 St-Forest Pkwy,-73.86001,40.692435,5628.029427051545
12:33:00,1,J17,75 St-Elderts Ln,-73.867139,40.691324,5337.029427051546
12:33:00,1,J19,Cypress Hills,-73.87255,40.689941,5448.029427051545
12:33:00,1,J20,Crescent St,-73.873785,40.683194,5187.029427051546
12:41:00,1,J21,Norwood Av,-73.880039,40.68141,5097.029427051546
12:41:00,1,J22,Cleveland St,-73.884639,40.679947,5151.90521502495
12:41:00,1,J23,Van Siclen Av,-73.891688,40.678024,4947.029427051546
12:25:00,2,J24,Alabama Av,-73.898654,40.676992,4887.029427051546
12:41:00,1,J27,Broadway Junction,-73.904512,40.679498,4783.711039781572
12:41:00,1,J28,Chauncey St,-73.910456,40.682893,4857.029427051546
12:41:00,1,J29,Halsey St,-73.916559,40.68637,4861.499999999999
12:41:00,1,J30,Gates Av,-73.92227,40.68963,4715.499999999999
12:41:00,1,J31,Kosciuszko St,-73.928814,40.693342,4669.499999999999
12:01:00,2,L01,8 Av,-74.002578,40.739777,3487.71103978157
12:01:00,2,L02,6 Av,-73.996786,40.737335,3352.71103978157
12:01:00,2,L03,14 St-Union Sq,-73.99073,40.734789,3254.71103978157
12:01:00,1,L05,3 Av,-73.986122,40.732849,3338.71103978157
12:01:00,1,L06,1 Av,-73.981628,40.730953,3381.71103978157
12:01:00,1,L08,Bedford Av,-73.956872,40.717304,3588.7110397815704
12:01:00,1,L10,Lorimer St,-73.950275,40.714063,3686.7110397815704
12:01:00,1,L11,Graham Av,-73.944053,40.714565,3728.7110397815704
12:01:00,1,L12,Grand St,-73.94067,40.711926,3818.7110397815704
12:01:00,1,L13,Montrose Av,-73.93985,40.707739,3873.7110397815704
12:01:00,1,L14,Morgan Av,-73.933147,40.706152,3950.7110397815704
12:01:00,1,L15,Jefferson St,-73.922913,40.706607,4041.7110397815704
12:01:00,1,L16,DeKalb Av,-73.918425,40.703811,4115.71103978157
12:01:00,1,L17,Myrtle-Wyckoff Avs,-73.911586,40.699814,4198.711039781571
12:01:00,1,L19,Halsey St,-73.904084,40.695602,4253.711039781571
12:01:00,1,L20,Wilson Av,-73.904046,40.688764,4385.711039781571
12:01:00,1,L21,Bushwick Av-Aberdeen St,-73.905249,40.682829,4487.711039781571
12:01:00,1,L22,Broadway Junction,-73.90324,40.678856,4558.711039781572
12:01:00,1,L24,Atlantic Av,-73.903097,40.675345,4668.711039781571
12:01:00,1,L25,Sutter Av,-73.901975,40.669367,4749.711039781571
12:01:00,1,L26,Livonia Av,-73.900571,40.664038,4820.711039781571
12:01:00,1,L27,New Lots Av,-73.899232,40.658733,4883.711039781571
12:01:00,1,L28,East 105 St,-73.899485,40.650573,5014.711039781571
13:21:00,1,L29,Canarsie-Rockaway Pkwy,-73.90185,40.646654,5157.711039781572
12:01:00,2,M01,Middle Village-Metropolitan Av,-73.889601,40.711396,4876.951424121858
12:01:00,2,M04,Fresh Pond Rd,-73.895877,40.706186,4758.711039781571
12:01:00,2,M05,Forest Av,-73.903077,40.704423,4642.701424121858
12:41:00,2,M06,Seneca Av,-73.90774,40.702762,4527.701424121858
12:57:00,1,M08,Myrtle-Wyckoff Avs,-73.912385,40.69943,4423.711039781571
12:01:00,2,M09,Knickerbocker Av,-73.919711,40.698664,4541.711039781571
12:57:00,1,M10,Central Av,-73.927397,40.697857,4664.71103978157
12:57:00,1,M11,Myrtle Av,-73.935657,40.697207,4535.499999999999
12:57:00,1,M12,Flushing Av,-73.941126,40.70026,4490.499999999999
12:57:00,1,M13,Lorimer St,-73.947408,40.703869,4370.499999999999
12:57:00,1,M14,Hewes St,-73.953431,40.70687,4258.5
12:57:00,1,M16,Marcy Av,-73.957757,40.708359,4182.5
12:57:00,1,M18,Delancey St-Essex St,-73.987437,40.718315,3783.5
12:01:00,1,M19,Bowery,-73.993915,40.72028,3680.4999999999995
12:01:00,1,M20,Canal St,-73.999892,40.718092,3555.4999999999995
12:01:00,2,M21,Chambers St,-74.003401,40.713243,3440.4999999999995
12:41:00,1,M22,Fulton St,-74.007582,40.710374,3548.4999999999995
12:41:00,1,M23,Broad St,-74.011056,40.706476,3614.4999999999995
12:33:00,1,N02,8 Av,-74.011719,40.635064,5265.002429962157
12:33:00,1,N03,Fort Hamilton Pkwy,-74.005351,40.631386,5435.002429962157
12:33:00,1,N04,New Utrecht Av,-73.996353,40.624842,5583.502429962156
12:33:00,1,N05,18 Av,-73.990414,40.620671,5698.502429962157
12:33:00,1,N06,20 Av,-73.985026,40.61741,5806.252429962157
12:33:00,1,N07,Bay Pkwy,-73.981848,40.611815,5923.502429962157
12:33:00,1,N08,Kings Hwy,-73.980353,40.603923,6043.502429962157
12:33:00,1,N09,Avenue U,-73.979137,40.597473,6160.502429962157
12:33:00,1,N10,86 St,-73.97823,40.592721,6246.502429962157
12:33:00,1,Q01,Canal St,-74.00046,40.718383,3594.4696269035335
12:01:00,2,Q03,72 St,-73.958424,40.768799,3099.7499999999995
12:01:00,2,Q04,86 St,-73.951787,40.777891,3224.75
12:01:00,2,Q05,96 St,-73.947152,40.784318,3337.75
13:53:00,1,R01,Astoria-Ditmars Blvd,-73.912034,40.775036,3925.7645618915562
13:53:00,1,R03,Astoria Blvd,-73.917843,40.770258,3830.556181907654
13:53:00,1,R04,30 Av,-73.921479,40.766779,3670.764561891556
13:53:00,1,R05,Broadway,-73.925508,40.76182,3550.764561891556
13:53:00,1,R06,36 Av,-73.929575,40.756804,3428.764561891556
13:53:00,1,R08,39 Av-Dutch Kills,-73.932755,40.752882,3319.8061785697937
13:53:00,1,R09,Queensboro Plaza,-73.940202,40.750582,3089.8061785697932
12:01:00,2,R11,Lexington Av/59 St,-73.967258,40.76266,2839.264561891556
12:01:00,2,R13,5 Av/59 St,-73.973347,40.764811,2954.2645618915553
12:01:00,2,R14,57 St-7 Av,-73.980658,40.764664,3087.264561891556
12:01:00,2,R15,49 St,-73.984139,40.759901,3212.264561891556
12:01:00,2,R16,Times Sq-42 St,-73.986754,40.754672,3203.9189147949214
12:33:00,1,R17,34 St-Herald Sq,-73.98795,40.749567,3322.918914794922
12:17:00,1,R18,28 St,-73.988691,40.745494,3423.9189147949214
12:01:00,1,R19,23 St,-73.989344,40.741303,3385.7499999999995
12:01:00,2,R20,14 St-Union Sq,-73.990568,40.735736,3265.7499999999995
12:01:00,2,R21,8 St-NYU,-73.992629,40.730328,3385.7499999999995
12:01:00,2,R22,Prince St,-73.997702,40.724329,3495.7499999999995
12:01:00,2,R23,Canal St,-74.001775,40.719527,3615.7499999999995
12:01:00,2,R24,City Hall,-74.006978,40.713282,3779.7499999999995
12:01:00,2,R25,Cortlandt St,-74.011029,40.710668,3904.749999999999
12:01:00,2,R26,Rector St,-74.013342,40.70722,4024.749999999999
12:01:00,2,R27,Whitehall St-South Ferry,-74.012994,40.703087,4137.749999999999
12:01:00,2,R28,Court St,-73.991777,40.6941,4125.514706373215
12:09:00,1,R29,Jay St-MetroTech,-73.985942,40.69218,4113.431033372878
12:09:00,1,R30,DeKalb Av,-73.981824,40.690635,4214.793483734131
12:33:00,1,R31,Atlantic Av-Barclays Ctr,-73.97881,40.683666,4304.002429962157
13:05:00,1,R32,Union St,-73.98311,40.677316,4435.469626903534
13:05:00,1,R33,4 Av-9 St,-73.988302,40.670847,4555.469626903534
13:05:00,1,R34,Prospect Av,-73.992872,40.665414,4675.469626903534
13:05:00,1,R35,25 St,-73.998091,40.660397,4800.469626903533
12:33:00,1,R36,36 St,-74.003549,40.655144,4724.002429962157
13:05:00,1,R39,45 St,-74.010006,40.648939,4914.002429962158
12:33:00,1,R40,53 St,-74.014034,40.645069,5032.752429962158
12:33:00,1,R41,59 St,-74.017881,40.641362,5084.002429962157
13:05:00,1,R42,Bay Ridge Av,-74.023377,40.634967,5249.542970180511
13:05:00,1,R43,77 St,-74.02551,40.629742,5352.542970180511
13:05:00,1,R44,86 St,-74.028398,40.622687,5532.542970180511
13:05:00,1,R45,Bay Ridge-95 St,-74.030876,40.616622,5603.5429701805115
12:33:00,1,S01,Franklin Av,-73.955827,40.680596,4562.431033372878
12:33:00,1,S03,Park Pl,-73.957624,40.674772,4683.431033372878
12:01:00,2,S04,Botanic Garden,-73.959245,40.670343,4674.25
