start_time,ntransfers,stop_id,stop_name,stop_lon,stop_lat,duration
12:02:00,2,101,Van Cortlandt Park-242 St,-73.898583,40.889248,3864.8086395263667
12:02:00,2,103,238 St,-73.90087,40.884667,3745.5586395263667
12:02:00,2,104,231 St,-73.904834,40.878856,3643.5586395263667
12:02:00,2,106,Marble Hill-225 St,-73.909831,40.874561,3543.5586395263667
12:02:00,2,107,215 St,-73.915279,40.869444,3439.102228879928
12:02:00,2,108,207 St,-73.918822,40.864621,3343.3086395263667
12:02:00,2,109,Dyckman St,-73.925536,40.860531,3236.308639526367
12:02:00,2,110,191 St,-73.929412,40.855225,3145.308639526367
12:02:00,2,111,181 St,-73.933596,40.849505,3043.3086395263667
12:38:00,0,112,168 St-Washington Hts,-73.940133,40.840556,2917.3086395263667
12:02:00,2,113,157 St,-73.94489,40.834041,3022.3086395263667
12:02:00,2,114,145 St,-73.95036,40.826551,3143.3086395263667
12:38:00,0,115,137 St-City College,-73.953676,40.822008,3245.3086395263667
12:38:00,0,116,125 St,-73.958372,40.815581,3210.4894881248474
12:38:00,0,117,116 St-Columbia University,-73.96411,40.807722,3086.489488124847
12:38:00,0,118,Cathedral Pkwy (110 St),-73.966847,40.803967,3009.489488124847
12:38:00,0,119,103 St,-73.968379,40.799446,2923.4894881248474
12:30:00,0,120,96 St,-73.972323,40.793919,2533.25989818573
12:38:00,0,121,86 St,-73.976218,40.788644,2685.30953836441
12:38:00,0,122,79 St,-73.979917,40.783934,2620.468090057373
12:02:00,2,123,72 St,-73.98197,40.778453,2418.2371706962585
12:02:00,2,124,66 St-Lincoln Center,-73.982209,40.77344,2481.9871706962585
12:02:00,2,125,59 St-Columbus Circle,-73.981929,40.768247,2393.9871706962585
12:02:00,2,126,50 St,-73.983849,40.761728,2278.9871706962585
12:42:00,2,127,Times Sq-42 St,-73.987495,40.75529,2162.9871706962585
12:02:00,2,128,34 St-Penn Station,-73.991057,40.750373,2271.987170696259
12:02:00,2,129,28 St,-73.993365,40.747215,2358.9871706962585
12:02:00,2,130,23 St,-73.995657,40.744081,2432.9871706962585
12:02:00,2,131,18 St,-73.997871,40.74104,2504.987170696259
12:02:00,2,132,14 St,-74.000201,40.737826,2437.987170696259
12:02:00,2,133,Christopher St-Sheridan Sq,-74.002906,40.733422,2684.987170696259
12:02:00,2,134,Houston St,-74.005367,40.728251,2774.987170696259
12:02:00,2,135,Canal St,-74.006277,40.722854,2869.987170696259
12:02:00,2,136,Franklin St,-74.006886,40.719318,2939.987170696259
12:02:00,2,137,Chambers St,-74.009266,40.715478,2694.9871706962585
12:02:00,2,138,WTC Cortlandt,-74.012188,40.711835,2989.241269350052
12:02:00,2,139,Rector St,-74.013783,40.707513,3071.241269350052
12:02:00,2,142,South Ferry,-74.013664,40.702068,3177.241269350052
12:30:00,0,201,Wakefield-241 St,-73.85062,40.903125,3750.2371706962585
12:30:00,0,204,Nereid Av,-73.854376,40.898379,3494.2371706962585
12:30:00,0,205,233 St,-73.857473,40.893193,3346.2371706962585
12:30:00,0,206,225 St,-73.860341,40.888022,3247.7371706962585
12:30:00,0,207,219 St,-73.862633,40.883895,3163.7371706962585
12:30:00,0,208,Gun Hill Rd,-73.866256,40.87785,3050.9871706962585
12:30:00,0,209,Burke Av,-73.867164,40.871356,3149.7371706962585
12:30:00,0,210,Allerton Av,-73.867352,40.865462,3060.237170696258
12:30:00,0,211,Pelham Pkwy,-73.867615,40.857192,2946.237170696258
12:30:00,0,212,Bronx Park East,-73.868457,40.848828,2817.2371706962585
12:30:00,0,213,E 180 St,-73.873488,40.841894,2408.9871706962585
12:30:00,0,214,West Farms Sq-E Tremont Av,-73.880049,40.840295,2463.2371706962585
12:30:00,0,215,174 St,-73.887734,40.837288,2332.2371706962585
12:30:00,0,216,Freeman St,-73.891865,40.829993,2207.2371706962585
12:30:00,0,217,Simpson St,-73.893064,40.824073,2091.2371706962585
12:30:00,0,218,Intervale Av,-73.896736,40.822181,2012.2371706962585
12:30:00,0,219,Prospect Av,-73.90177,40.819585,1924.2371706962583
12:30:00,0,220,Jackson Av,-73.907807,40.81649,1820.2371706962585
12:30:00,0,221,3 Av-149 St,-73.917757,40.816109,1673.9871706962583
12:30:00,0,222,149 St-Grand Concourse,-73.926718,40.81841,1525.9871706962583
12:30:00,0,224,135 St,-73.94077,40.814229,1969.25989818573
12:30:00,0,225,125 St,-73.945495,40.807754,2084.25989818573
12:30:00,0,226,116 St,-73.949625,40.802098,2191.25989818573
12:30:00,0,227,Central Park North (110 St),-73.951822,40.799075,2270.25989818573
12:02:00,2,228,Park Place,-74.008811,40.713051,2787.9871706962585
12:02:00,2,229,Fulton St,-74.006571,40.709416,2868.6682040691376
12:30:00,1,230,Wall St,-74.0091,40.706821,2947.668204069138
12:30:00,1,231,Clark St,-73.993086,40.697466,3142.668204069138
12:30:00,1,232,Borough Hall,-73.989998,40.693219,3262.6682040691376
13:42:00,1,233,Hoyt St,-73.985065,40.690545,3260.7161777019505
12:02:00,0,234,Nevins St,-73.980492,40.688246,3113.4871706962585
12:02:00,0,235,Atlantic Av-Barclays Ctr,-73.977666,40.684359,3216.487170696259
12:02:00,0,236,Bergen St,-73.975098,40.680829,3326.7161777019505
12:02:00,0,237,Grand Army Plaza,-73.971046,40.675235,3442.0754077434544
12:02:00,0,238,Eastern Pkwy-Brooklyn Museum,-73.964375,40.671987,3546.0754077434544
12:02:00,0,239,Franklin Av-Medgar Evers College,-73.958131,40.670682,3529.487170696259
12:02:00,0,241,President St-Medgar Evers College,-73.950683,40.667883,3721.487170696259
12:02:00,0,242,Sterling St,-73.95085,40.662742,3815.4871706962595
12:02:00,0,243,Winthrop St,-73.9502,40.656652,3908.4871706962595
12:02:00,0,244,Church Av,-73.949575,40.650843,4000.4871706962595
12:02:00,0,245,Beverly Rd,-73.948959,40.645098,4092.4871706962595
12:02:00,0,246,Newkirk Av-Little Haiti,-73.948411,40.639967,4184.487170696259
12:02:00,0,247,Flatbush Av-Brooklyn College,-73.947642,40.632836,4366.487170696259
12:02:00,0,248,Nostrand Av,-73.950466,40.669847,3649.487170696259
12:02:00,0,249,Kingston Av,-73.942161,40.669399,3748.487170696259
12:30:00,0,250,Crown Hts-Utica Av,-73.932942,40.668897,3830.987170696259
12:02:00,0,251,Sutter Av-Rutland Rd,-73.92261,40.664717,3974.737170696259
12:02:00,0,252,Saratoga Av,-73.916327,40.661453,4095.2371706962595
12:02:00,0,253,Rockaway Av,-73.908946,40.662549,4188.237170696259
12:02:00,0,254,Junius St,-73.902447,40.663515,4230.948210477829
12:02:00,0,255,Pennsylvania Av,-73.894895,40.664635,4334.94821047783
12:02:00,0,256,Van Siclen Av,-73.889395,40.665449,4413.948210477829
12:02:00,0,257,New Lots Av,-73.884079,40.666235,4528.448210477829
12:30:00,0,301,Harlem-148 St,-73.93647,40.82388,2450.5595383644104
12:30:00,0,302,145 St,-73.936245,40.820421,2318.540943145752
12:02:00,0,401,Woodlawn,-73.878751,40.886037,2833.987170696259
12:02:00,0,402,Mosholu Pkwy,-73.884655,40.87975,2698.987170696259
12:02:00,0,405,Bedford Park Blvd-Lehman College,-73.890064,40.873412,2569.987170696259
12:02:00,0,406,Kingsbridge Rd,-73.897174,40.86776,2454.987170696259
12:02:00,0,407,Fordham Rd,-73.901034,40.862803,2360.987170696259
12:02:00,0,408,183 St,-73.903879,40.858407,2271.987170696259
12:02:00,0,409,Burnside Av,-73.907684,40.853453,2165.987170696259
12:02:00,0,410,176 St,-73.911794,40.84848,2069.987170696259
12:02:00,0,411,Mt Eden Av,-73.914685,40.844434,1984.987170696259
12:02:00,0,412,170 St,-73.917791,40.840075,1897.9871706962588
12:02:00,0,413,167 St,-73.9214,40.835537,1801.9871706962588
12:02:00,0,414,161 St-Yankee Stadium,-73.925831,40.827994,1646.9871706962583
12:02:00,0,415,149 St-Grand Concourse,-73.927351,40.818375,1439.9871706962585
12:30:00,0,416,138 St-Grand Concourse,-73.929849,40.813224,1301.9871706962585
12:02:00,0,418,Fulton St,-74.009509,40.710368,2525.7371706962585
12:02:00,0,419,Wall St,-74.011862,40.707557,2611.4871706962585
12:02:00,0,420,Bowling Green,-74.014065,40.704817,2694.4871706962585
12:02:00,0,423,Borough Hall,-73.990151,40.692404,2966.4871706962585
13:50:00,0,501,Eastchester-Dyre Av,-73.830834,40.8883,3158.9871706962585
12:30:00,0,502,Baychester Av,-73.838591,40.878663,3008.9871706962585
12:30:00,0,503,Gun Hill Rd,-73.846384,40.869526,2858.9871706962585
12:30:00,0,504,Pelham Pkwy,-73.855359,40.858985,2708.9871706962585
12:30:00,0,505,Morris Park,-73.860495,40.854364,2618.9871706962585
12:06:00,0,601,Pelham Bay Park,-73.828121,40.852462,916.75
12:06:00,0,602,Buhre Av,-73.832569,40.84681,735.0
12:06:00,0,603,Middletown Rd,-73.836322,40.843863,660.0
12:06:00,0,604,Westchester Sq-E Tremont Av,-73.842952,40.839892,554.0
12:06:00,0,606,Zerega Av,-73.847036,40.836488,465.0
12:06:00,0,607,Castle Hill Av,-73.851222,40.834255,395.0
12:02:00,0,608,Parkchester,-73.860816,40.833226,269.0
12:02:00,0,609,St Lawrence Av,-73.867618,40.831509,161.0
12:02:00,0,610,Morrison Av-Soundview,-73.874516,40.829521,73.0
13:10:00,0,611,Elder Av,-73.879159,40.828584,0.0
12:02:00,0,612,Whitlock Av,-73.886283,40.826525,108.0
12:02:00,0,613,Hunts Point Av,-73.890549,40.820948,229.99999999999997
12:02:00,0,614,Longwood Av,-73.896435,40.816104,352.0
12:02:00,0,615,E 149 St,-73.904098,40.812118,456.0
12:02:00,0,616,E 143 St-St Mary's St,-73.907657,40.808719,539.0
12:02:00,0,617,Cypress Av,-73.914042,40.805368,645.0
12:02:00,0,618,Brook Av,-73.91924,40.807566,720.0
12:02:00,0,619,3 Av-138 St,-73.926138,40.810476,721.5
12:02:00,0,621,125 St,-73.937594,40.804138,931.8443121910095
12:02:00,0,622,116 St,-73.941617,40.798629,1036.8443121910095
12:02:00,0,623,110 St,-73.94425,40.79502,1121.8443121910095
12:02:00,0,624,103 St,-73.947478,40.7906,1207.8443121910095
12:02:00,0,625,96 St,-73.95107,40.785672,1302.8443121910095
12:02:00,0,626,86 St,-73.955589,40.779492,1403.8443121910095
12:02:00,0,627,77 St,-73.959874,40.77362,1512.8443121910095
12:02:00,0,628,68 St-Hunter College,-73.96387,40.768141,1609.8443121910095
12:02:00,0,629,59 St,-73.967967,40.762526,1685.9871706962585
12:02:00,0,630,51 St,-73.97192,40.757107,1818.8443121910095
12:02:00,0,631,Grand Central-42 St,-73.976848,40.751776,1862.9871706962585
12:02:00,0,632,33 St,-73.982076,40.746081,2079.0943121910095
12:02:00,0,633,28 St,-73.984264,40.74307,2150.0943121910095
12:02:00,0,634,23 St,-73.986599,40.739864,2225.0943121910095
12:02:00,0,635,14 St-Union Sq,-73.989951,40.734673,2120.9871706962585
12:02:00,0,636,Astor Pl,-73.99107,40.730054,2431.4443140029907
12:02:00,0,637,Bleecker St,-73.994659,40.725915,2534.4443140029907
12:02:00,0,638,Spring St,-73.997141,40.722301,2606.444314002991
12:02:00,0,639,Canal St,-74.000193,40.718803,2575.7371706962585
12:02:00,0,640,Brooklyn Bridge-City Hall,-74.004131,40.713065,2400.7371706962585
12:02:00,2,701,Flushing-Main St,-73.83003,40.7596,3461.0433526039124
12:02:00,2,702,Mets-Willets Point,-73.845625,40.754622,3281.8368979181564
12:02:00,2,705,111 St,-73.855334,40.75173,3302.6940407752995
12:02:00,2,706,103 St-Corona Plaza,-73.8627,40.749865,3226.6940407752995
12:02:00,2,707,Junction Blvd,-73.869527,40.749145,3034.694040775299
12:02:00,2,708,90 St-Elmhurst Av,-73.876613,40.748408,3118.3863489627834
12:58:00,2,709,82 St-Jackson Hts,-73.883697,40.747659,3042.3863489627834
12:10:00,2,710,74 St-Broadway,-73.891394,40.746848,2866.386348962784
13:14:00,2,711,69 St,-73.896403,40.746325,2774.386348962784
12:10:00,2,712,61 St-Woodside,-73.902984,40.74563,2693.386348962784
12:10:00,2,713,52 St,-73.912549,40.744149,2561.0433509349823
12:10:00,2,714,46 St-Bliss St,-73.918435,40.743132,2502.0433509349823
12:10:00,2,715,40 St-Lowery St,-73.924016,40.743781,2443.0433509349823
13:58:00,2,716,33 St-Rawson St,-73.930997,40.744587,2360.0433509349823
12:26:00,1,718,Queensboro Plaza,-73.940202,40.750582,2217.0433509349823
12:18:00,2,719,Court Sq,-73.945264,40.747023,2321.0433509349823
12:26:00,1,720,Hunters Point Av,-73.948916,40.742216,2259.9871706962585
12:26:00,1,721,Vernon Blvd-Jackson Av,-73.953581,40.742626,2211.987170696259
12:02:00,1,723,Grand Central-42 St,-73.976041,40.751431,1996.9871706962588
12:02:00,1,724,5 Av,-73.981963,40.753821,2072.9871706962585
12:02:00,1,725,Times Sq-42 St,-73.987691,40.755477,2152.9871706962585
12:02:00,1,726,34 St-Hudson Yards,-74.00191,40.755882,2304.987170696258
12:02:00,1,901,Grand Central-42 St,-73.979189,40.752769,1936.9871706962588
12:02:00,1,902,Times Sq-42 St,-73.986229,40.755983,2042.9871706962585
12:42:00,1,A02,Inwood-207 St,-73.919899,40.868072,3303.8195083141322
12:42:00,1,A03,Dyckman St,-73.927271,40.865491,3189.8195083141322
12:42:00,1,A05,190 St,-73.93418,40.859022,3056.8195083141322
12:42:00,1,A06,181 St,-73.937969,40.851695,2936.8195083141322
12:42:00,1,A07,175 St,-73.939704,40.847391,2821.8195083141322
12:02:00,2,A09,168 St,-73.939561,40.840719,2691.8195083141322
12:02:00,2,A10,163 St-Amsterdam Av,-73.939892,40.836013,2605.953014612198
12:02:00,2,A11,155 St,-73.941514,40.830518,2500.953014612198
12:02:00,1,A12,145 St,-73.944216,40.824783,2375.953014612198
12:02:00,1,A14,135 St,-73.947649,40.817894,2279.795118331909
12:02:00,1,A15,125 St,-73.952343,40.811109,2390.795118331909
12:02:00,1,A16,116 St,-73.954882,40.805085,2550.9530146121974
12:02:00,1,A17,Cathedral Pkwy (110 St),-73.958161,40.800603,2655.9530146121974
12:02:00,1,A18,103 St,-73.961454,40.796092,2762.208384513855
12:02:00,1,A19,96 St,-73.964696,40.791642,2867.9871706962585
12:26:00,1,A20,86 St,-73.968916,40.785868,2752.987170696259
12:26:00,1,A21,81 St-Museum of Natural History,-73.972143,40.781433,2643.9871706962585
12:26:00,1,A22,72 St,-73.97641,40.775594,2527.987170696259
12:26:00,1,A24,59 St-Columbus Circle,-73.981736,40.768296,2342.9871706962585
12:42:00,1,A25,50 St,-73.985984,40.762456,2281.9871706962585
13:18:00,1,A27,42 St-Port Authority Bus Terminal,-73.989735,40.757308,2162.9871706962585
12:02:00,2,A28,34 St-Penn Station,-73.993391,40.752287,2281.9871706962585
12:02:00,2,A30,23 St,-73.998041,40.745906,2394.9871706962585
12:02:00,2,A31,14 St,-74.00169,40.740893,2454.9871706962585
12:02:00,2,A32,W 4 St-Wash Sq,-74.000495,40.732338,2584.9871706962585
12:02:00,2,A33,Spring St,-74.003739,40.726227,2749.9871706962585
13:06:00,1,A34,Canal St,-74.005229,40.720824,2774.9871706962585
13:06:00,1,A36,Chambers St,-74.008585,40.714111,2865.668204069138
12:10:00,1,A38,Fulton St,-74.007691,40.710197,2748.6682040691376
12:54:00,1,A40,High St,-73.990531,40.699337,2933.668204069138
12:54:00,1,A41,Jay St-MetroTech,-73.987342,40.692338,3058.668204069138
12:54:00,1,A42,Hoyt-Schermerhorn Sts,-73.985001,40.688484,3178.668204069138
13:34:00,1,A43,Lafayette Av,-73.973946,40.686113,3358.668204069138
13:34:00,1,A44,Clinton-Washington Avs,-73.965838,40.683263,3460.6682040691376
13:34:00,1,A45,Franklin Av,-73.956848,40.68138,3582.668204069138
12:54:00,1,A46,Nostrand Av,-73.950426,40.680438,3510.668204069138
13:34:00,1,A47,Kingston-Throop Avs,-73.940858,40.679921,3630.668204069138
12:54:00,1,A48,Utica Av,-73.930729,40.679364,3692.6682040691376
13:34:00,1,A49,Ralph Av,-73.920786,40.678822,3812.6682040691376
13:14:00,1,A50,Rockaway Av,-73.911946,40.67834,3927.668204069138
12:54:00,1,A51,Broadway Junction,-73.905316,40.678334,3877.2665977478027
13:06:00,1,A52,Liberty Av,-73.896548,40.674542,4034.2665977478023
13:06:00,1,A53,Van Siclen Av,-73.890358,40.67271,4149.266597747803
13:06:00,1,A54,Shepherd Av,-73.88075,40.67413,4267.266597747803
12:54:00,1,A55,Euclid Av,-73.872106,40.675377,4192.266597747803
12:54:00,1,A57,Grant Av,-73.86505,40.677044,4317.266597747803
12:54:00,1,A59,80 St,-73.858992,40.679371,4432.266597747803
12:54:00,1,A60,88 St,-73.85147,40.679843,4550.266597747803
12:54:00,1,A61,Rockaway Blvd,-73.843853,40.680429,4662.266597747803
13:30:00,1,A63,104 St,-73.837683,40.681711,4772.266597747802
13:58:00,1,A64,111 St,-73.832163,40.684331,4880.266597747802
13:58:00,1,A65,Ozone Park-Lefferts Blvd,-73.825798,40.685951,5000.266597747802
12:42:00,1,B04,21 St-Queensbridge,-73.942836,40.754203,2276.5943121910095
12:42:00,1,B06,Roosevelt Island,-73.95326,40.759145,2189.579760551453
12:18:00,1,B08,Lexington Av/63 St,-73.966113,40.764629,2049.9871706962585
12:46:00,1,B10,57 St,-73.97745,40.763972,2209.8443121910095
12:18:00,1,B12,9 Av,-73.994324,40.646292,4203.57922410965
12:18:00,1,B13,Fort Hamilton Pkwy,-73.994304,40.640914,4323.57922410965
12:18:00,1,B14,50 St,-73.994791,40.63626,4423.82922410965
12:18:00,1,B15,55 St,-73.995476,40.631435,4543.82922410965
12:18:00,1,B16,62 St,-73.996895,40.626472,4613.82922410965
12:18:00,1,B17,71 St,-73.998864,40.619589,4733.82922410965
12:18:00,1,B18,79 St,-74.00061,40.613501,4853.82922410965
12:18:00,1,B19,18 Av,-74.001736,40.607954,4958.82922410965
12:18:00,1,B20,20 Av,-73.998168,40.604556,5063.82922410965
12:18:00,1,B21,Bay Pkwy,-73.993728,40.601875,5155.82922410965
13:18:00,1,B22,25 Av,-73.986829,40.597704,5280.82922410965
13:18:00,1,B23,Bay 50 St,-73.983765,40.588841,5530.82922410965
12:10:00,1,D01,Norwood-205 St,-73.878855,40.874811,3017.2951183319087
12:10:00,1,D03,Bedford Park Blvd,-73.887138,40.873244,2792.7951183319087
12:10:00,1,D04,Kingsbridge Rd,-73.893509,40.866978,2672.7951183319087
12:10:00,1,D05,Fordham Rd,-73.897749,40.861296,2556.795118331909
12:10:00,1,D06,182-183 Sts,-73.900741,40.856093,2478.795118331909
12:10:00,1,D07,Tremont Av,-73.905227,40.85041,2376.795118331909
12:10:00,1,D08,174-175 Sts,-73.910136,40.8459,2263.795118331909
12:10:00,1,D09,170 St,-73.9134,40.839306,2143.795118331909
12:10:00,1,D10,167 St,-73.91844,40.833771,2023.795118331909
13:38:00,1,D11,161 St-Yankee Stadium,-73.925651,40.827905,1900.795118331909
12:02:00,1,D12,155 St,-73.938209,40.830135,2025.795118331909
12:02:00,1,D13,145 St,-73.944216,40.824783,2150.795118331909
12:42:00,1,D14,7 Av,-73.981637,40.762862,2279.7916798591614
12:46:00,1,D15,47-50 Sts-Rockefeller Ctr,-73.981329,40.758663,2299.8443121910095
12:46:00,1,D16,42 St-Bryant Pk,-73.984569,40.754222,2297.9871706962585
12:46:00,1,D17,34 St-Herald Sq,-73.987823,40.749719,2387.9871706962585
12:46:00,1,D18,23 St,-73.992821,40.742878,2507.9871706962585
12:46:00,1,D19,14 St,-73.996209,40.738228,2607.9871706962585
13:30:00,1,D20,W 4 St-Wash Sq,-74.000495,40.732338,2584.9871706962585
13:30:00,1,D21,Broadway-Lafayette St,-73.996204,40.725297,2746.6728863716125
13:26:00,1,D22,Grand St,-73.993753,40.718267,2884.6728863716125
12:34:00,1,D24,Atlantic Av-Barclays Ctr,-73.97689,40.68446,3443.749073982239
12:34:00,1,D25,7 Av,-73.972367,40.67705,3603.7490739822388
12:34:00,1,D26,Prospect Park,-73.962246,40.661614,3821.7490739822388
12:34:00,1,D27,Parkside Av,-73.961495,40.655292,3936.749073982239
12:34:00,1,D28,Church Av,-73.962982,40.650527,4022.7161777019496
12:34:00,1,D29,Beverley Rd,-73.964492,40.644031,4128.749073982239
12:34:00,1,D30,Cortelyou Rd,-73.963891,40.640927,4228.749073982239
12:34:00,1,D31,Newkirk Plaza,-73.962793,40.635082,4202.71617770195
12:34:00,1,D32,Avenue H,-73.961639,40.62927,4321.036178588867
12:34:00,1,D33,Avenue J,-73.960803,40.625039,4441.036178588867
12:34:00,1,D34,Avenue M,-73.959399,40.617618,4561.036178588867
12:34:00,1,D35,Kings Hwy,-73.957734,40.60867,4447.716177701949
12:34:00,1,D37,Avenue U,-73.955929,40.5993,4689.7264897823325
12:34:00,1,D38,Neck Rd,-73.955161,40.595246,4810.7264897823325
12:34:00,1,D39,Sheepshead Bay,-73.954155,40.586896,4696.71617770195
12:34:00,1,D40,Brighton Beach,-73.961376,40.577621,4890.71617770195
12:34:00,1,D41,Ocean Pkwy,-73.968501,40.576312,5099.716177701951
12:34:00,1,D42,W 8 St-NY Aquarium,-73.975939,40.576127,5188.918204069138
12:34:00,1,D43,Coney Island-Stillwell Av,-73.981233,40.577422,5311.918204069138
12:38:00,1,E01,World Trade Center,-74.009781,40.712582,2942.9871706962585
12:42:00,1,F01,Jamaica-179 St,-73.783817,40.712646,3889.84431219101
12:42:00,1,F02,169 St,-73.793604,40.71047,3799.8443121910095
12:42:00,1,F03,Parsons Blvd,-73.803326,40.707564,3679.8443121910095
12:42:00,1,F04,Sutphin Blvd,-73.810708,40.70546,3589.8443121910095
12:42:00,1,F05,Briarwood,-73.820574,40.709179,3469.8443121910095
12:58:00,1,F06,Kew Gardens-Union Tpke,-73.831008,40.714441,3349.8443121910095
12:42:00,1,F07,75 Av,-73.837324,40.718331,3259.8443121910095
12:46:00,1,F09,Court Sq-23 St,-73.946,40.747846,2249.7534031001005
12:42:00,1,F11,Lexington Av/53 St,-73.969055,40.757552,2047.7916798591614
12:42:00,1,F12,5 Av/53 St,-73.975224,40.760167,2156.7231000697975
12:34:00,1,F14,2 Av,-73.989938,40.723402,2863.284789800643
12:34:00,1,F15,Delancey St-Essex St,-73.988114,40.718611,2983.284789800643
12:34:00,1,F16,East Broadway,-73.990173,40.713715,3073.284789800643
13:14:00,1,F18,York St,-73.986751,40.701397,3253.284789800643
12:54:00,1,F20,Bergen St,-73.990862,40.686145,3330.324452877045
12:54:00,1,F21,Carroll St,-73.995048,40.680303,3498.853388547898
12:54:00,1,F22,Smith-9 Sts,-73.995959,40.67358,3666.324452877045
12:54:00,1,F23,4 Av-9 St,-73.989779,40.670272,3778.8533885478973
12:54:00,1,F24,7 Av,-73.980305,40.666271,3613.668204069138
12:54:00,1,F25,15 St-Prospect Park,-73.979493,40.660365,3781.8333430290227
12:54:00,1,F26,Fort Hamilton Pkwy,-73.975776,40.650782,3961.8333430290227
12:54:00,1,F27,Church Av,-73.979678,40.644041,3853.668204069138
13:30:00,1,F29,Ditmas Av,-73.978172,40.636119,3973.668204069138
13:30:00,1,F30,18 Av,-73.976971,40.629755,4093.668204069138
13:30:00,1,F31,Avenue I,-73.976127,40.625322,4153.668204069138
13:30:00,1,F32,Bay Pkwy,-73.975264,40.620769,4213.668204069138
13:30:00,1,F33,Avenue N,-73.974197,40.61514,4333.668204069138
13:30:00,1,F34,Avenue P,-73.973022,40.608944,4423.668204069138
13:30:00,1,F35,Kings Hwy,-73.972361,40.603217,4704.418204069138
13:54:00,1,F36,Avenue U,-73.973357,40.596063,4824.418204069138
13:54:00,1,F38,Avenue X,-73.97425,40.58962,4944.418204069138
12:34:00,1,F39,Neptune Av,-73.974574,40.581011,5068.918204069138
13:58:00,1,G05,Jamaica Center-Parsons/Archer,-73.801109,40.702147,3901.8443121910095
12:58:00,1,G06,Sutphin Blvd-Archer Av-JFK Airport,-73.807969,40.700486,3781.8443121910095
12:58:00,1,G07,Jamaica-Van Wyck,-73.816859,40.702566,3656.8443121910095
12:58:00,1,G08,Forest Hills-71 Av,-73.844521,40.721691,3139.8443121910095
12:58:00,1,G09,67 Av,-73.852719,40.726523,3277.8443121910095
12:58:00,1,G10,63 Dr-Rego Park,-73.861604,40.729846,3379.8443121910095
12:58:00,1,G11,Woodhaven Blvd,-73.869229,40.733106,3289.8443121910095
12:58:00,1,G12,Grand Av-Newtown,-73.877223,40.737015,3169.8443121910095
12:58:00,1,G13,Elmhurst Av,-73.882017,40.742454,3079.7054238319397
12:58:00,1,G14,Jackson Hts-Roosevelt Av,-73.891338,40.746644,2719.8443121910095
12:50:00,1,G15,65 St,-73.898453,40.749669,2906.4534031001003
13:26:00,1,G16,Northern Blvd,-73.906006,40.752885,2804.1534031001006
13:26:00,1,G18,46 St,-73.913333,40.756312,2714.1534031001006
13:26:00,1,G19,Steinway St,-73.92074,40.756879,2594.1534031001006
13:26:00,1,G20,36 St,-73.928781,40.752039,2474.1534031001006
12:26:00,1,G21,Queens Plaza,-73.937243,40.748973,2354.1534031001006
12:30:00,2,G22,Court Sq,-73.943832,40.746554,2337.7916798591614
12:30:00,2,G24,21 St,-73.949724,40.744065,2452.7916798591614
12:30:00,2,G26,Greenpoint Av,-73.954449,40.731352,2612.7916798591614
12:30:00,2,G28,Nassau Av,-73.951277,40.724635,2732.7916798591614
12:30:00,2,G29,Metropolitan Av,-73.951418,40.712792,2902.7916798591614
12:30:00,2,G30,Broadway,-73.950308,40.706092,3012.7916798591614
12:02:00,2,G31,Flushing Av,-73.950234,40.700377,3125.7916798591614
13:34:00,1,G32,Myrtle-Willoughby Avs,-73.949046,40.694568,3233.7916798591614
13:34:00,1,G33,Bedford-Nostrand Avs,-73.953522,40.689627,3353.7916798591614
13:34:00,1,G34,Classon Av,-73.96007,40.688873,3458.7916798591614
13:34:00,1,G35,Clinton-Washington Avs,-73.966839,40.688089,3561.7916798591614
13:34:00,1,G36,Fulton St,-73.975375,40.687119,3539.449456453324
12:10:00,1,H01,Aqueduct Racetrack,-73.834058,40.668234,4887.266597747803
12:54:00,1,H02,Aqueduct-N Conduit Av,-73.834058,40.668234,4992.266597747803
12:54:00,1,H03,Howard Beach-JFK Airport,-73.830301,40.660476,5112.266597747803
12:54:00,1,H04,Broad Channel,-73.815925,40.608382,5595.266597747803
12:54:00,1,H06,Beach 67 St,-73.796924,40.590927,5955.266597747803
12:54:00,1,H07,Beach 60 St,-73.788522,40.592374,6075.266597747803
12:54:00,1,H08,Beach 44 St,-73.776013,40.592943,6195.266597747803
12:54:00,1,H09,Beach 36 St,-73.768175,40.595398,6315.266597747803
12:54:00,1,H10,Beach 25 St,-73.761353,40.600066,6433.266597747803
12:54:00,1,H11,Far Rockaway-Mott Av,-73.755405,40.603995,6508.937340497971
12:34:00,1,H12,Beach 90 St,-73.813641,40.588034,5892.266597747803
12:34:00,1,H13,Beach 98 St,-73.820558,40.585307,6007.266597747803
12:34:00,1,H14,Beach 105 St,-73.827559,40.583209,6115.266597747803
12:34:00,1,H15,Rockaway Park-Beach 116 St,-73.835592,40.580903,6235.266597747803
12:58:00,1,J12,121 St,-73.828294,40.700492,4186.5943121910095
12:58:00,1,J13,111 St,-73.836345,40.697418,4261.8443121910095
12:58:00,1,J14,104 St,-73.84433,40.695178,4381.5943121910095
12:58:00,1,J15,Woodhaven Blvd,-73.851576,40.693879,4471.8443121910095
12:58:00,1,J16,85 St-Forest Pkwy,-73.86001,40.692435,4708.266597747803
12:58:00,1,J17,75 St-Elderts Ln,-73.867139,40.691324,4417.266597747803
12:58:00,1,J19,Cypress Hills,-73.87255,40.689941,4528.266597747803
12:50:00,2,J20,Crescent St,-73.873785,40.683194,4267.266597747803
12:50:00,2,J21,Norwood Av,-73.880039,40.68141,4177.266597747803
12:50:00,2,J22,Cleveland St,-73.884639,40.679947,4232.142385721207
12:50:00,2,J23,Van Siclen Av,-73.891688,40.678024,4027.2665977478027
12:50:00,2,J24,Alabama Av,-73.898654,40.676992,3967.2665977478027
12:46:00,1,J27,Broadway Junction,-73.904512,40.679498,3863.948210477829
13:30:00,2,J28,Chauncey St,-73.910456,40.682893,3937.2665977478027
12:46:00,1,J29,Halsey St,-73.916559,40.68637,3941.7371706962585
12:46:00,1,J30,Gates Av,-73.92227,40.68963,3795.7371706962585
12:46:00,1,J31,Kosciuszko St,-73.928814,40.693342,3749.7371706962585
12:18:00,1,L01,8 Av,-74.002578,40.739777,2514.9871706962585
12:18:00,1,L02,6 Av,-73.996786,40.737335,2432.948210477829
12:18:00,1,L03,14 St-Union Sq,-73.99073,40.734789,2334.948210477829
12:26:00,1,L05,3 Av,-73.986122,40.732849,2418.948210477829
12:26:00,1,L06,1 Av,-73.981628,40.730953,2461.948210477829
12:26:00,1,L08,Bedford Av,-73.956872,40.717304,2668.948210477829
12:26:00,1,L10,Lorimer St,-73.950275,40.714063,2766.948210477829
12:26:00,1,L11,Graham Av,-73.944053,40.714565,2808.9482104778294
12:26:00,1,L12,Grand St,-73.94067,40.711926,2898.9482104778294
12:26:00,1,L13,Montrose Av,-73.93985,40.707739,2953.948210477829
12:26:00,1,L14,Morgan Av,-73.933147,40.706152,3030.948210477829
12:26:00,1,L15,Jefferson St,-73.922913,40.706607,3121.948210477829
12:26:00,1,L16,DeKalb Av,-73.918425,40.703811,3195.948210477829
12:26:00,1,L17,Myrtle-Wyckoff Avs,-73.911586,40.699814,3278.948210477829
12:26:00,1,L19,Halsey St,-73.904084,40.695602,3333.948210477829
12:26:00,1,L20,Wilson Av,-73.904046,40.688764,3465.948210477829
12:26:00,1,L21,Bushwick Av-Aberdeen St,-73.905249,40.682829,3567.948210477829
12:26:00,1,L22,Broadway Junction,-73.90324,40.678856,3638.948210477829
12:26:00,1,L24,Atlantic Av,-73.903097,40.675345,3748.948210477829
12:26:00,1,L25,Sutter Av,-73.901975,40.669367,3829.948210477829
12:26:00,1,L26,Livonia Av,-73.900571,40.664038,3900.9482104778294
12:26:00,1,L27,New Lots Av,-73.899232,40.658733,3963.9482104778294
12:26:00,1,L28,East 105 St,-73.899485,40.650573,4094.9482104778294
13:46:00,1,L29,Canarsie-Rockaway Pkwy,-73.90185,40.646654,4237.94821047783
12:10:00,2,M01,Middle Village-Metropolitan Av,-73.889601,40.711396,3957.188594818115
12:10:00,2,M04,Fresh Pond Rd,-73.895877,40.706186,3838.9482104778285
12:10:00,2,M05,Forest Av,-73.903077,40.704423,3722.9385948181152
12:10:00,2,M06,Seneca Av,-73.90774,40.702762,3607.9385948181152
12:50:00,1,M08,Myrtle-Wyckoff Avs,-73.912385,40.69943,3503.948210477829
12:26:00,2,M09,Knickerbocker Av,-73.919711,40.698664,3621.948210477829
12:50:00,1,M10,Central Av,-73.927397,40.697857,3744.948210477829
12:10:00,1,M11,Myrtle Av,-73.935657,40.697207,3615.7371706962585
12:10:00,1,M12,Flushing Av,-73.941126,40.70026,3570.7371706962585
12:10:00,1,M13,Lorimer St,-73.947408,40.703869,3450.7371706962585
12:10:00,1,M14,Hewes St,-73.953431,40.70687,3338.7371706962585
12:10:00,1,M16,Marcy Av,-73.957757,40.708359,3262.7371706962585
12:10:00,1,M18,Delancey St-Essex St,-73.987437,40.718315,2863.7371706962585
12:26:00,1,M19,Bowery,-73.993915,40.72028,2760.7371706962585
12:26:00,1,M20,Canal St,-73.999892,40.718092,2635.7371706962585
12:02:00,1,M21,Chambers St,-74.003401,40.713243,2520.7371706962585
12:46:00,1,M22,Fulton St,-74.007582,40.710374,2628.7371706962585
12:46:00,1,M23,Broad St,-74.011056,40.706476,2694.7371706962585
12:18:00,1,N02,8 Av,-74.011719,40.635064,4345.239600658417
12:18:00,1,N03,Fort Hamilton Pkwy,-74.005351,40.631386,4515.239600658416
12:18:00,1,N04,New Utrecht Av,-73.996353,40.624842,4663.739600658416
12:18:00,1,N05,18 Av,-73.990414,40.620671,4778.739600658416
12:18:00,1,N06,20 Av,-73.985026,40.61741,4886.489600658416
12:18:00,1,N07,Bay Pkwy,-73.981848,40.611815,5003.739600658416
12:18:00,1,N08,Kings Hwy,-73.980353,40.603923,5123.739600658416
12:18:00,1,N09,Avenue U,-73.979137,40.597473,5240.739600658416
12:18:00,1,N10,86 St,-73.97823,40.592721,5326.739600658417
12:18:00,1,Q01,Canal St,-74.00046,40.718383,2674.7067975997925
12:02:00,1,Q03,72 St,-73.958424,40.768799,2179.9871706962585
12:02:00,1,Q04,86 St,-73.951787,40.777891,2304.9871706962585
12:18:00,1,Q05,96 St,-73.947152,40.784318,2417.9871706962585
12:18:00,1,R01,Astoria-Ditmars Blvd,-73.912034,40.775036,2997.844312191009
12:18:00,1,R03,Astoria Blvd,-73.917843,40.770258,2894.5943121910095
12:18:00,1,R04,30 Av,-73.921479,40.766779,2751.0017325878143
12:18:00,1,R05,Broadway,-73.925508,40.76182,2631.0017325878143
12:18:00,1,R06,36 Av,-73.929575,40.756804,2509.001732587815
12:18:00,1,R08,39 Av-Dutch Kills,-73.932755,40.752882,2400.0433492660522
12:18:00,1,R09,Queensboro Plaza,-73.940202,40.750582,2170.0433492660522
12:26:00,1,R11,Lexington Av/59 St,-73.967258,40.76266,1919.5017325878146
12:18:00,1,R13,5 Av/59 St,-73.973347,40.764811,2034.5017325878143
12:18:00,1,R14,57 St-7 Av,-73.980658,40.764664,2167.5017325878143
12:18:00,1,R15,49 St,-73.984139,40.759901,2277.9871706962585
12:18:00,1,R16,Times Sq-42 St,-73.986754,40.754672,2162.9871706962585
12:18:00,1,R17,34 St-Herald Sq,-73.98795,40.749567,2281.9871706962585
12:26:00,1,R18,28 St,-73.988691,40.745494,2382.9871706962585
12:26:00,1,R19,23 St,-73.989344,40.741303,2465.9871706962585
12:02:00,1,R20,14 St-Union Sq,-73.990568,40.735736,2345.9871706962585
12:02:00,1,R21,8 St-NYU,-73.992629,40.730328,2465.9871706962585
12:02:00,1,R22,Prince St,-73.997702,40.724329,2575.9871706962585
12:02:00,1,R23,Canal St,-74.001775,40.719527,2695.9871706962585
12:02:00,1,R24,City Hall,-74.006978,40.713282,2859.987170696258
12:02:00,1,R25,Cortlandt St,-74.011029,40.710668,2984.9871706962585
12:02:00,1,R26,Rector St,-74.013342,40.70722,3104.9871706962585
12:02:00,1,R27,Whitehall St-South Ferry,-74.012994,40.703087,3217.9871706962585
12:02:00,1,R28,Court St,-73.991777,40.6941,3205.7518770694733
12:02:00,1,R29,Jay St-MetroTech,-73.985942,40.69218,3193.668204069138
12:34:00,1,R30,DeKalb Av,-73.981824,40.690635,3295.0306544303894
12:18:00,1,R31,Atlantic Av-Barclays Ctr,-73.97881,40.683666,3384.2396006584167
12:30:00,1,R32,Union St,-73.98311,40.677316,3515.7067975997925
12:30:00,1,R33,4 Av-9 St,-73.988302,40.670847,3635.7067975997925
12:30:00,1,R34,Prospect Av,-73.992872,40.665414,3755.7067975997925
12:30:00,1,R35,25 St,-73.998091,40.660397,3880.706797599792
12:18:00,1,R36,36 St,-74.003549,40.655144,3804.2396006584167
12:30:00,1,R39,45 St,-74.010006,40.648939,3994.2396006584167
13:58:00,1,R40,53 St,-74.014034,40.645069,4112.989600658417
12:18:00,1,R41,59 St,-74.017881,40.641362,4164.239600658417
12:30:00,1,R42,Bay Ridge Av,-74.023377,40.634967,4329.78014087677
12:30:00,1,R43,77 St,-74.02551,40.629742,4432.78014087677
12:30:00,1,R44,86 St,-74.028398,40.622687,4612.78014087677
12:30:00,1,R45,Bay Ridge-95 St,-74.030876,40.616622,4683.78014087677
12:18:00,1,S01,Franklin Av,-73.955827,40.680596,3642.668204069138
12:18:00,1,S03,Park Pl,-73.957624,40.674772,3763.668204069138
12:34:00,1,S04,Botanic Garden,-73.959245,40.670343,3754.487170696259
