start_time,ntransfers,stop_id,stop_name,stop_lon,stop_lat,duration
12:07:00,2,101,Van Cortlandt Park-242 St,-73.898583,40.889248,3638.7738533020015
12:07:00,2,103,238 St,-73.90087,40.884667,3519.523853302002
12:07:00,2,104,231 St,-73.904834,40.878856,3417.5238533020015
12:07:00,2,106,Marble Hill-225 St,-73.909831,40.874561,3317.523853302002
12:07:00,2,107,215 St,-73.915279,40.869444,3213.0674426555634
12:07:00,2,108,207 St,-73.918822,40.864621,3117.273853302002
12:07:00,2,109,Dyckman St,-73.925536,40.860531,3010.273853302002
12:07:00,2,110,191 St,-73.929412,40.855225,2919.273853302002
12:07:00,2,111,181 St,-73.933596,40.849505,2817.273853302002
12:43:00,0,112,168 St-Washington Hts,-73.940133,40.840556,2691.273853302002
12:07:00,2,113,157 St,-73.94489,40.834041,2796.273853302002
12:07:00,2,114,145 St,-73.95036,40.826551,2917.273853302002
12:43:00,0,115,137 St-City College,-73.953676,40.822008,3019.273853302002
12:43:00,0,116,125 St,-73.958372,40.815581,2984.454701900482
12:43:00,0,117,116 St-Columbia University,-73.96411,40.807722,2860.454701900482
12:43:00,0,118,Cathedral Pkwy (110 St),-73.966847,40.803967,2783.454701900482
12:43:00,0,119,103 St,-73.968379,40.799446,2697.454701900482
12:35:00,0,120,96 St,-73.972323,40.793919,2307.2251119613647
12:43:00,0,121,86 St,-73.976218,40.788644,2459.274752140045
12:43:00,0,122,79 St,-73.979917,40.783934,2392.5920281410217
12:07:00,2,123,72 St,-73.98197,40.778453,2190.3611087799068
12:07:00,2,124,66 St-Lincoln Center,-73.982209,40.77344,2254.1111087799068
12:07:00,2,125,59 St-Columbus Circle,-73.981929,40.768247,2166.1111087799068
12:07:00,2,126,50 St,-73.983849,40.761728,2051.1111087799068
12:47:00,2,127,Times Sq-42 St,-73.987495,40.75529,1935.1111087799072
12:07:00,2,128,34 St-Penn Station,-73.991057,40.750373,2044.1111087799075
12:07:00,2,129,28 St,-73.993365,40.747215,2131.111108779907
12:07:00,2,130,23 St,-73.995657,40.744081,2205.111108779907
12:07:00,2,131,18 St,-73.997871,40.74104,2277.111108779907
12:07:00,2,132,14 St,-74.000201,40.737826,2210.111108779907
12:07:00,2,133,Christopher St-Sheridan Sq,-74.002906,40.733422,2457.111108779907
12:07:00,2,134,Houston St,-74.005367,40.728251,2547.111108779907
12:07:00,2,135,Canal St,-74.006277,40.722854,2642.1111087799077
12:07:00,2,136,Franklin St,-74.006886,40.719318,2712.111108779907
12:07:00,2,137,Chambers St,-74.009266,40.715478,2467.111108779907
12:01:30,2,138,WTC Cortlandt,-74.012188,40.711835,2761.3652074337006
12:01:30,2,139,Rector St,-74.013783,40.707513,2843.3652074337006
12:01:30,2,142,South Ferry,-74.013664,40.702068,2949.3652074337006
12:35:00,0,201,Wakefield-241 St,-73.85062,40.903125,3524.2023844718933
12:35:00,0,204,Nereid Av,-73.854376,40.898379,3268.2023844718933
12:35:00,0,205,233 St,-73.857473,40.893193,3120.2023844718933
12:35:00,0,206,225 St,-73.860341,40.888022,3021.7023844718933
12:35:00,0,207,219 St,-73.862633,40.883895,2937.7023844718933
12:35:00,0,208,Gun Hill Rd,-73.866256,40.87785,2824.9523844718933
12:35:00,0,209,Burke Av,-73.867164,40.871356,2923.7023844718933
12:35:00,0,210,Allerton Av,-73.867352,40.865462,2832.361108779907
12:35:00,0,211,Pelham Pkwy,-73.867615,40.857192,2718.361108779907
12:35:00,0,212,Bronx Park East,-73.868457,40.848828,2589.361108779907
12:35:00,0,213,E 180 St,-73.873488,40.841894,2201.751553535462
12:35:00,0,214,West Farms Sq-E Tremont Av,-73.880049,40.840295,2237.202384471893
12:35:00,0,215,174 St,-73.887734,40.837288,2106.2023844718933
12:35:00,0,216,Freeman St,-73.891865,40.829993,1981.202384471893
12:35:00,0,217,Simpson St,-73.893064,40.824073,1865.2023844718933
12:35:00,0,218,Intervale Av,-73.896736,40.822181,1786.2023844718933
12:35:00,0,219,Prospect Av,-73.90177,40.819585,1698.2023844718933
12:35:00,0,220,Jackson Av,-73.907807,40.81649,1594.2023844718933
12:35:00,0,221,3 Av-149 St,-73.917757,40.816109,1446.1111087799072
12:35:00,0,222,149 St-Grand Concourse,-73.926718,40.81841,1298.1111087799072
12:35:00,0,224,135 St,-73.94077,40.814229,1743.2251119613647
12:35:00,0,225,125 St,-73.945495,40.807754,1858.225111961365
12:35:00,0,226,116 St,-73.949625,40.802098,1965.2251119613647
12:35:00,0,227,Central Park North (110 St),-73.951822,40.799075,2044.225111961365
12:07:00,2,228,Park Place,-74.008811,40.713051,2560.111108779907
12:07:00,1,229,Fulton St,-74.006571,40.709416,2642.6334178447723
12:35:00,1,230,Wall St,-74.0091,40.706821,2721.6334178447723
12:35:00,1,231,Clark St,-73.993086,40.697466,2916.6334178447723
12:35:00,1,232,Borough Hall,-73.989998,40.693219,3036.6334178447723
13:47:00,1,233,Hoyt St,-73.985065,40.690545,3034.681391477585
12:07:00,0,234,Nevins St,-73.980492,40.688246,2887.4523844718933
12:07:00,0,235,Atlantic Av-Barclays Ctr,-73.977666,40.684359,2990.4523844718933
12:07:00,0,236,Bergen St,-73.975098,40.680829,3100.6813914775853
12:07:00,0,237,Grand Army Plaza,-73.971046,40.675235,3216.0406215190887
12:07:00,0,238,Eastern Pkwy-Brooklyn Museum,-73.964375,40.671987,3320.0406215190887
12:07:00,0,239,Franklin Av-Medgar Evers College,-73.958131,40.670682,3303.4523844718938
12:07:00,0,241,President St-Medgar Evers College,-73.950683,40.667883,3495.4523844718938
12:07:00,0,242,Sterling St,-73.95085,40.662742,3589.4523844718938
12:07:00,0,243,Winthrop St,-73.9502,40.656652,3682.4523844718938
12:07:00,0,244,Church Av,-73.949575,40.650843,3774.4523844718938
12:07:00,0,245,Beverly Rd,-73.948959,40.645098,3866.452384471894
12:07:00,0,246,Newkirk Av-Little Haiti,-73.948411,40.639967,3958.4523844718938
12:07:00,0,247,Flatbush Av-Brooklyn College,-73.947642,40.632836,4140.452384471893
12:07:00,0,248,Nostrand Av,-73.950466,40.669847,3423.4523844718938
12:07:00,0,249,Kingston Av,-73.942161,40.669399,3522.4523844718933
12:35:00,0,250,Crown Hts-Utica Av,-73.932942,40.668897,3604.9523844718933
12:07:00,0,251,Sutter Av-Rutland Rd,-73.92261,40.664717,3748.7023844718938
12:07:00,0,252,Saratoga Av,-73.916327,40.661453,3869.202384471894
12:07:00,0,253,Rockaway Av,-73.908946,40.662549,3962.2023844718938
12:07:00,0,254,Junius St,-73.902447,40.663515,4004.913424253464
12:07:00,0,255,Pennsylvania Av,-73.894895,40.664635,4108.913424253464
12:07:00,0,256,Van Siclen Av,-73.889395,40.665449,4187.913424253464
12:07:00,0,257,New Lots Av,-73.884079,40.666235,4302.413424253464
12:35:00,0,301,Harlem-148 St,-73.93647,40.82388,2224.5247521400456
12:35:00,0,302,145 St,-73.936245,40.820421,2092.5061569213867
12:07:00,0,401,Woodlawn,-73.878751,40.886037,2607.9523844718933
12:07:00,0,402,Mosholu Pkwy,-73.884655,40.87975,2472.9523844718933
12:07:00,0,405,Bedford Park Blvd-Lehman College,-73.890064,40.873412,2343.9523844718938
12:07:00,0,406,Kingsbridge Rd,-73.897174,40.86776,2228.9523844718938
12:07:00,0,407,Fordham Rd,-73.901034,40.862803,2134.9523844718933
12:07:00,0,408,183 St,-73.903879,40.858407,2045.9523844718935
12:07:00,0,409,Burnside Av,-73.907684,40.853453,1939.9523844718935
12:07:00,0,410,176 St,-73.911794,40.84848,1843.9523844718933
12:07:00,0,411,Mt Eden Av,-73.914685,40.844434,1758.9523844718933
12:07:00,0,412,170 St,-73.917791,40.840075,1671.9523844718933
12:07:00,0,413,167 St,-73.9214,40.835537,1575.9523844718933
12:07:00,0,414,161 St-Yankee Stadium,-73.925831,40.827994,1420.952384471893
12:07:00,0,415,149 St-Grand Concourse,-73.927351,40.818375,1213.9523844718933
12:35:00,0,416,138 St-Grand Concourse,-73.929849,40.813224,1075.9523844718933
12:07:00,0,418,Fulton St,-74.009509,40.710368,2299.7023844718933
12:07:00,0,419,Wall St,-74.011862,40.707557,2385.4523844718933
12:07:00,0,420,Bowling Green,-74.014065,40.704817,2468.4523844718933
12:07:00,0,423,Borough Hall,-73.990151,40.692404,2740.4523844718933
13:55:00,0,501,Eastchester-Dyre Av,-73.830834,40.8883,2951.751553535462
12:35:00,0,502,Baychester Av,-73.838591,40.878663,2801.751553535462
12:35:00,0,503,Gun Hill Rd,-73.846384,40.869526,2651.751553535462
12:35:00,0,504,Pelham Pkwy,-73.855359,40.858985,2501.751553535462
12:35:00,0,505,Morris Park,-73.860495,40.854364,2411.751553535462
12:05:30,0,601,Pelham Bay Park,-73.828121,40.852462,1239.3443121910095
12:05:30,0,602,Buhre Av,-73.832569,40.84681,1062.0
12:05:30,0,603,Middletown Rd,-73.836322,40.843863,987.0
12:05:30,0,604,Westchester Sq-E Tremont Av,-73.842952,40.839892,881.0
12:05:30,0,606,Zerega Av,-73.847036,40.836488,792.0
12:05:30,0,607,Castle Hill Av,-73.851222,40.834255,722.0
13:05:30,0,608,Parkchester,-73.860816,40.833226,543.5943121910095
13:05:30,0,609,St Lawrence Av,-73.867618,40.831509,514.0
13:05:30,0,610,Morrison Av-Soundview,-73.874516,40.829521,426.0
13:05:30,0,611,Elder Av,-73.879159,40.828584,352.0
13:05:30,0,612,Whitlock Av,-73.886283,40.826525,240.0
12:01:30,0,613,Hunts Point Av,-73.890549,40.820948,110.0
12:01:30,0,614,Longwood Av,-73.896435,40.816104,0.0
12:07:00,0,615,E 149 St,-73.904098,40.812118,104.0
12:07:00,0,616,E 143 St-St Mary's St,-73.907657,40.808719,187.0
12:07:00,0,617,Cypress Av,-73.914042,40.805368,292.0
12:07:00,0,618,Brook Av,-73.91924,40.807566,367.0
12:07:00,0,619,3 Av-138 St,-73.926138,40.810476,467.00000000000006
12:07:00,0,621,125 St,-73.937594,40.804138,667.0
12:07:00,0,622,116 St,-73.941617,40.798629,801.0000000000001
12:07:00,0,623,110 St,-73.94425,40.79502,892.0
12:07:00,0,624,103 St,-73.947478,40.7906,978.0
12:07:00,0,625,96 St,-73.95107,40.785672,1077.0
12:07:00,0,626,86 St,-73.955589,40.779492,1196.0
12:07:00,0,627,77 St,-73.959874,40.77362,1305.0
12:07:00,0,628,68 St-Hunter College,-73.96387,40.768141,1402.6086950302124
12:07:00,0,629,59 St,-73.967967,40.762526,1458.1111087799075
12:07:00,0,630,51 St,-73.97192,40.757107,1611.6086950302124
12:07:00,0,631,Grand Central-42 St,-73.976848,40.751776,1636.9523844718933
12:07:00,0,632,33 St,-73.982076,40.746081,1871.8586950302124
12:07:00,0,633,28 St,-73.984264,40.74307,1942.8586950302124
12:07:00,0,634,23 St,-73.986599,40.739864,2017.8586950302124
12:07:00,0,635,14 St-Union Sq,-73.989951,40.734673,1894.9523844718933
12:07:00,0,636,Astor Pl,-73.99107,40.730054,2205.4095277786255
12:07:00,0,637,Bleecker St,-73.994659,40.725915,2308.4095277786255
12:07:00,0,638,Spring St,-73.997141,40.722301,2380.4095277786255
12:07:00,0,639,Canal St,-74.000193,40.718803,2349.702384471893
12:07:00,0,640,Brooklyn Bridge-City Hall,-74.004131,40.713065,2174.7023844718933
13:03:00,2,701,Flushing-Main St,-73.83003,40.7596,3235.008566379547
13:03:00,2,702,Mets-Willets Point,-73.845625,40.754622,3055.802111693791
13:03:00,2,705,111 St,-73.855334,40.75173,3076.659254550934
13:03:00,2,706,103 St-Corona Plaza,-73.8627,40.749865,3000.659254550934
13:03:00,2,707,Junction Blvd,-73.869527,40.749145,2808.659254550934
13:03:00,2,708,90 St-Elmhurst Av,-73.876613,40.748408,2892.351562738418
13:03:00,2,709,82 St-Jackson Hts,-73.883697,40.747659,2816.351562738418
12:23:00,2,710,74 St-Broadway,-73.891394,40.746848,2640.3515627384186
13:19:00,2,711,69 St,-73.896403,40.746325,2548.3515627384186
12:01:30,2,712,61 St-Woodside,-73.902984,40.74563,2467.3515627384186
12:01:30,2,713,52 St,-73.912549,40.744149,2335.008564710617
12:01:30,2,714,46 St-Bliss St,-73.918435,40.743132,2276.008564710617
12:01:30,2,715,40 St-Lowery St,-73.924016,40.743781,2217.008564710617
12:15:00,2,716,33 St-Rawson St,-73.930997,40.744587,2134.008564710617
12:31:00,1,718,Queensboro Plaza,-73.940202,40.750582,1991.0085647106168
12:23:00,2,719,Court Sq,-73.945264,40.747023,2095.008564710617
12:31:00,1,720,Hunters Point Av,-73.948916,40.742216,2032.1111087799072
12:31:00,1,721,Vernon Blvd-Jackson Av,-73.953581,40.742626,1984.1111087799075
12:07:00,1,723,Grand Central-42 St,-73.976041,40.751431,1769.1111087799075
12:07:00,1,724,5 Av,-73.981963,40.753821,1845.1111087799075
12:07:00,1,725,Times Sq-42 St,-73.987691,40.755477,1925.1111087799072
12:07:00,1,726,34 St-Hudson Yards,-74.00191,40.755882,2077.111108779907
12:07:00,1,901,Grand Central-42 St,-73.979189,40.752769,1709.1111087799075
12:07:00,1,902,Times Sq-42 St,-73.986229,40.755983,1815.1111087799075
12:47:00,1,A02,Inwood-207 St,-73.919899,40.868072,3077.784722089767
12:47:00,1,A03,Dyckman St,-73.927271,40.865491,2963.784722089767
12:47:00,1,A05,190 St,-73.93418,40.859022,2830.784722089767
12:47:00,1,A06,181 St,-73.937969,40.851695,2710.784722089767
12:47:00,1,A07,175 St,-73.939704,40.847391,2595.784722089767
12:07:00,2,A09,168 St,-73.939561,40.840719,2465.7847220897675
12:07:00,2,A10,163 St-Amsterdam Av,-73.939892,40.836013,2379.9182283878326
12:07:00,2,A11,155 St,-73.941514,40.830518,2274.9182283878326
12:07:00,1,A12,145 St,-73.944216,40.824783,2149.918228387832
12:07:00,1,A14,135 St,-73.947649,40.817894,2053.7603321075435
12:07:00,1,A15,125 St,-73.952343,40.811109,2164.7603321075435
12:07:00,1,A16,116 St,-73.954882,40.805085,2324.918228387832
12:07:00,1,A17,Cathedral Pkwy (110 St),-73.958161,40.800603,2429.918228387832
12:07:00,1,A18,103 St,-73.961454,40.796092,2536.1735982894897
12:07:00,1,A19,96 St,-73.964696,40.791642,2640.111108779907
12:31:00,1,A20,86 St,-73.968916,40.785868,2525.111108779907
12:31:00,1,A21,81 St-Museum of Natural History,-73.972143,40.781433,2416.111108779907
12:31:00,1,A22,72 St,-73.97641,40.775594,2300.111108779907
12:31:00,1,A24,59 St-Columbus Circle,-73.981736,40.768296,2115.111108779907
12:47:00,1,A25,50 St,-73.985984,40.762456,2054.111108779907
13:23:00,1,A27,42 St-Port Authority Bus Terminal,-73.989735,40.757308,1935.1111087799072
12:07:00,2,A28,34 St-Penn Station,-73.993391,40.752287,2054.111108779907
12:07:00,2,A30,23 St,-73.998041,40.745906,2167.111108779907
12:07:00,2,A31,14 St,-74.00169,40.740893,2227.111108779907
12:01:30,2,A32,W 4 St-Wash Sq,-74.000495,40.732338,2357.111108779907
12:07:00,2,A33,Spring St,-74.003739,40.726227,2522.111108779907
13:11:00,1,A34,Canal St,-74.005229,40.720824,2547.1111087799068
13:11:00,1,A36,Chambers St,-74.008585,40.714111,2639.6334178447723
12:15:00,1,A38,Fulton St,-74.007691,40.710197,2522.6334178447723
12:59:00,1,A40,High St,-73.990531,40.699337,2707.6334178447723
12:59:00,1,A41,Jay St-MetroTech,-73.987342,40.692338,2832.633417844773
12:59:00,1,A42,Hoyt-Schermerhorn Sts,-73.985001,40.688484,2952.633417844773
13:39:00,1,A43,Lafayette Av,-73.973946,40.686113,3132.633417844773
13:39:00,1,A44,Clinton-Washington Avs,-73.965838,40.683263,3234.633417844772
13:39:00,1,A45,Franklin Av,-73.956848,40.68138,3356.633417844773
12:59:00,1,A46,Nostrand Av,-73.950426,40.680438,3284.6334178447723
12:07:00,1,A47,Kingston-Throop Avs,-73.940858,40.679921,3404.6334178447723
12:59:00,1,A48,Utica Av,-73.930729,40.679364,3466.6334178447723
12:07:00,1,A49,Ralph Av,-73.920786,40.678822,3586.6334178447723
12:07:00,1,A50,Rockaway Av,-73.911946,40.67834,3701.6334178447723
12:59:00,1,A51,Broadway Junction,-73.905316,40.678334,3651.231811523438
13:11:00,1,A52,Liberty Av,-73.896548,40.674542,3808.231811523438
13:11:00,1,A53,Van Siclen Av,-73.890358,40.67271,3923.231811523438
13:11:00,1,A54,Shepherd Av,-73.88075,40.67413,4041.2318115234384
12:59:00,1,A55,Euclid Av,-73.872106,40.675377,3966.2318115234384
12:59:00,1,A57,Grant Av,-73.86505,40.677044,4091.231811523438
12:59:00,1,A59,80 St,-73.858992,40.679371,4206.231811523438
12:59:00,1,A60,88 St,-73.85147,40.679843,4324.231811523438
12:59:00,1,A61,Rockaway Blvd,-73.843853,40.680429,4436.2318115234375
13:35:00,1,A63,104 St,-73.837683,40.681711,4546.2318115234375
13:35:00,1,A64,111 St,-73.832163,40.684331,4654.2318115234375
13:35:00,1,A65,Ozone Park-Lefferts Blvd,-73.825798,40.685951,4774.2318115234375
12:47:00,1,B04,21 St-Queensbridge,-73.942836,40.754203,2055.3110823631287
12:47:00,1,B06,Roosevelt Island,-73.95326,40.759145,1963.5449743270876
12:23:00,1,B08,Lexington Av/63 St,-73.966113,40.764629,1823.9523844718933
12:51:00,1,B10,57 St,-73.97745,40.763972,1988.9523844718933
12:23:00,1,B12,9 Av,-73.994324,40.646292,3977.544437885285
12:23:00,1,B13,Fort Hamilton Pkwy,-73.994304,40.640914,4097.544437885284
12:23:00,1,B14,50 St,-73.994791,40.63626,4197.794437885284
12:23:00,1,B15,55 St,-73.995476,40.631435,4317.794437885284
12:23:00,1,B16,62 St,-73.996895,40.626472,4387.794437885285
12:23:00,1,B17,71 St,-73.998864,40.619589,4507.794437885285
12:23:00,1,B18,79 St,-74.00061,40.613501,4627.794437885285
12:23:00,1,B19,18 Av,-74.001736,40.607954,4732.794437885285
12:23:00,1,B20,20 Av,-73.998168,40.604556,4837.794437885285
12:23:00,1,B21,Bay Pkwy,-73.993728,40.601875,4929.794437885285
13:23:00,1,B22,25 Av,-73.986829,40.597704,5054.794437885284
13:23:00,1,B23,Bay 50 St,-73.983765,40.588841,5304.794437885285
12:15:00,1,D01,Norwood-205 St,-73.878855,40.874811,2791.260332107544
12:15:00,1,D03,Bedford Park Blvd,-73.887138,40.873244,2566.760332107544
12:15:00,1,D04,Kingsbridge Rd,-73.893509,40.866978,2446.760332107544
12:15:00,1,D05,Fordham Rd,-73.897749,40.861296,2330.760332107544
12:15:00,1,D06,182-183 Sts,-73.900741,40.856093,2252.7603321075444
12:15:00,1,D07,Tremont Av,-73.905227,40.85041,2150.760332107544
12:15:00,1,D08,174-175 Sts,-73.910136,40.8459,2037.760332107544
12:15:00,1,D09,170 St,-73.9134,40.839306,1917.760332107544
12:15:00,1,D10,167 St,-73.91844,40.833771,1797.760332107544
13:43:00,1,D11,161 St-Yankee Stadium,-73.925651,40.827905,1674.7603321075437
12:07:00,1,D12,155 St,-73.938209,40.830135,1799.7603321075437
12:07:00,1,D13,145 St,-73.944216,40.824783,1924.7603321075437
12:47:00,1,D14,7 Av,-73.981637,40.762862,2064.476189851761
12:51:00,1,D15,47-50 Sts-Rockefeller Ctr,-73.981329,40.758663,2078.9523844718933
12:51:00,1,D16,42 St-Bryant Pk,-73.984569,40.754222,2070.111108779907
12:51:00,1,D17,34 St-Herald Sq,-73.987823,40.749719,2160.111108779907
12:51:00,1,D18,23 St,-73.992821,40.742878,2280.111108779907
12:51:00,1,D19,14 St,-73.996209,40.738228,2380.111108779907
13:35:00,1,D20,W 4 St-Wash Sq,-74.000495,40.732338,2357.111108779907
13:35:00,1,D21,Broadway-Lafayette St,-73.996204,40.725297,2520.6381001472473
13:31:00,1,D22,Grand St,-73.993753,40.718267,2658.6381001472473
12:39:00,1,D24,Atlantic Av-Barclays Ctr,-73.97689,40.68446,3217.7142877578735
12:39:00,1,D25,7 Av,-73.972367,40.67705,3377.7142877578735
12:39:00,1,D26,Prospect Park,-73.962246,40.661614,3595.7142877578735
12:39:00,1,D27,Parkside Av,-73.961495,40.655292,3710.7142877578735
12:39:00,1,D28,Church Av,-73.962982,40.650527,3796.6813914775853
12:39:00,1,D29,Beverley Rd,-73.964492,40.644031,3902.714287757873
12:39:00,1,D30,Cortelyou Rd,-73.963891,40.640927,4002.7142877578735
12:39:00,1,D31,Newkirk Plaza,-73.962793,40.635082,3976.6813914775853
12:39:00,1,D32,Avenue H,-73.961639,40.62927,4095.0013923645024
12:39:00,1,D33,Avenue J,-73.960803,40.625039,4215.001392364503
12:39:00,1,D34,Avenue M,-73.959399,40.617618,4335.001392364503
12:39:00,1,D35,Kings Hwy,-73.957734,40.60867,4221.681391477585
12:39:00,1,D37,Avenue U,-73.955929,40.5993,4463.691703557968
12:39:00,1,D38,Neck Rd,-73.955161,40.595246,4584.691703557968
12:39:00,1,D39,Sheepshead Bay,-73.954155,40.586896,4470.681391477585
12:39:00,1,D40,Brighton Beach,-73.961376,40.577621,4664.681391477586
12:39:00,1,D41,Ocean Pkwy,-73.968501,40.576312,4873.681391477586
12:39:00,1,D42,W 8 St-NY Aquarium,-73.975939,40.576127,4962.883417844772
12:39:00,1,D43,Coney Island-Stillwell Av,-73.981233,40.577422,5085.883417844772
12:43:00,1,E01,World Trade Center,-74.009781,40.712582,2715.111108779907
12:47:00,1,F01,Jamaica-179 St,-73.783817,40.712646,3668.9523844718933
12:47:00,1,F02,169 St,-73.793604,40.71047,3578.9523844718933
12:47:00,1,F03,Parsons Blvd,-73.803326,40.707564,3458.9523844718933
12:47:00,1,F04,Sutphin Blvd,-73.810708,40.70546,3368.9523844718933
12:47:00,1,F05,Briarwood,-73.820574,40.709179,3248.9523844718933
13:03:00,1,F06,Kew Gardens-Union Tpke,-73.831008,40.714441,3128.9523844718933
12:47:00,1,F07,75 Av,-73.837324,40.718331,3038.9523844718933
12:51:00,1,F09,Court Sq-23 St,-73.946,40.747846,2042.5177859393034
12:47:00,1,F11,Lexington Av/53 St,-73.969055,40.757552,1840.5560626983643
12:47:00,1,F12,5 Av/53 St,-73.975224,40.760167,1941.476189851761
12:39:00,1,F14,2 Av,-73.989938,40.723402,2638.6381001472473
12:39:00,1,F15,Delancey St-Essex St,-73.988114,40.718611,2758.6381001472473
12:39:00,1,F16,East Broadway,-73.990173,40.713715,2866.0491726398463
13:19:00,1,F18,York St,-73.986751,40.701397,3045.6381001472473
12:59:00,1,F20,Bergen St,-73.990862,40.686145,3104.28966665268
12:59:00,1,F21,Carroll St,-73.995048,40.680303,3272.818602323532
12:59:00,1,F22,Smith-9 Sts,-73.995959,40.67358,3440.28966665268
12:59:00,1,F23,4 Av-9 St,-73.989779,40.670272,3552.818602323532
12:59:00,1,F24,7 Av,-73.980305,40.666271,3387.633417844773
12:59:00,1,F25,15 St-Prospect Park,-73.979493,40.660365,3555.7985568046574
12:59:00,1,F26,Fort Hamilton Pkwy,-73.975776,40.650782,3735.7985568046574
12:59:00,1,F27,Church Av,-73.979678,40.644041,3627.633417844773
13:35:00,1,F29,Ditmas Av,-73.978172,40.636119,3747.633417844773
13:35:00,1,F30,18 Av,-73.976971,40.629755,3867.633417844773
13:35:00,1,F31,Avenue I,-73.976127,40.625322,3927.633417844773
13:35:00,1,F32,Bay Pkwy,-73.975264,40.620769,3987.633417844773
13:35:00,1,F33,Avenue N,-73.974197,40.61514,4107.633417844772
13:35:00,1,F34,Avenue P,-73.973022,40.608944,4197.633417844772
13:35:00,1,F35,Kings Hwy,-73.972361,40.603217,4478.383417844772
13:59:00,1,F36,Avenue U,-73.973357,40.596063,4598.383417844772
13:59:00,1,F38,Avenue X,-73.97425,40.58962,4718.383417844772
12:39:00,1,F39,Neptune Av,-73.974574,40.581011,4842.883417844772
13:03:00,1,G05,Jamaica Center-Parsons/Archer,-73.801109,40.702147,3680.9523844718933
13:03:00,1,G06,Sutphin Blvd-Archer Av-JFK Airport,-73.807969,40.700486,3560.9523844718933
13:03:00,1,G07,Jamaica-Van Wyck,-73.816859,40.702566,3435.9523844718933
13:03:00,1,G08,Forest Hills-71 Av,-73.844521,40.721691,2918.9523844718933
13:03:00,1,G09,67 Av,-73.852719,40.726523,3056.9523844718933
13:03:00,1,G10,63 Dr-Rego Park,-73.861604,40.729846,3158.9523844718933
13:03:00,1,G11,Woodhaven Blvd,-73.869229,40.733106,3068.9523844718933
13:03:00,1,G12,Grand Av-Newtown,-73.877223,40.737015,2948.9523844718933
13:03:00,1,G13,Elmhurst Av,-73.882017,40.742454,2858.8134961128235
13:03:00,1,G14,Jackson Hts-Roosevelt Av,-73.891338,40.746644,2498.9523844718933
12:07:00,1,G15,65 St,-73.898453,40.749669,2699.217785939303
12:07:00,1,G16,Northern Blvd,-73.906006,40.752885,2596.9177859393035
12:07:00,1,G18,46 St,-73.913333,40.756312,2506.9177859393035
12:07:00,1,G19,Steinway St,-73.92074,40.756879,2386.9177859393035
12:07:00,1,G20,36 St,-73.928781,40.752039,2266.9177859393035
12:31:00,1,G21,Queens Plaza,-73.937243,40.748973,2122.412699699402
12:35:00,2,G22,Court Sq,-73.943832,40.746554,2125.0476184231898
12:35:00,2,G24,21 St,-73.949724,40.744065,2240.0476184231898
12:35:00,2,G26,Greenpoint Av,-73.954449,40.731352,2400.0476184231893
12:35:00,2,G28,Nassau Av,-73.951277,40.724635,2520.0476184231893
12:35:00,2,G29,Metropolitan Av,-73.951418,40.712792,2690.0476184231898
12:35:00,2,G30,Broadway,-73.950308,40.706092,2800.0476184231898
12:35:00,2,G31,Flushing Av,-73.950234,40.700377,2913.0476184231898
12:35:00,2,G32,Myrtle-Willoughby Avs,-73.949046,40.694568,3021.0476184231893
13:39:00,1,G33,Bedford-Nostrand Avs,-73.953522,40.689627,3141.0476184231893
13:39:00,1,G34,Classon Av,-73.96007,40.688873,3246.0476184231893
13:39:00,1,G35,Clinton-Washington Avs,-73.966839,40.688089,3349.0476184231898
13:39:00,1,G36,Fulton St,-73.975375,40.687119,3313.4146702289586
12:17:30,1,H01,Aqueduct Racetrack,-73.834058,40.668234,4661.2318115234375
12:59:00,1,H02,Aqueduct-N Conduit Av,-73.834058,40.668234,4766.2318115234375
12:59:00,1,H03,Howard Beach-JFK Airport,-73.830301,40.660476,4886.2318115234375
12:59:00,1,H04,Broad Channel,-73.815925,40.608382,5369.2318115234375
12:59:00,1,H06,Beach 67 St,-73.796924,40.590927,5729.2318115234375
12:59:00,1,H07,Beach 60 St,-73.788522,40.592374,5849.2318115234375
12:59:00,1,H08,Beach 44 St,-73.776013,40.592943,5969.2318115234375
12:59:00,1,H09,Beach 36 St,-73.768175,40.595398,6089.2318115234375
12:59:00,1,H10,Beach 25 St,-73.761353,40.600066,6207.2318115234375
12:59:00,1,H11,Far Rockaway-Mott Av,-73.755405,40.603995,6282.902554273604
12:39:00,1,H12,Beach 90 St,-73.813641,40.588034,5666.2318115234375
12:39:00,1,H13,Beach 98 St,-73.820558,40.585307,5781.231811523438
12:39:00,1,H14,Beach 105 St,-73.827559,40.583209,5889.231811523438
12:39:00,1,H15,Rockaway Park-Beach 116 St,-73.835592,40.580903,6009.231811523438
13:03:00,1,J12,121 St,-73.828294,40.700492,3965.7023844718933
13:03:00,1,J13,111 St,-73.836345,40.697418,4040.952384471893
13:03:00,1,J14,104 St,-73.84433,40.695178,4160.702384471893
13:03:00,1,J15,Woodhaven Blvd,-73.851576,40.693879,4250.952384471893
13:03:00,1,J16,85 St-Forest Pkwy,-73.86001,40.692435,4482.2318115234375
13:03:00,1,J17,75 St-Elderts Ln,-73.867139,40.691324,4191.231811523438
13:03:00,1,J19,Cypress Hills,-73.87255,40.689941,4302.2318115234375
12:55:00,2,J20,Crescent St,-73.873785,40.683194,4041.2318115234384
12:55:00,2,J21,Norwood Av,-73.880039,40.68141,3951.2318115234384
12:55:00,2,J22,Cleveland St,-73.884639,40.679947,4006.1075994968414
12:55:00,2,J23,Van Siclen Av,-73.891688,40.678024,3801.231811523438
12:55:00,2,J24,Alabama Av,-73.898654,40.676992,3741.231811523438
12:51:00,1,J27,Broadway Junction,-73.904512,40.679498,3637.913424253464
13:35:00,2,J28,Chauncey St,-73.910456,40.682893,3711.231811523438
12:51:00,1,J29,Halsey St,-73.916559,40.68637,3715.7023844718933
12:51:00,1,J30,Gates Av,-73.92227,40.68963,3569.7023844718933
12:51:00,1,J31,Kosciuszko St,-73.928814,40.693342,3523.7023844718933
12:23:00,1,L01,8 Av,-74.002578,40.739777,2287.111108779907
12:23:00,1,L02,6 Av,-73.996786,40.737335,2206.9134242534637
12:23:00,1,L03,14 St-Union Sq,-73.99073,40.734789,2108.9134242534637
12:31:00,1,L05,3 Av,-73.986122,40.732849,2192.9134242534637
12:31:00,1,L06,1 Av,-73.981628,40.730953,2235.9134242534637
12:31:00,1,L08,Bedford Av,-73.956872,40.717304,2442.913424253464
12:31:00,1,L10,Lorimer St,-73.950275,40.714063,2540.913424253464
12:31:00,1,L11,Graham Av,-73.944053,40.714565,2582.913424253464
12:31:00,1,L12,Grand St,-73.94067,40.711926,2672.913424253464
12:31:00,1,L13,Montrose Av,-73.93985,40.707739,2727.913424253464
12:31:00,1,L14,Morgan Av,-73.933147,40.706152,2804.913424253464
12:31:00,1,L15,Jefferson St,-73.922913,40.706607,2895.9134242534637
12:31:00,1,L16,DeKalb Av,-73.918425,40.703811,2969.913424253464
12:31:00,1,L17,Myrtle-Wyckoff Avs,-73.911586,40.699814,3052.913424253464
12:31:00,1,L19,Halsey St,-73.904084,40.695602,3107.9134242534637
12:31:00,1,L20,Wilson Av,-73.904046,40.688764,3239.913424253464
12:31:00,1,L21,Bushwick Av-Aberdeen St,-73.905249,40.682829,3341.913424253464
12:31:00,1,L22,Broadway Junction,-73.90324,40.678856,3412.913424253464
12:31:00,1,L24,Atlantic Av,-73.903097,40.675345,3522.913424253464
12:31:00,1,L25,Sutter Av,-73.901975,40.669367,3603.913424253464
12:31:00,1,L26,Livonia Av,-73.900571,40.664038,3674.913424253464
12:31:00,1,L27,New Lots Av,-73.899232,40.658733,3737.9134242534637
12:31:00,1,L28,East 105 St,-73.899485,40.650573,3868.913424253464
13:51:00,1,L29,Canarsie-Rockaway Pkwy,-73.90185,40.646654,4011.9134242534647
12:15:00,2,M01,Middle Village-Metropolitan Av,-73.889601,40.711396,3731.15380859375
12:15:00,2,M04,Fresh Pond Rd,-73.895877,40.706186,3612.9134242534637
12:15:00,2,M05,Forest Av,-73.903077,40.704423,3496.90380859375
12:15:00,2,M06,Seneca Av,-73.90774,40.702762,3381.9038085937505
12:55:00,1,M08,Myrtle-Wyckoff Avs,-73.912385,40.69943,3277.913424253464
12:31:00,2,M09,Knickerbocker Av,-73.919711,40.698664,3395.913424253464
12:55:00,1,M10,Central Av,-73.927397,40.697857,3518.9134242534637
12:15:00,1,M11,Myrtle Av,-73.935657,40.697207,3389.7023844718933
12:15:00,1,M12,Flushing Av,-73.941126,40.70026,3344.7023844718933
12:15:00,1,M13,Lorimer St,-73.947408,40.703869,3224.7023844718933
12:15:00,1,M14,Hewes St,-73.953431,40.70687,3112.7023844718933
12:15:00,1,M16,Marcy Av,-73.957757,40.708359,3036.7023844718933
12:15:00,1,M18,Delancey St-Essex St,-73.987437,40.718315,2637.7023844718933
12:31:00,1,M19,Bowery,-73.993915,40.72028,2534.7023844718933
12:31:00,1,M20,Canal St,-73.999892,40.718092,2409.702384471893
12:07:00,1,M21,Chambers St,-74.003401,40.713243,2294.7023844718933
12:51:00,1,M22,Fulton St,-74.007582,40.710374,2402.702384471893
12:51:00,1,M23,Broad St,-74.011056,40.706476,2468.7023844718933
12:23:00,1,N02,8 Av,-74.011719,40.635064,4119.2048144340515
12:23:00,1,N03,Fort Hamilton Pkwy,-74.005351,40.631386,4289.2048144340515
12:23:00,1,N04,New Utrecht Av,-73.996353,40.624842,4437.7048144340515
12:23:00,1,N05,18 Av,-73.990414,40.620671,4552.7048144340515
12:23:00,1,N06,20 Av,-73.985026,40.61741,4660.454814434051
12:23:00,1,N07,Bay Pkwy,-73.981848,40.611815,4777.7048144340515
12:23:00,1,N08,Kings Hwy,-73.980353,40.603923,4897.7048144340515
12:23:00,1,N09,Avenue U,-73.979137,40.597473,5014.7048144340515
12:23:00,1,N10,86 St,-73.97823,40.592721,5100.7048144340515
12:23:00,1,Q01,Canal St,-74.00046,40.718383,2448.6720113754272
12:07:00,1,Q03,72 St,-73.958424,40.768799,1953.952384471893
12:07:00,1,Q04,86 St,-73.951787,40.777891,2078.9523844718933
12:23:00,1,Q05,96 St,-73.947152,40.784318,2191.9523844718933
12:23:00,1,R01,Astoria-Ditmars Blvd,-73.912034,40.775036,2779.966946363449
12:23:00,1,R03,Astoria Blvd,-73.917843,40.770258,2684.758566379547
12:23:00,1,R04,30 Av,-73.921479,40.766779,2524.966946363449
12:23:00,1,R05,Broadway,-73.925508,40.76182,2404.966946363449
12:23:00,1,R06,36 Av,-73.929575,40.756804,2282.966946363449
12:23:00,1,R08,39 Av-Dutch Kills,-73.932755,40.752882,2174.008563041687
12:23:00,1,R09,Queensboro Plaza,-73.940202,40.750582,1944.0085630416868
12:31:00,1,R11,Lexington Av/59 St,-73.967258,40.76266,1693.466946363449
12:23:00,1,R13,5 Av/59 St,-73.973347,40.764811,1808.466946363449
12:23:00,1,R14,57 St-7 Av,-73.980658,40.764664,1941.466946363449
12:23:00,1,R15,49 St,-73.984139,40.759901,2050.111108779907
12:23:00,1,R16,Times Sq-42 St,-73.986754,40.754672,1935.1111087799072
12:23:00,1,R17,34 St-Herald Sq,-73.98795,40.749567,2054.111108779907
12:31:00,1,R18,28 St,-73.988691,40.745494,2155.111108779907
12:31:00,1,R19,23 St,-73.989344,40.741303,2239.9523844718933
12:07:00,1,R20,14 St-Union Sq,-73.990568,40.735736,2119.9523844718933
12:07:00,1,R21,8 St-NYU,-73.992629,40.730328,2239.9523844718933
12:07:00,1,R22,Prince St,-73.997702,40.724329,2349.9523844718933
12:07:00,1,R23,Canal St,-74.001775,40.719527,2469.9523844718933
12:07:00,1,R24,City Hall,-74.006978,40.713282,2633.952384471893
12:07:00,1,R25,Cortlandt St,-74.011029,40.710668,2758.952384471893
12:07:00,1,R26,Rector St,-74.013342,40.70722,2878.952384471893
12:07:00,1,R27,Whitehall St-South Ferry,-74.012994,40.703087,2991.952384471893
12:07:00,1,R28,Court St,-73.991777,40.6941,2979.717090845108
12:07:00,1,R29,Jay St-MetroTech,-73.985942,40.69218,2967.633417844773
12:39:00,1,R30,DeKalb Av,-73.981824,40.690635,3068.995868206024
12:23:00,1,R31,Atlantic Av-Barclays Ctr,-73.97881,40.683666,3158.2048144340515
12:35:00,1,R32,Union St,-73.98311,40.677316,3289.6720113754272
12:35:00,1,R33,4 Av-9 St,-73.988302,40.670847,3409.6720113754272
12:35:00,1,R34,Prospect Av,-73.992872,40.665414,3529.6720113754272
12:35:00,1,R35,25 St,-73.998091,40.660397,3654.6720113754272
12:23:00,1,R36,36 St,-74.003549,40.655144,3578.2048144340515
12:35:00,1,R39,45 St,-74.010006,40.648939,3768.2048144340515
12:23:00,1,R40,53 St,-74.014034,40.645069,3886.9548144340515
12:23:00,1,R41,59 St,-74.017881,40.641362,3938.204814434052
12:35:00,1,R42,Bay Ridge Av,-74.023377,40.634967,4103.745354652405
12:35:00,1,R43,77 St,-74.02551,40.629742,4206.745354652405
12:35:00,1,R44,86 St,-74.028398,40.622687,4386.745354652405
12:35:00,1,R45,Bay Ridge-95 St,-74.030876,40.616622,4457.745354652406
12:23:00,1,S01,Franklin Av,-73.955827,40.680596,3416.633417844773
12:23:00,1,S03,Park Pl,-73.957624,40.674772,3537.633417844773
12:39:00,1,S04,Botanic Garden,-73.959245,40.670343,3528.4523844718938
