start_time,ntransfers,stop_id,stop_name,stop_lon,stop_lat,duration
12:00:30,1,101,Van Cortlandt Park-242 St,-73.898583,40.889248,2039.40239739418
12:00:30,1,103,238 St,-73.90087,40.884667,1920.1523973941803
12:00:30,1,104,231 St,-73.904834,40.878856,1818.1523973941803
12:00:30,1,106,Marble Hill-225 St,-73.909831,40.874561,1718.1523973941803
12:00:30,1,107,215 St,-73.915279,40.869444,1613.6959867477417
12:00:30,1,108,207 St,-73.918822,40.864621,1517.9023973941803
12:00:30,1,109,Dyckman St,-73.925536,40.860531,1410.90239739418
12:00:30,1,110,191 St,-73.929412,40.855225,1319.9023973941803
12:00:30,1,111,181 St,-73.933596,40.849505,1217.9023973941803
12:00:30,1,112,168 St-Washington Hts,-73.940133,40.840556,1091.9023973941803
13:50:30,1,113,157 St,-73.94489,40.834041,1196.9023973941803
13:50:30,1,114,145 St,-73.95036,40.826551,1317.90239739418
13:50:30,1,115,137 St-City College,-73.953676,40.822008,1419.90239739418
13:50:30,1,116,125 St,-73.958372,40.815581,1527.90239739418
12:07:00,1,117,116 St-Columbia University,-73.96411,40.807722,1568.2500000000002
12:07:00,1,118,Cathedral Pkwy (110 St),-73.966847,40.803967,1491.25
12:07:00,1,119,103 St,-73.968379,40.799446,1405.25
12:07:00,1,120,96 St,-73.972323,40.793919,1228.4607324600217
12:07:00,1,121,86 St,-73.976218,40.788644,1177.25
12:07:00,1,122,79 St,-73.979917,40.783934,1087.25
12:07:00,1,123,72 St,-73.98197,40.778453,987.25
12:07:00,1,124,66 St-Lincoln Center,-73.982209,40.77344,891.25
12:07:00,1,125,59 St-Columbus Circle,-73.981929,40.768247,803.25
12:03:00,1,126,50 St,-73.983849,40.761728,917.0628252029419
12:03:00,1,127,Times Sq-42 St,-73.987495,40.75529,935.0
12:03:00,1,128,34 St-Penn Station,-73.991057,40.750373,1044.0000000000002
12:03:00,1,129,28 St,-73.993365,40.747215,1130.9999999999998
12:03:00,1,130,23 St,-73.995657,40.744081,1205.0
12:03:00,1,131,18 St,-73.997871,40.74104,1277.0
13:33:00,1,132,14 St,-74.000201,40.737826,1210.0
12:03:00,1,133,Christopher St-Sheridan Sq,-74.002906,40.733422,1457.0
12:03:00,1,134,Houston St,-74.005367,40.728251,1547.0
12:03:00,1,135,Canal St,-74.006277,40.722854,1641.9999999999998
12:36:30,1,136,Franklin St,-74.006886,40.719318,1712.0
13:33:00,1,137,Chambers St,-74.009266,40.715478,1467.0000000000002
12:36:30,1,138,WTC Cortlandt,-74.012188,40.711835,1761.2540986537936
12:36:30,1,139,Rector St,-74.013783,40.707513,1843.2540986537936
12:36:30,1,142,South Ferry,-74.013664,40.702068,1949.2540986537938
12:00:30,2,201,Wakefield-241 St,-73.85062,40.903125,3771.5435814857483
12:00:30,2,204,Nereid Av,-73.854376,40.898379,3515.5435814857483
12:00:30,2,205,233 St,-73.857473,40.893193,3367.5435814857483
12:00:30,2,206,225 St,-73.860341,40.888022,3269.0435814857483
12:00:30,2,207,219 St,-73.862633,40.883895,3185.0435814857483
12:00:30,2,208,Gun Hill Rd,-73.866256,40.87785,3072.2935814857483
12:00:30,2,209,Burke Av,-73.867164,40.871356,3114.543581485748
12:00:30,2,210,Allerton Av,-73.867352,40.865462,3022.543581485748
12:00:30,2,211,Pelham Pkwy,-73.867615,40.857192,2905.543581485748
12:00:30,2,212,Bronx Park East,-73.868457,40.848828,2794.5435814857474
13:50:30,1,213,E 180 St,-73.873488,40.841894,2424.971212387085
13:50:30,1,214,West Farms Sq-E Tremont Av,-73.880049,40.840295,2465.5435814857474
13:50:30,1,215,174 St,-73.887734,40.837288,2335.543581485748
13:50:30,1,216,Freeman St,-73.891865,40.829993,2212.543581485748
13:50:30,1,217,Simpson St,-73.893064,40.824073,2097.543581485748
13:50:30,1,218,Intervale Av,-73.896736,40.822181,2020.543581485748
13:50:30,1,219,Prospect Av,-73.90177,40.819585,1934.5435814857483
13:50:30,1,220,Jackson Av,-73.907807,40.81649,1834.5435814857483
12:10:30,2,221,3 Av-149 St,-73.917757,40.816109,1695.5435814857483
13:50:30,1,222,149 St-Grand Concourse,-73.926718,40.81841,1564.5435814857483
12:07:00,1,224,135 St,-73.94077,40.814229,1798.4607324600215
12:07:00,1,225,125 St,-73.945495,40.807754,1676.4607324600217
12:07:00,1,226,116 St,-73.949625,40.802098,1570.4607324600217
12:07:00,1,227,Central Park North (110 St),-73.951822,40.799075,1495.4607324600217
13:33:00,1,228,Park Place,-74.008811,40.713051,1560.0000000000002
12:03:00,1,229,Fulton St,-74.006571,40.709416,1679.0000000000002
12:03:00,1,230,Wall St,-74.0091,40.706821,1759.0000000000002
12:03:00,1,231,Clark St,-73.993086,40.697466,1953.0000000000002
12:03:00,1,232,Borough Hall,-73.989998,40.693219,2073.0000000000005
12:03:00,1,233,Hoyt St,-73.985065,40.690545,2169.0000000000005
12:33:00,1,234,Nevins St,-73.980492,40.688246,2274.0000000000005
12:03:00,1,235,Atlantic Av-Barclays Ctr,-73.977666,40.684359,2363.0000000000005
12:33:00,1,236,Bergen St,-73.975098,40.680829,2443.0000000000005
12:33:00,1,237,Grand Army Plaza,-73.971046,40.675235,2563.0000000000005
12:33:00,1,238,Eastern Pkwy-Brooklyn Museum,-73.964375,40.671987,2676.0000000000005
12:33:00,1,239,Franklin Av-Medgar Evers College,-73.958131,40.670682,2691.877047538758
12:33:00,1,241,President St-Medgar Evers College,-73.950683,40.667883,2913.121951103211
12:33:00,1,242,Sterling St,-73.95085,40.662742,3004.6219511032104
12:33:00,1,243,Winthrop St,-73.9502,40.656652,3114.1219511032114
12:33:00,1,244,Church Av,-73.949575,40.650843,3206.121951103211
12:33:00,1,245,Beverly Rd,-73.948959,40.645098,3298.121951103211
12:33:00,1,246,Newkirk Av-Little Haiti,-73.948411,40.639967,3390.121951103211
12:33:00,1,247,Flatbush Av-Brooklyn College,-73.947642,40.632836,3538.6219511032104
12:33:00,1,248,Nostrand Av,-73.950466,40.669847,2855.121951103211
12:33:00,1,249,Kingston Av,-73.942161,40.669399,2954.121951103211
12:33:00,1,250,Crown Hts-Utica Av,-73.932942,40.668897,3036.621951103211
12:33:00,1,251,Sutter Av-Rutland Rd,-73.92261,40.664717,3180.371951103211
12:33:00,1,252,Saratoga Av,-73.916327,40.661453,3300.871951103211
12:33:00,1,253,Rockaway Av,-73.908946,40.662549,3393.871951103211
12:33:00,1,254,Junius St,-73.902447,40.663515,3332.463413238526
12:33:00,1,255,Pennsylvania Av,-73.894895,40.664635,3437.463413238526
12:33:00,1,256,Van Siclen Av,-73.889395,40.665449,3522.7499988079076
12:33:00,1,257,New Lots Av,-73.884079,40.666235,3607.2499988079076
12:43:00,1,301,Harlem-148 St,-73.93647,40.82388,2080.710732460022
12:43:00,1,302,145 St,-73.936245,40.820421,1956.7107324600217
12:30:30,1,401,Woodlawn,-73.878751,40.886037,2238.413266181946
12:30:30,1,402,Mosholu Pkwy,-73.884655,40.87975,2103.413266181946
12:30:30,1,405,Bedford Park Blvd-Lehman College,-73.890064,40.873412,1974.4132661819458
12:30:30,1,406,Kingsbridge Rd,-73.897174,40.86776,1859.413266181946
12:30:30,1,407,Fordham Rd,-73.901034,40.862803,1765.413266181946
12:30:30,1,408,183 St,-73.903879,40.858407,1676.4132661819458
12:30:30,1,409,Burnside Av,-73.907684,40.853453,1570.413266181946
12:30:30,1,410,176 St,-73.911794,40.84848,1474.4132661819458
12:30:30,1,411,Mt Eden Av,-73.914685,40.844434,1389.4132661819458
12:30:30,1,412,170 St,-73.917791,40.840075,1302.4132661819458
12:30:30,1,413,167 St,-73.9214,40.835537,1206.4132661819458
12:30:30,1,414,161 St-Yankee Stadium,-73.925831,40.827994,1086.4132661819458
13:40:30,1,415,149 St-Grand Concourse,-73.927351,40.818375,1296.2212138175964
13:40:30,1,416,138 St-Grand Concourse,-73.929849,40.813224,1406.2212138175962
13:53:00,1,418,Fulton St,-74.009509,40.710368,1796.0
12:03:00,1,419,Wall St,-74.011862,40.707557,1881.0
12:03:00,1,420,Bowling Green,-74.014065,40.704817,1965.0
12:03:00,1,423,Borough Hall,-73.990151,40.692404,2243.0
13:40:30,1,501,Eastchester-Dyre Av,-73.830834,40.8883,3174.971212387085
13:50:30,1,502,Baychester Av,-73.838591,40.878663,3024.971212387085
13:50:30,1,503,Gun Hill Rd,-73.846384,40.869526,2874.971212387085
13:50:30,1,504,Pelham Pkwy,-73.855359,40.858985,2724.971212387085
13:50:30,1,505,Morris Park,-73.860495,40.854364,2634.971212387085
13:50:30,1,601,Pelham Bay Park,-73.828121,40.852462,3593.3640723228455
13:50:30,1,602,Buhre Av,-73.832569,40.84681,3382.8640723228455
13:50:30,1,603,Middletown Rd,-73.836322,40.843863,3304.8640723228455
13:50:30,1,604,Westchester Sq-E Tremont Av,-73.842952,40.839892,3150.3640723228455
13:50:30,1,606,Zerega Av,-73.847036,40.836488,3058.1140723228455
13:50:30,1,607,Castle Hill Av,-73.851222,40.834255,2984.1140723228455
13:50:30,1,608,Parkchester,-73.860816,40.833226,2748.1140723228455
13:50:30,1,609,St Lawrence Av,-73.867618,40.831509,2928.2083845138545
13:50:30,1,610,Morrison Av-Soundview,-73.874516,40.829521,2836.208384513855
13:50:30,1,611,Elder Av,-73.879159,40.828584,2762.208384513855
13:50:30,1,612,Whitlock Av,-73.886283,40.826525,2650.2083845138545
13:50:30,1,613,Hunts Point Av,-73.890549,40.820948,2417.3640723228455
13:40:30,1,614,Longwood Av,-73.896435,40.816104,2536.1735982894893
13:40:30,1,615,E 149 St,-73.904098,40.812118,2432.1735982894893
13:40:30,1,616,E 143 St-St Mary's St,-73.907657,40.808719,2348.1735982894893
13:40:30,1,617,Cypress Av,-73.914042,40.805368,2242.7095875740047
13:40:30,1,618,Brook Av,-73.91924,40.807566,2164.7095875740047
13:40:30,1,619,3 Av-138 St,-73.926138,40.810476,2040.3640723228455
13:40:30,1,621,125 St,-73.937594,40.804138,1598.2212138175962
13:50:30,1,622,116 St,-73.941617,40.798629,1931.7095875740051
13:53:00,1,623,110 St,-73.94425,40.79502,1943.0
13:53:00,1,624,103 St,-73.947478,40.7906,1860.0
13:53:00,1,625,96 St,-73.95107,40.785672,1765.0
13:53:00,1,626,86 St,-73.955589,40.779492,1483.5
13:53:00,1,627,77 St,-73.959874,40.77362,1553.0000000000002
13:53:00,1,628,68 St-Hunter College,-73.96387,40.768141,1453.0
13:53:00,1,629,59 St,-73.967967,40.762526,1251.0
13:53:00,1,630,51 St,-73.97192,40.757107,1235.0000000000002
12:07:00,1,631,Grand Central-42 St,-73.976848,40.751776,1101.0
12:07:00,1,632,33 St,-73.982076,40.746081,1224.0000000000002
12:07:00,1,633,28 St,-73.984264,40.74307,1296.0
12:07:00,1,634,23 St,-73.986599,40.739864,1371.0
13:53:00,1,635,14 St-Union Sq,-73.989951,40.734673,1368.0
12:03:00,1,636,Astor Pl,-73.99107,40.730054,1544.0
12:13:00,1,637,Bleecker St,-73.994659,40.725915,1641.7285723686218
12:13:00,1,638,Spring St,-73.997141,40.722301,1713.7285723686218
12:13:00,1,639,Canal St,-74.000193,40.718803,1764.0
12:03:00,1,640,Brooklyn Bridge-City Hall,-74.004131,40.713065,1673.0
12:13:00,1,701,Flushing-Main St,-73.83003,40.7596,2797.00000166893
12:13:00,1,702,Mets-Willets Point,-73.845625,40.754622,2637.0000016689305
12:13:00,1,705,111 St,-73.855334,40.75173,2672.00000166893
12:13:00,1,706,103 St-Corona Plaza,-73.8627,40.749865,2596.00000166893
12:13:00,1,707,Junction Blvd,-73.869527,40.749145,2402.25000166893
12:13:00,1,708,90 St-Elmhurst Av,-73.876613,40.748408,2453.1647384166718
12:13:00,1,709,82 St-Jackson Hts,-73.883697,40.747659,2377.1647384166718
12:13:00,1,710,74 St-Broadway,-73.891394,40.746848,2201.164738416672
12:13:00,1,711,69 St,-73.896403,40.746325,2109.164738416672
13:53:00,1,712,61 St-Woodside,-73.902984,40.74563,2028.1647384166722
13:53:00,1,713,52 St,-73.912549,40.744149,1897.0
13:53:00,1,714,46 St-Bliss St,-73.918435,40.743132,1838.0
13:53:00,1,715,40 St-Lowery St,-73.924016,40.743781,1779.0
13:53:00,1,716,33 St-Rawson St,-73.930997,40.744587,1696.0
13:53:00,1,718,Queensboro Plaza,-73.940202,40.750582,1553.0
12:03:00,1,719,Court Sq,-73.945264,40.747023,1449.0
12:13:00,1,720,Hunters Point Av,-73.948916,40.742216,1354.0
12:03:00,1,721,Vernon Blvd-Jackson Av,-73.953581,40.742626,1306.0
12:03:00,1,723,Grand Central-42 St,-73.976041,40.751431,1091.0
12:03:00,1,724,5 Av,-73.981963,40.753821,1006.0
12:03:00,1,725,Times Sq-42 St,-73.987691,40.755477,935.0
12:36:30,1,726,34 St-Hudson Yards,-74.00191,40.755882,1087.0
12:03:00,1,901,Grand Central-42 St,-73.979189,40.752769,986.0
12:03:00,1,902,Times Sq-42 St,-73.986229,40.755983,875.0
13:50:30,0,A02,Inwood-207 St,-73.919899,40.868072,1478.4132661819458
13:50:30,0,A03,Dyckman St,-73.927271,40.865491,1364.413266181946
13:50:30,0,A05,190 St,-73.93418,40.859022,1231.4132661819458
13:50:30,0,A06,181 St,-73.937969,40.851695,1111.4132661819458
13:50:30,0,A07,175 St,-73.939704,40.847391,996.4132661819458
12:00:30,0,A09,168 St,-73.939561,40.840719,866.4132661819458
13:58:30,0,A10,163 St-Amsterdam Av,-73.939892,40.836013,802.0
13:58:30,0,A11,155 St,-73.941514,40.830518,687.25
12:00:30,0,A12,145 St,-73.944216,40.824783,568.5
12:00:30,0,A14,135 St,-73.947649,40.817894,452.0
12:00:30,0,A15,125 St,-73.952343,40.811109,313.25
12:00:30,0,A16,116 St,-73.954882,40.805085,188.25
12:00:30,0,A17,Cathedral Pkwy (110 St),-73.958161,40.800603,78.25
12:00:30,0,A18,103 St,-73.961454,40.796092,0.0
12:03:00,0,A19,96 St,-73.964696,40.791642,108.0
12:03:00,0,A20,86 St,-73.968916,40.785868,225.0
12:03:00,0,A21,81 St-Museum of Natural History,-73.972143,40.781433,330.0
12:03:00,0,A22,72 St,-73.97641,40.775594,447.0
12:03:00,0,A24,59 St-Columbus Circle,-73.981736,40.768296,570.0
12:07:00,0,A25,50 St,-73.985984,40.762456,695.0
12:03:00,0,A27,42 St-Port Authority Bus Terminal,-73.989735,40.757308,815.0
12:03:00,0,A28,34 St-Penn Station,-73.993391,40.752287,935.0
12:07:00,0,A30,23 St,-73.998041,40.745906,1056.0
12:03:00,0,A31,14 St,-74.00169,40.740893,1166.0
12:03:00,0,A32,W 4 St-Wash Sq,-74.000495,40.732338,1291.0000000000002
12:03:00,0,A33,Spring St,-74.003739,40.726227,1411.0000000000002
12:03:00,0,A34,Canal St,-74.005229,40.720824,1465.2499999999998
12:03:00,0,A36,Chambers St,-74.008585,40.714111,1588.25
12:03:00,0,A38,Fulton St,-74.007691,40.710197,1708.25
12:03:00,0,A40,High St,-73.990531,40.699337,1898.25
12:03:00,0,A41,Jay St-MetroTech,-73.987342,40.692338,2028.25
12:03:00,0,A42,Hoyt-Schermerhorn Sts,-73.985001,40.688484,2153.25
12:17:00,0,A43,Lafayette Av,-73.973946,40.686113,2320.25
12:17:00,0,A44,Clinton-Washington Avs,-73.965838,40.683263,2420.25
12:17:00,0,A45,Franklin Av,-73.956848,40.68138,2583.039474964142
12:03:00,0,A46,Nostrand Av,-73.950426,40.680438,2527.25
12:17:00,0,A47,Kingston-Throop Avs,-73.940858,40.679921,2671.0
12:03:00,0,A48,Utica Av,-73.930729,40.679364,2707.25
12:17:00,0,A49,Ralph Av,-73.920786,40.678822,2853.0
12:17:00,0,A50,Rockaway Av,-73.911946,40.67834,2967.9999999999995
12:03:00,0,A51,Broadway Junction,-73.905316,40.678334,2940.6388883590703
12:03:00,0,A52,Liberty Av,-73.896548,40.674542,3097.6388883590703
12:03:00,0,A53,Van Siclen Av,-73.890358,40.67271,3208.0
12:03:00,0,A54,Shepherd Av,-73.88075,40.67413,3328.0
12:03:00,0,A55,Euclid Av,-73.872106,40.675377,3255.6388883590703
12:03:00,0,A57,Grant Av,-73.86505,40.677044,3380.6388883590703
12:03:00,0,A59,80 St,-73.858992,40.679371,3495.6388883590703
12:03:00,0,A60,88 St,-73.85147,40.679843,3613.6388883590703
12:03:00,0,A61,Rockaway Blvd,-73.843853,40.680429,3725.6388883590703
12:03:00,0,A63,104 St,-73.837683,40.681711,3835.6388883590707
12:03:00,0,A64,111 St,-73.832163,40.684331,3943.6388883590703
12:03:00,0,A65,Ozone Park-Lefferts Blvd,-73.825798,40.685951,4063.6388883590703
12:43:00,0,B04,21 St-Queensbridge,-73.942836,40.754203,1712.5
12:43:00,0,B06,Roosevelt Island,-73.95326,40.759145,1587.276073882916
12:43:00,0,B08,Lexington Av/63 St,-73.966113,40.764629,1316.75
12:43:00,0,B10,57 St,-73.97745,40.763972,1292.5
12:07:00,0,B12,9 Av,-73.994324,40.646292,3112.339623451233
12:07:00,0,B13,Fort Hamilton Pkwy,-73.994304,40.640914,3232.339623451233
12:07:00,0,B14,50 St,-73.994791,40.63626,3332.589623451233
12:07:00,0,B15,55 St,-73.995476,40.631435,3452.589623451233
12:07:00,0,B16,62 St,-73.996895,40.626472,3522.589623451233
12:07:00,0,B17,71 St,-73.998864,40.619589,3642.589623451233
12:07:00,0,B18,79 St,-74.00061,40.613501,3762.589623451233
12:07:00,0,B19,18 Av,-74.001736,40.607954,3867.5896234512334
12:07:00,0,B20,20 Av,-73.998168,40.604556,3972.5896234512334
12:07:00,0,B21,Bay Pkwy,-73.993728,40.601875,4064.5896234512334
13:47:00,0,B22,25 Av,-73.986829,40.597704,4189.589623451233
13:47:00,0,B23,Bay 50 St,-73.983765,40.588841,4439.589623451233
12:00:30,0,D01,Norwood-205 St,-73.878855,40.874811,1957.9132661819453
12:00:30,0,D03,Bedford Park Blvd,-73.887138,40.873244,1747.4132661819458
12:00:30,0,D04,Kingsbridge Rd,-73.893509,40.866978,1627.4132661819458
12:00:30,0,D05,Fordham Rd,-73.897749,40.861296,1511.4132661819458
12:00:30,0,D06,182-183 Sts,-73.900741,40.856093,1433.4132661819456
13:40:30,0,D07,Tremont Av,-73.905227,40.85041,1331.4132661819458
13:40:30,0,D08,174-175 Sts,-73.910136,40.8459,1250.0
13:40:30,0,D09,170 St,-73.9134,40.839306,1130.0
13:40:30,0,D10,167 St,-73.91844,40.833771,1009.9999999999999
13:40:30,0,D11,161 St-Yankee Stadium,-73.925651,40.827905,861.4132661819458
13:40:30,0,D12,155 St,-73.938209,40.830135,731.4132661819458
12:00:30,0,D13,145 St,-73.944216,40.824783,580.0
12:03:00,0,D14,7 Av,-73.981637,40.762862,737.5000000000001
12:03:00,0,D15,47-50 Sts-Rockefeller Ctr,-73.981329,40.758663,857.5000000000001
12:03:00,0,D16,42 St-Bryant Pk,-73.984569,40.754222,972.5000000000001
12:03:00,0,D17,34 St-Herald Sq,-73.987823,40.749719,1077.5000000000002
13:53:00,0,D18,23 St,-73.992821,40.742878,1385.5056178569796
13:53:00,0,D19,14 St,-73.996209,40.738228,1475.5056178569796
12:03:00,0,D20,W 4 St-Wash Sq,-74.000495,40.732338,1259.5
12:03:00,0,D21,Broadway-Lafayette St,-73.996204,40.725297,1429.5
12:03:00,0,D22,Grand St,-73.993753,40.718267,1589.5
12:03:00,0,D24,Atlantic Av-Barclays Ctr,-73.97689,40.68446,2294.0
12:03:00,0,D25,7 Av,-73.972367,40.67705,2454.0
12:03:00,0,D26,Prospect Park,-73.962246,40.661614,2672.0
12:03:00,0,D27,Parkside Av,-73.961495,40.655292,2786.9999999999995
12:03:00,0,D28,Church Av,-73.962982,40.650527,2861.5
13:43:00,0,D29,Beverley Rd,-73.964492,40.644031,2972.1904776096344
13:53:00,0,D30,Cortelyou Rd,-73.963891,40.640927,3072.1904776096344
12:03:00,0,D31,Newkirk Plaza,-73.962793,40.635082,3041.5
12:23:00,0,D32,Avenue H,-73.961639,40.62927,3159.8200008869176
12:23:00,0,D33,Avenue J,-73.960803,40.625039,3279.8200008869176
12:23:00,0,D34,Avenue M,-73.959399,40.617618,3399.8200008869176
12:03:00,0,D35,Kings Hwy,-73.957734,40.60867,3286.5000000000005
13:53:00,0,D37,Avenue U,-73.955929,40.5993,3528.5103120803838
13:53:00,0,D38,Neck Rd,-73.955161,40.595246,3649.5103120803838
12:03:00,0,D39,Sheepshead Bay,-73.954155,40.586896,3535.5000000000005
13:53:00,0,D40,Brighton Beach,-73.961376,40.577621,3729.5000000000005
13:53:00,0,D41,Ocean Pkwy,-73.968501,40.576312,3943.0
13:53:00,0,D42,W 8 St-NY Aquarium,-73.975939,40.576127,4066.0
13:53:00,0,D43,Coney Island-Stillwell Av,-73.981233,40.577422,4171.0
12:03:00,0,E01,World Trade Center,-74.009781,40.712582,1652.0419063568115
13:53:00,0,F01,Jamaica-179 St,-73.783817,40.712646,3272.5000000000005
13:13:00,0,F02,169 St,-73.793604,40.71047,3182.5000000000005
12:07:00,0,F03,Parsons Blvd,-73.803326,40.707564,3062.5000000000005
12:07:00,0,F04,Sutphin Blvd,-73.810708,40.70546,2972.5000000000005
12:07:00,0,F05,Briarwood,-73.820574,40.709179,2852.5000000000005
12:07:00,0,F06,Kew Gardens-Union Tpke,-73.831008,40.714441,2732.5000000000005
12:07:00,0,F07,75 Av,-73.837324,40.718331,2642.5000000000005
13:53:00,0,F09,Court Sq-23 St,-73.946,40.747846,1396.1647384166718
13:53:00,0,F11,Lexington Av/53 St,-73.969055,40.757552,1176.1647384166718
13:53:00,0,F12,5 Av/53 St,-73.975224,40.760167,1090.8333337306976
12:33:00,0,F14,2 Av,-73.989938,40.723402,1772.4999999999998
12:33:00,0,F15,Delancey St-Essex St,-73.988114,40.718611,1892.4999999999998
12:33:00,0,F16,East Broadway,-73.990173,40.713715,1992.0000000000002
12:33:00,0,F18,York St,-73.986751,40.701397,2172.0
12:33:00,0,F20,Bergen St,-73.990862,40.686145,2330.417703151703
12:33:00,0,F21,Carroll St,-73.995048,40.680303,2468.4351844787598
12:33:00,0,F22,Smith-9 Sts,-73.995959,40.67358,2643.4351844787593
12:33:00,0,F23,4 Av-9 St,-73.989779,40.670272,2713.0
12:33:00,0,F24,7 Av,-73.980305,40.666271,2583.25
12:33:00,0,F25,15 St-Prospect Park,-73.979493,40.660365,2751.4151389598846
12:33:00,0,F26,Fort Hamilton Pkwy,-73.975776,40.650782,2931.4151389598846
12:33:00,0,F27,Church Av,-73.979678,40.644041,2823.25
12:33:00,0,F29,Ditmas Av,-73.978172,40.636119,2943.25
12:33:00,0,F30,18 Av,-73.976971,40.629755,3063.25
12:33:00,0,F31,Avenue I,-73.976127,40.625322,3123.25
12:33:00,0,F32,Bay Pkwy,-73.975264,40.620769,3183.25
12:33:00,0,F33,Avenue N,-73.974197,40.61514,3303.25
12:33:00,0,F34,Avenue P,-73.973022,40.608944,3393.25
12:33:00,0,F35,Kings Hwy,-73.972361,40.603217,3674.0
13:17:00,0,F36,Avenue U,-73.973357,40.596063,3794.0
12:03:00,0,F38,Avenue X,-73.97425,40.58962,3914.0
12:03:00,0,F39,Neptune Av,-73.974574,40.581011,4038.5
12:53:00,0,G05,Jamaica Center-Parsons/Archer,-73.801109,40.702147,3284.5000000000005
13:53:00,0,G06,Sutphin Blvd-Archer Av-JFK Airport,-73.807969,40.700486,3164.5000000000005
13:53:00,0,G07,Jamaica-Van Wyck,-73.816859,40.702566,3039.5000000000005
12:07:00,0,G08,Forest Hills-71 Av,-73.844521,40.721691,2522.5000000000005
12:07:00,0,G09,67 Av,-73.852719,40.726523,2660.5
12:07:00,0,G10,63 Dr-Rego Park,-73.861604,40.729846,2684.3333337306976
12:07:00,0,G11,Woodhaven Blvd,-73.869229,40.733106,2565.3333337306976
12:07:00,0,G12,Grand Av-Newtown,-73.877223,40.737015,2445.3333337306976
12:07:00,0,G13,Elmhurst Av,-73.882017,40.742454,2328.8333337306976
12:07:00,0,G14,Jackson Hts-Roosevelt Av,-73.891338,40.746644,2102.5000000000005
12:07:00,0,G15,65 St,-73.898453,40.749669,2206.1773620228155
12:07:00,0,G16,Northern Blvd,-73.906006,40.752885,2111.847465115599
12:07:00,0,G18,46 St,-73.913333,40.756312,2021.8474651155989
12:07:00,0,G19,Steinway St,-73.92074,40.756879,1904.9402486207537
12:07:00,0,G20,36 St,-73.928781,40.752039,1784.9402486207537
13:53:00,0,G21,Queens Plaza,-73.937243,40.748973,1518.1647384166718
12:07:00,1,G22,Court Sq,-73.943832,40.746554,1456.1647384166718
12:07:00,1,G24,21 St,-73.949724,40.744065,1571.164738416672
12:07:00,1,G26,Greenpoint Av,-73.954449,40.731352,1731.164738416672
12:07:00,1,G28,Nassau Av,-73.951277,40.724635,1851.164738416672
12:07:00,1,G29,Metropolitan Av,-73.951418,40.712792,2005.2142841815948
12:07:00,1,G30,Broadway,-73.950308,40.706092,2125.714284181595
12:07:00,1,G31,Flushing Av,-73.950234,40.700377,2235.714284181595
12:07:00,1,G32,Myrtle-Willoughby Avs,-73.949046,40.694568,2330.7142841815953
12:07:00,1,G33,Bedford-Nostrand Avs,-73.953522,40.689627,2450.7142841815953
12:07:00,1,G34,Classon Av,-73.96007,40.688873,2549.714284181595
12:07:00,1,G35,Clinton-Washington Avs,-73.966839,40.688089,2631.3482122421265
13:37:30,0,G36,Fulton St,-73.975375,40.687119,2516.3482122421265
12:27:00,0,H01,Aqueduct Racetrack,-73.834058,40.668234,3950.63888835907
13:23:00,0,H02,Aqueduct-N Conduit Av,-73.834058,40.668234,4049.999999999999
13:23:00,0,H03,Howard Beach-JFK Airport,-73.830301,40.660476,4175.63888835907
13:23:00,0,H04,Broad Channel,-73.815925,40.608382,4658.63888835907
13:23:00,0,H06,Beach 67 St,-73.796924,40.590927,5014.249999999999
13:23:00,0,H07,Beach 60 St,-73.788522,40.592374,5134.249999999999
13:23:00,0,H08,Beach 44 St,-73.776013,40.592943,5254.249999999999
13:23:00,0,H09,Beach 36 St,-73.768175,40.595398,5371.249999999999
13:23:00,0,H10,Beach 25 St,-73.761353,40.600066,5490.249999999999
13:23:00,0,H11,Far Rockaway-Mott Av,-73.755405,40.603995,5561.249999999999
13:53:00,0,H12,Beach 90 St,-73.813641,40.588034,4955.63888835907
13:53:00,0,H13,Beach 98 St,-73.820558,40.585307,5070.63888835907
13:53:00,0,H14,Beach 105 St,-73.827559,40.583209,5178.63888835907
13:53:00,0,H15,Rockaway Park-Beach 116 St,-73.835592,40.580903,5298.63888835907
12:13:00,0,J12,121 St,-73.828294,40.700492,3569.2500000000005
12:13:00,0,J13,111 St,-73.836345,40.697418,3644.5000000000005
12:13:00,0,J14,104 St,-73.84433,40.695178,3750.6388883590703
12:13:00,0,J15,Woodhaven Blvd,-73.851576,40.693879,3660.6388883590703
12:13:00,0,J16,85 St-Forest Pkwy,-73.86001,40.692435,3771.6388883590703
12:13:00,0,J17,75 St-Elderts Ln,-73.867139,40.691324,3480.6388883590703
12:13:00,0,J19,Cypress Hills,-73.87255,40.689941,3591.6388883590703
12:53:00,0,J20,Crescent St,-73.873785,40.683194,3330.6388883590703
12:53:00,0,J21,Norwood Av,-73.880039,40.68141,3240.6388883590703
12:53:00,0,J22,Cleveland St,-73.884639,40.679947,3283.6388883590703
12:53:00,0,J23,Van Siclen Av,-73.891688,40.678024,3090.6388883590703
12:53:00,0,J24,Alabama Av,-73.898654,40.676992,3030.6388883590703
12:53:00,0,J27,Broadway Junction,-73.904512,40.679498,2940.6388883590703
12:53:00,0,J28,Chauncey St,-73.910456,40.682893,3000.6388883590703
12:53:00,0,J29,Halsey St,-73.916559,40.68637,3048.941173315048
12:53:00,0,J30,Gates Av,-73.92227,40.68963,2868.4999988079066
12:53:00,0,J31,Kosciuszko St,-73.928814,40.693342,2858.7211530208588
13:53:00,1,L01,8 Av,-74.002578,40.739777,1226.0
12:03:00,1,L02,6 Av,-73.996786,40.737335,1301.0
12:03:00,1,L03,14 St-Union Sq,-73.99073,40.734789,1409.0
12:03:00,1,L05,3 Av,-73.986122,40.732849,1457.0
12:03:00,1,L06,1 Av,-73.981628,40.730953,1511.0
12:03:00,1,L08,Bedford Av,-73.956872,40.717304,1716.0
12:03:00,1,L10,Lorimer St,-73.950275,40.714063,1792.0
12:03:00,1,L11,Graham Av,-73.944053,40.714565,1837.0
12:03:00,1,L12,Grand St,-73.94067,40.711926,1932.0000000000002
12:03:00,1,L13,Montrose Av,-73.93985,40.707739,1975.0000000000002
12:03:00,1,L14,Morgan Av,-73.933147,40.706152,2061.0
12:03:00,1,L15,Jefferson St,-73.922913,40.706607,2173.0
12:03:00,1,L16,DeKalb Av,-73.918425,40.703811,2244.0
12:03:00,1,L17,Myrtle-Wyckoff Avs,-73.911586,40.699814,2314.0
12:03:00,1,L19,Halsey St,-73.904084,40.695602,2386.0
12:03:00,1,L20,Wilson Av,-73.904046,40.688764,2526.0
12:03:00,1,L21,Bushwick Av-Aberdeen St,-73.905249,40.682829,2599.0
12:03:00,1,L22,Broadway Junction,-73.90324,40.678856,2723.0000000000005
12:03:00,1,L24,Atlantic Av,-73.903097,40.675345,2823.0000000000005
12:03:00,1,L25,Sutter Av,-73.901975,40.669367,2913.0000000000005
12:03:00,1,L26,Livonia Av,-73.900571,40.664038,3001.0000000000005
12:03:00,1,L27,New Lots Av,-73.899232,40.658733,3076.9610397815695
12:03:00,1,L28,East 105 St,-73.899485,40.650573,3207.9610397815695
13:53:00,1,L29,Canarsie-Rockaway Pkwy,-73.90185,40.646654,3350.9610397815695
13:23:00,0,M01,Middle Village-Metropolitan Av,-73.889601,40.711396,2992.240384340286
13:13:00,0,M04,Fresh Pond Rd,-73.895877,40.706186,2875.4563107490535
13:23:00,0,M05,Forest Av,-73.903077,40.704423,2757.990384340286
13:13:00,0,M06,Seneca Av,-73.90774,40.702762,2642.9903843402863
13:13:00,0,M08,Myrtle-Wyckoff Avs,-73.912385,40.69943,2540.456310749054
12:43:00,0,M09,Knickerbocker Av,-73.919711,40.698664,2658.456310749054
13:13:00,0,M10,Central Av,-73.927397,40.697857,2781.4563107490535
12:43:00,0,M11,Myrtle Av,-73.935657,40.697207,2678.499998807907
12:43:00,0,M12,Flushing Av,-73.941126,40.70026,2590.6818175315857
12:43:00,0,M13,Lorimer St,-73.947408,40.703869,2470.6818175315857
12:43:00,0,M14,Hewes St,-73.953431,40.70687,2357.6818175315857
12:43:00,0,M16,Marcy Av,-73.957757,40.708359,2257.6818175315857
12:43:00,0,M18,Delancey St-Essex St,-73.987437,40.718315,1880.6818175315857
12:13:00,0,M19,Bowery,-73.993915,40.72028,1869.7211530208588
12:13:00,0,M20,Canal St,-73.999892,40.718092,1749.7211530208588
12:13:00,0,M21,Chambers St,-74.003401,40.713243,1825.5
12:13:00,0,M22,Fulton St,-74.007582,40.710374,1933.5
13:37:30,1,M23,Broad St,-74.011056,40.706476,1999.5000000000002
12:03:00,1,N02,8 Av,-74.011719,40.635064,3254.0
12:03:00,1,N03,Fort Hamilton Pkwy,-74.005351,40.631386,3400.5000000000005
12:03:00,1,N04,New Utrecht Av,-73.996353,40.624842,3521.5
12:03:00,1,N05,18 Av,-73.990414,40.620671,3636.5
12:03:00,1,N06,20 Av,-73.985026,40.61741,3746.5
12:03:00,1,N07,Bay Pkwy,-73.981848,40.611815,3861.5
12:03:00,1,N08,Kings Hwy,-73.980353,40.603923,3981.5
12:03:00,1,N09,Avenue U,-73.979137,40.597473,4098.5
12:03:00,1,N10,86 St,-73.97823,40.592721,4219.5
12:03:00,1,Q01,Canal St,-74.00046,40.718383,1524.0
12:43:00,0,Q03,72 St,-73.958424,40.768799,1446.75
12:43:00,0,Q04,86 St,-73.951787,40.777891,1571.75
12:43:00,0,Q05,96 St,-73.947152,40.784318,1684.75
12:43:00,0,R01,Astoria-Ditmars Blvd,-73.912034,40.775036,2355.00000166893
12:43:00,0,R03,Astoria Blvd,-73.917843,40.770258,2246.75000166893
12:43:00,0,R04,30 Av,-73.921479,40.766779,2129.75000166893
12:43:00,0,R05,Broadway,-73.925508,40.76182,2018.00000166893
12:43:00,0,R06,36 Av,-73.929575,40.756804,1899.00000166893
12:43:00,0,R08,39 Av-Dutch Kills,-73.932755,40.752882,1777.00000166893
12:43:00,0,R09,Queensboro Plaza,-73.940202,40.750582,1600.00000166893
12:43:00,0,R11,Lexington Av/59 St,-73.967258,40.76266,1458.0
12:43:00,0,R13,5 Av/59 St,-73.973347,40.764811,1340.0
12:43:00,0,R14,57 St-7 Av,-73.980658,40.764664,1121.75
12:03:00,1,R15,49 St,-73.984139,40.759901,1050.0
12:03:00,1,R16,Times Sq-42 St,-73.986754,40.754672,935.0
12:03:00,1,R17,34 St-Herald Sq,-73.98795,40.749567,1054.0
12:07:00,1,R18,28 St,-73.988691,40.745494,1155.0000000000002
12:07:00,1,R19,23 St,-73.989344,40.741303,1260.0000000000002
12:03:00,1,R20,14 St-Union Sq,-73.990568,40.735736,1234.0
13:37:30,1,R21,8 St-NYU,-73.992629,40.730328,1493.0000000000002
13:37:30,1,R22,Prince St,-73.997702,40.724329,1614.0000000000002
13:37:30,1,R23,Canal St,-74.001775,40.719527,1734.0000000000002
12:03:00,1,R24,City Hall,-74.006978,40.713282,1867.3571417331693
12:03:00,1,R25,Cortlandt St,-74.011029,40.710668,1730.3571417331696
12:03:00,1,R26,Rector St,-74.013342,40.70722,1851.3571417331693
12:03:00,1,R27,Whitehall St-South Ferry,-74.012994,40.703087,1961.3571417331696
13:37:30,1,R28,Court St,-73.991777,40.6941,2182.6071417331696
12:23:00,0,R29,Jay St-MetroTech,-73.985942,40.69218,2163.25
12:03:00,0,R30,DeKalb Av,-73.981824,40.690635,2114.0
12:07:00,0,R31,Atlantic Av-Barclays Ctr,-73.97881,40.683666,2247.0
12:07:00,0,R32,Union St,-73.98311,40.677316,2368.0
12:07:00,0,R33,4 Av-9 St,-73.988302,40.670847,2488.0
12:07:00,0,R34,Prospect Av,-73.992872,40.665414,2608.0
12:07:00,0,R35,25 St,-73.998091,40.660397,2733.0000000000005
12:07:00,0,R36,36 St,-74.003549,40.655144,2713.0
12:07:00,0,R39,45 St,-74.010006,40.648939,2903.0
12:07:00,0,R40,53 St,-74.014034,40.645069,3018.0
12:03:00,1,R41,59 St,-74.017881,40.641362,3073.0
12:07:00,0,R42,Bay Ridge Av,-74.023377,40.634967,3238.5405402183533
12:07:00,0,R43,77 St,-74.02551,40.629742,3341.5405402183533
12:07:00,0,R44,86 St,-74.028398,40.622687,3521.5405402183533
12:17:00,0,R45,Bay Ridge-95 St,-74.030876,40.616622,3592.5405402183533
12:03:00,0,S01,Franklin Av,-73.955827,40.680596,2643.039474964142
12:03:00,0,S03,Park Pl,-73.957624,40.674772,2764.039474964142
12:03:00,0,S04,Botanic Garden,-73.959245,40.670343,2897.5
