start_time,ntransfers,stop_id,stop_name,stop_lon,stop_lat,duration
12:55:00,1,101,Van Cortlandt Park-242 St,-73.898583,40.889248,4629.989131212235
12:55:00,1,103,238 St,-73.90087,40.884667,4510.739131212235
12:55:00,1,104,231 St,-73.904834,40.878856,4408.739131212235
12:55:00,1,106,Marble Hill-225 St,-73.909831,40.874561,4308.7391312122345
12:55:00,1,107,215 St,-73.915279,40.869444,4204.282720565795
12:55:00,1,108,207 St,-73.918822,40.864621,4108.4891312122345
12:55:00,1,109,Dyckman St,-73.925536,40.860531,4001.4891312122345
12:55:00,1,110,191 St,-73.929412,40.855225,3910.489131212235
12:55:00,1,111,181 St,-73.933596,40.849505,3808.4891312122345
12:55:00,1,112,168 St-Washington Hts,-73.940133,40.840556,3682.4891312122345
12:55:00,1,113,157 St,-73.94489,40.834041,3653.4809193611145
12:55:00,1,114,145 St,-73.95036,40.826551,3532.480919361115
12:55:00,1,115,137 St-City College,-73.953676,40.822008,3430.4809193611145
12:55:00,1,116,125 St,-73.958372,40.815581,3322.480919361115
12:55:00,1,117,116 St-Columbia University,-73.96411,40.807722,3203.480919361114
12:55:00,1,118,Cathedral Pkwy (110 St),-73.966847,40.803967,3124.4809193611145
12:55:00,1,119,103 St,-73.968379,40.799446,3040.480919361114
12:03:00,1,120,96 St,-73.972323,40.793919,2718.25
12:11:00,1,121,86 St,-73.976218,40.788644,2810.4809193611145
12:11:00,1,122,79 St,-73.979917,40.783934,2721.4809193611145
12:03:00,1,123,72 St,-73.98197,40.778453,2519.25
12:03:00,1,124,66 St-Lincoln Center,-73.982209,40.77344,2583.0
12:03:00,1,125,59 St-Columbus Circle,-73.981929,40.768247,2494.9999999999995
12:03:00,1,126,50 St,-73.983849,40.761728,2380.0
12:55:00,1,127,Times Sq-42 St,-73.987495,40.75529,2264.0
12:15:00,1,128,34 St-Penn Station,-73.991057,40.750373,2309.292517185211
12:25:00,1,129,28 St,-73.993365,40.747215,2460.0
12:03:00,1,130,23 St,-73.995657,40.744081,2502.292517185211
12:03:00,1,131,18 St,-73.997871,40.74104,2430.292517185211
12:03:00,1,132,14 St,-74.000201,40.737826,2143.292517185211
12:55:00,1,133,Christopher St-Sheridan Sq,-74.002906,40.733422,2427.9597074985504
12:55:00,1,134,Houston St,-74.005367,40.728251,2336.9597074985504
12:55:00,1,135,Canal St,-74.006277,40.722854,2243.9597074985504
12:55:00,1,136,Franklin St,-74.006886,40.719318,2173.9597074985504
12:03:00,1,137,Chambers St,-74.009266,40.715478,1881.6904776096344
12:11:00,1,138,WTC Cortlandt,-74.012188,40.711835,2028.1904776096346
12:11:00,1,139,Rector St,-74.013783,40.707513,1946.1904776096346
12:11:00,1,142,South Ferry,-74.013664,40.702068,1840.1904776096344
13:45:00,1,201,Wakefield-241 St,-73.85062,40.903125,5651.01190328598
13:45:00,1,204,Nereid Av,-73.854376,40.898379,5395.01190328598
13:45:00,1,205,233 St,-73.857473,40.893193,5247.01190328598
13:45:00,1,206,225 St,-73.860341,40.888022,5148.51190328598
13:45:00,1,207,219 St,-73.862633,40.883895,5064.511903285979
13:45:00,1,208,Gun Hill Rd,-73.866256,40.87785,4951.76190328598
13:45:00,1,209,Burke Av,-73.867164,40.871356,5050.511903285979
13:45:00,1,210,Allerton Av,-73.867352,40.865462,5014.011905670167
13:45:00,1,211,Pelham Pkwy,-73.867615,40.857192,4900.011905670167
13:45:00,1,212,Bronx Park East,-73.868457,40.848828,4771.011905670167
13:45:00,1,213,E 180 St,-73.873488,40.841894,4417.5
12:25:00,1,214,West Farms Sq-E Tremont Av,-73.880049,40.840295,4364.01190328598
12:25:00,1,215,174 St,-73.887734,40.837288,4233.011903285979
12:25:00,1,216,Freeman St,-73.891865,40.829993,4108.01190328598
12:25:00,1,217,Simpson St,-73.893064,40.824073,3992.0119032859798
13:45:00,1,218,Intervale Av,-73.896736,40.822181,3913.0119032859798
13:45:00,1,219,Prospect Av,-73.90177,40.819585,3825.0119032859798
12:25:00,1,220,Jackson Av,-73.907807,40.81649,3721.0119032859798
13:45:00,1,221,3 Av-149 St,-73.917757,40.816109,3580.0119032859798
12:25:00,1,222,149 St-Grand Concourse,-73.926718,40.81841,3444.0119032859798
12:03:00,1,224,135 St,-73.94077,40.814229,3292.0
12:03:00,1,225,125 St,-73.945495,40.807754,3177.0
12:03:00,1,226,116 St,-73.949625,40.802098,3070.0000000000005
12:03:00,1,227,Central Park North (110 St),-73.951822,40.799075,2991.0
12:03:00,1,228,Park Place,-74.008811,40.713051,1787.6904776096344
12:03:00,1,229,Fulton St,-74.006571,40.709416,1667.6904776096344
12:03:00,1,230,Wall St,-74.0091,40.706821,1588.6904776096344
12:03:00,1,231,Clark St,-73.993086,40.697466,1381.2925171852112
12:03:00,1,232,Borough Hall,-73.989998,40.693219,1269.6904776096344
12:03:00,1,233,Hoyt St,-73.985065,40.690545,1176.6904776096344
12:15:00,1,234,Nevins St,-73.980492,40.688246,1074.6904776096344
12:25:00,1,235,Atlantic Av-Barclays Ctr,-73.977666,40.684359,987.6904776096344
12:25:00,1,236,Bergen St,-73.975098,40.680829,1068.6904776096346
12:15:00,1,237,Grand Army Plaza,-73.971046,40.675235,1023.6904776096345
12:15:00,1,238,Eastern Pkwy-Brooklyn Museum,-73.964375,40.671987,923.6904776096345
12:15:00,1,239,Franklin Av-Medgar Evers College,-73.958131,40.670682,811.6904776096344
12:25:00,1,241,President St-Medgar Evers College,-73.950683,40.667883,984.6904776096344
12:25:00,1,242,Sterling St,-73.95085,40.662742,1078.6904776096344
12:25:00,1,243,Winthrop St,-73.9502,40.656652,1178.1904776096344
12:25:00,1,244,Church Av,-73.949575,40.650843,1268.1904776096344
12:25:00,1,245,Beverly Rd,-73.948959,40.645098,1362.1904776096344
12:25:00,1,246,Newkirk Av-Little Haiti,-73.948411,40.639967,1454.1904776096346
12:25:00,1,247,Flatbush Av-Brooklyn College,-73.947642,40.632836,1611.1904776096346
12:25:00,1,248,Nostrand Av,-73.950466,40.669847,926.6904776096344
12:25:00,1,249,Kingston Av,-73.942161,40.669399,1023.6904776096343
12:15:00,1,250,Crown Hts-Utica Av,-73.932942,40.668897,1089.6904776096344
12:25:00,1,251,Sutter Av-Rutland Rd,-73.92261,40.664717,1241.6904776096344
12:25:00,1,252,Saratoga Av,-73.916327,40.661453,1351.6904776096344
12:25:00,1,253,Rockaway Av,-73.908946,40.662549,1440.6904776096344
12:25:00,1,254,Junius St,-73.902447,40.663515,1526.6904776096344
12:25:00,1,255,Pennsylvania Av,-73.894895,40.664635,1630.6904776096346
12:25:00,1,256,Van Siclen Av,-73.889395,40.665449,1712.6904776096346
12:25:00,1,257,New Lots Av,-73.884079,40.666235,1804.4404776096344
12:03:00,1,301,Harlem-148 St,-73.93647,40.82388,3606.2500000000005
12:03:00,1,302,145 St,-73.936245,40.820421,3447.2500000000005
12:03:00,1,401,Woodlawn,-73.878751,40.886037,4881.843132019042
12:03:00,1,402,Mosholu Pkwy,-73.884655,40.87975,4707.178282022476
12:03:00,1,405,Bedford Park Blvd-Lehman College,-73.890064,40.873412,4590.678282022476
12:03:00,1,406,Kingsbridge Rd,-73.897174,40.86776,4470.678282022476
12:03:00,1,407,Fordham Rd,-73.901034,40.862803,4369.678282022476
12:03:00,1,408,183 St,-73.903879,40.858407,4282.678282022476
12:03:00,1,409,Burnside Av,-73.907684,40.853453,4179.678282022476
12:03:00,1,410,176 St,-73.911794,40.84848,4097.678282022476
12:03:00,1,411,Mt Eden Av,-73.914685,40.844434,4016.6782820224767
12:03:00,1,412,170 St,-73.917791,40.840075,3931.6782820224767
12:03:00,1,413,167 St,-73.9214,40.835537,3837.678282022476
12:03:00,1,414,161 St-Yankee Stadium,-73.925831,40.827994,3632.928282022476
12:03:00,1,415,149 St-Grand Concourse,-73.927351,40.818375,3451.928282022476
12:25:00,1,416,138 St-Grand Concourse,-73.929849,40.813224,3251.7619032859798
12:15:00,1,418,Fulton St,-74.009509,40.710368,1703.0119032859802
12:15:00,1,419,Wall St,-74.011862,40.707557,1617.26190328598
12:15:00,1,420,Bowling Green,-74.014065,40.704817,1532.2925171852112
12:15:00,1,423,Borough Hall,-73.990151,40.692404,1222.2619032859805
13:45:00,1,501,Eastchester-Dyre Av,-73.830834,40.8883,5167.5
13:45:00,1,502,Baychester Av,-73.838591,40.878663,5017.5
13:45:00,1,503,Gun Hill Rd,-73.846384,40.869526,4867.5
13:45:00,1,504,Pelham Pkwy,-73.855359,40.858985,4717.5
13:45:00,1,505,Morris Park,-73.860495,40.854364,4627.5
12:11:00,1,601,Pelham Bay Park,-73.828121,40.852462,5059.904761791229
12:11:00,1,602,Buhre Av,-73.832569,40.84681,4849.404761791228
12:11:00,1,603,Middletown Rd,-73.836322,40.843863,4771.404761791229
12:11:00,1,604,Westchester Sq-E Tremont Av,-73.842952,40.839892,4616.904761791228
12:11:00,1,606,Zerega Av,-73.847036,40.836488,4524.654761791229
12:11:00,1,607,Castle Hill Av,-73.851222,40.834255,4450.654761791229
12:11:00,1,608,Parkchester,-73.860816,40.833226,4214.654761791228
12:11:00,1,609,St Lawrence Av,-73.867618,40.831509,4394.749073982238
12:11:00,1,610,Morrison Av-Soundview,-73.874516,40.829521,4302.749073982238
12:11:00,1,611,Elder Av,-73.879159,40.828584,4228.749073982238
12:11:00,1,612,Whitlock Av,-73.886283,40.826525,4116.749073982239
12:11:00,1,613,Hunts Point Av,-73.890549,40.820948,3883.9047617912283
12:25:00,1,614,Longwood Av,-73.896435,40.816104,4002.7142877578735
12:25:00,1,615,E 149 St,-73.904098,40.812118,3898.7142877578735
12:25:00,1,616,E 143 St-St Mary's St,-73.907657,40.808719,3814.714287757873
12:25:00,1,617,Cypress Av,-73.914042,40.805368,3709.250277042388
12:25:00,1,618,Brook Av,-73.91924,40.807566,3631.2502770423885
12:25:00,1,619,3 Av-138 St,-73.926138,40.810476,3506.904761791229
12:25:00,1,621,125 St,-73.937594,40.804138,3064.7619032859798
12:25:00,1,622,116 St,-73.941617,40.798629,3351.130955219268
12:25:00,1,623,110 St,-73.94425,40.79502,3266.1309552192683
12:25:00,1,624,103 St,-73.947478,40.7906,3180.1309552192683
12:25:00,1,625,96 St,-73.95107,40.785672,3085.1309552192683
12:25:00,1,626,86 St,-73.955589,40.779492,2740.7619032859798
12:25:00,1,627,77 St,-73.959874,40.77362,2875.1309552192683
12:25:00,1,628,68 St-Hunter College,-73.96387,40.768141,2778.1309552192683
12:25:00,1,629,59 St,-73.967967,40.762526,2538.7619032859798
12:25:00,1,630,51 St,-73.97192,40.757107,2564.0
12:25:00,1,631,Grand Central-42 St,-73.976848,40.751776,2365.7619032859798
12:03:00,1,632,33 St,-73.982076,40.746081,2308.8809552192683
12:03:00,1,633,28 St,-73.984264,40.74307,2237.8809552192683
12:03:00,1,634,23 St,-73.986599,40.739864,2162.8809552192683
12:15:00,1,635,14 St-Union Sq,-73.989951,40.734673,2016.8809552192688
12:11:00,1,636,Astor Pl,-73.99107,40.730054,1929.9190499782562
12:25:00,1,637,Bleecker St,-73.994659,40.725915,1826.9190499782562
12:25:00,1,638,Spring St,-73.997141,40.722301,1879.0000000000002
12:03:00,1,639,Canal St,-74.000193,40.718803,1795.0000000000002
12:15:00,1,640,Brooklyn Bridge-City Hall,-74.004131,40.713065,1828.01190328598
12:33:00,1,701,Flushing-Main St,-73.83003,40.7596,4082.9306592941284
12:33:00,1,702,Mets-Willets Point,-73.845625,40.754622,3887.3333347524913
12:33:00,1,705,111 St,-73.855334,40.75173,3908.1904776096344
12:33:00,1,706,103 St-Corona Plaza,-73.8627,40.749865,3832.1904776096344
12:33:00,1,707,Junction Blvd,-73.869527,40.749145,3640.1904776096344
12:33:00,1,708,90 St-Elmhurst Av,-73.876613,40.748408,3723.8827857971182
12:33:00,1,709,82 St-Jackson Hts,-73.883697,40.747659,3631.4629912376404
12:11:00,1,710,74 St-Broadway,-73.891394,40.746848,3471.8827857971187
12:11:00,1,711,69 St,-73.896403,40.746325,3379.8827857971187
12:11:00,1,712,61 St-Woodside,-73.902984,40.74563,3298.8827857971187
12:11:00,1,713,52 St,-73.912549,40.744149,3203.8827857971187
12:11:00,1,714,46 St-Bliss St,-73.918435,40.743132,3140.8827857971187
12:11:00,1,715,40 St-Lowery St,-73.924016,40.743781,3077.8827857971187
12:11:00,1,716,33 St-Rawson St,-73.930997,40.744587,3006.882785797119
12:03:00,1,718,Queensboro Plaza,-73.940202,40.750582,2836.1904776096344
12:03:00,1,719,Court Sq,-73.945264,40.747023,2741.4404776096344
12:03:00,1,720,Hunters Point Av,-73.948916,40.742216,2651.9404776096344
12:03:00,1,721,Vernon Blvd-Jackson Av,-73.953581,40.742626,2614.4404776096344
12:03:00,1,723,Grand Central-42 St,-73.976041,40.751431,2400.6904776096344
12:03:00,1,724,5 Av,-73.981963,40.753821,2324.6904776096344
12:15:00,1,725,Times Sq-42 St,-73.987691,40.755477,2264.0
12:11:00,1,726,34 St-Hudson Yards,-74.00191,40.755882,2416.0
12:11:00,1,901,Grand Central-42 St,-73.979189,40.752769,2315.0
12:11:00,1,902,Times Sq-42 St,-73.986229,40.755983,2204.0
13:45:00,0,A02,Inwood-207 St,-73.919899,40.868072,4069.0
13:45:00,0,A03,Dyckman St,-73.927271,40.865491,3954.9999999999995
13:45:00,0,A05,190 St,-73.93418,40.859022,3821.9999999999995
13:45:00,0,A06,181 St,-73.937969,40.851695,3701.9999999999995
13:45:00,0,A07,175 St,-73.939704,40.847391,3587.0
13:45:00,0,A09,168 St,-73.939561,40.840719,3457.0
13:45:00,0,A10,163 St-Amsterdam Av,-73.939892,40.836013,3482.157896280289
13:45:00,0,A11,155 St,-73.941514,40.830518,3377.157896280289
13:45:00,0,A12,145 St,-73.944216,40.824783,3202.0
12:15:00,0,A14,135 St,-73.947649,40.817894,3090.0
13:45:00,0,A15,125 St,-73.952343,40.811109,2962.0
12:15:00,0,A16,116 St,-73.954882,40.805085,3122.1578962802887
12:15:00,0,A17,Cathedral Pkwy (110 St),-73.958161,40.800603,3179.0
12:15:00,0,A18,103 St,-73.961454,40.796092,3072.1904776096344
12:15:00,0,A19,96 St,-73.964696,40.791642,2962.1904776096344
12:15:00,0,A20,86 St,-73.968916,40.785868,2844.1904776096344
12:15:00,0,A21,81 St-Museum of Natural History,-73.972143,40.781433,2726.190477609634
12:15:00,0,A22,72 St,-73.97641,40.775594,2613.190477609634
12:15:00,0,A24,59 St-Columbus Circle,-73.981736,40.768296,2444.0
13:35:00,0,A25,50 St,-73.985984,40.762456,2383.0
12:15:00,1,A27,42 St-Port Authority Bus Terminal,-73.989735,40.757308,2264.0
12:15:00,1,A28,34 St-Penn Station,-73.993391,40.752287,2322.6904776096344
13:05:00,1,A30,23 St,-73.998041,40.745906,2254.6904776096344
13:53:00,1,A31,14 St,-74.00169,40.740893,2139.6904776096344
13:53:00,1,A32,W 4 St-Wash Sq,-74.000495,40.732338,2019.6904776096346
13:13:00,1,A33,Spring St,-74.003739,40.726227,2127.4047617912297
13:53:00,1,A34,Canal St,-74.005229,40.720824,2006.6904776096344
13:53:00,1,A36,Chambers St,-74.008585,40.714111,1871.8467264175413
13:53:00,1,A38,Fulton St,-74.007691,40.710197,1753.8467264175415
13:53:00,1,A40,High St,-73.990531,40.699337,1568.8467264175415
13:53:00,1,A41,Jay St-MetroTech,-73.987342,40.692338,1441.1904776096344
13:05:00,1,A42,Hoyt-Schermerhorn Sts,-73.985001,40.688484,1324.6904776096346
13:05:00,1,A43,Lafayette Av,-73.973946,40.686113,1161.6904776096346
13:05:00,1,A44,Clinton-Washington Avs,-73.965838,40.683263,1054.6904776096344
12:15:00,1,A45,Franklin Av,-73.956848,40.68138,937.6904776096345
13:05:00,1,A46,Nostrand Av,-73.950426,40.680438,1039.6904776096344
13:05:00,1,A47,Kingston-Throop Avs,-73.940858,40.679921,1157.6904776096344
13:05:00,1,A48,Utica Av,-73.930729,40.679364,1274.6904776096344
13:05:00,1,A49,Ralph Av,-73.920786,40.678822,1394.6904776096344
13:05:00,1,A50,Rockaway Av,-73.911946,40.67834,1509.6904776096344
12:25:00,1,A51,Broadway Junction,-73.905316,40.678334,1568.532583475113
12:15:00,1,A52,Liberty Av,-73.896548,40.674542,1717.2084615230558
12:15:00,1,A53,Van Siclen Av,-73.890358,40.67271,1822.2084615230558
12:15:00,1,A54,Shepherd Av,-73.88075,40.67413,1942.2084615230558
12:25:00,1,A55,Euclid Av,-73.872106,40.675377,1883.532583475113
12:25:00,1,A57,Grant Av,-73.86505,40.677044,2008.532583475113
12:25:00,1,A59,80 St,-73.858992,40.679371,2123.532583475113
12:25:00,1,A60,88 St,-73.85147,40.679843,2241.532583475113
12:25:00,1,A61,Rockaway Blvd,-73.843853,40.680429,2353.532583475113
12:55:00,1,A63,104 St,-73.837683,40.681711,2463.532583475113
12:55:00,1,A64,111 St,-73.832163,40.684331,2571.532583475113
12:55:00,1,A65,Ozone Park-Lefferts Blvd,-73.825798,40.685951,2691.532583475113
12:11:00,0,B04,21 St-Queensbridge,-73.942836,40.754203,2909.6904776096344
12:11:00,0,B06,Roosevelt Island,-73.95326,40.759145,2789.6904776096344
12:11:00,0,B08,Lexington Av/63 St,-73.966113,40.764629,2525.75
12:25:00,0,B10,57 St,-73.97745,40.763972,2489.6904776096344
12:03:00,0,B12,9 Av,-73.994324,40.646292,1906.2619032859802
12:03:00,0,B13,Fort Hamilton Pkwy,-73.994304,40.640914,2032.2619032859805
12:03:00,0,B14,50 St,-73.994791,40.63626,2132.51190328598
12:03:00,0,B15,55 St,-73.995476,40.631435,2252.51190328598
12:15:00,0,B16,62 St,-73.996895,40.626472,2322.51190328598
12:15:00,0,B17,71 St,-73.998864,40.619589,2229.166665077209
12:15:00,0,B18,79 St,-74.00061,40.613501,2119.166665077209
12:15:00,0,B19,18 Av,-74.001736,40.607954,2004.1666650772092
12:15:00,0,B20,20 Av,-73.998168,40.604556,1899.1666650772095
12:15:00,0,B21,Bay Pkwy,-73.993728,40.601875,1784.1666650772092
12:15:00,0,B22,25 Av,-73.986829,40.597704,1666.1666650772095
12:15:00,0,B23,Bay 50 St,-73.983765,40.588841,1504.1666650772095
12:15:00,0,D01,Norwood-205 St,-73.878855,40.874811,4638.815792560577
12:15:00,0,D03,Bedford Park Blvd,-73.887138,40.873244,4428.315792560578
12:15:00,0,D04,Kingsbridge Rd,-73.893509,40.866978,4308.315792560578
12:15:00,0,D05,Fordham Rd,-73.897749,40.861296,4192.315792560577
12:15:00,0,D06,182-183 Sts,-73.900741,40.856093,4114.315792560578
12:55:00,0,D07,Tremont Av,-73.905227,40.85041,4012.315792560578
12:55:00,0,D08,174-175 Sts,-73.910136,40.8459,3930.865978717803
12:55:00,0,D09,170 St,-73.9134,40.839306,3810.8659787178035
12:55:00,0,D10,167 St,-73.91844,40.833771,3690.8659787178035
12:55:00,0,D11,161 St-Yankee Stadium,-73.925651,40.827905,3542.3157925605774
12:55:00,0,D12,155 St,-73.938209,40.830135,3412.3157925605774
12:15:00,0,D13,145 St,-73.944216,40.824783,3260.865978717804
12:15:00,0,D14,7 Av,-73.981637,40.762862,2334.6904776096344
12:15:00,0,D15,47-50 Sts-Rockefeller Ctr,-73.981329,40.758663,2214.6904776096344
12:15:00,0,D16,42 St-Bryant Pk,-73.984569,40.754222,2099.6904776096344
12:15:00,0,D17,34 St-Herald Sq,-73.987823,40.749719,1994.6904776096344
13:05:00,0,D18,23 St,-73.992821,40.742878,2244.6904776096344
13:05:00,0,D19,14 St,-73.996209,40.738228,2134.6904776096344
12:15:00,0,D20,W 4 St-Wash Sq,-74.000495,40.732338,1779.6904776096344
12:15:00,0,D21,Broadway-Lafayette St,-73.996204,40.725297,1614.6904776096344
12:15:00,0,D22,Grand St,-73.993753,40.718267,1467.6904776096344
12:11:00,0,D24,Atlantic Av-Barclays Ctr,-73.97689,40.68446,762.6904776096344
12:11:00,0,D25,7 Av,-73.972367,40.67705,604.6904776096345
12:03:00,0,D26,Prospect Park,-73.962246,40.661614,380.6904776096344
12:03:00,0,D27,Parkside Av,-73.961495,40.655292,292.0
12:03:00,0,D28,Church Av,-73.962982,40.650527,167.0
12:03:00,0,D29,Beverley Rd,-73.964492,40.644031,65.0
12:41:00,0,D30,Cortelyou Rd,-73.963891,40.640927,0.0
12:02:30,0,D31,Newkirk Plaza,-73.962793,40.635082,110.0
12:02:30,0,D32,Avenue H,-73.961639,40.62927,213.75
12:02:30,0,D33,Avenue J,-73.960803,40.625039,310.5
12:02:30,0,D34,Avenue M,-73.959399,40.617618,435.5
12:23:30,0,D35,Kings Hwy,-73.957734,40.60867,401.1666650772095
12:02:30,0,D37,Avenue U,-73.955929,40.5993,641.1666650772095
12:02:30,0,D38,Neck Rd,-73.955161,40.595246,762.1666650772095
12:23:30,0,D39,Sheepshead Bay,-73.954155,40.586896,643.1666650772094
12:02:30,0,D40,Brighton Beach,-73.961376,40.577621,808.1666650772094
12:32:30,0,D41,Ocean Pkwy,-73.968501,40.576312,978.1666650772094
12:32:30,0,D42,W 8 St-NY Aquarium,-73.975939,40.576127,1101.1666650772095
12:32:30,0,D43,Coney Island-Stillwell Av,-73.981233,40.577422,1206.1666650772095
12:55:00,1,E01,World Trade Center,-74.009781,40.712582,1871.2925171852112
12:15:00,0,F01,Jamaica-179 St,-73.783817,40.712646,4179.690477609634
12:11:00,0,F02,169 St,-73.793604,40.71047,4089.6904776096344
12:11:00,0,F03,Parsons Blvd,-73.803326,40.707564,3954.6904776096344
12:11:00,0,F04,Sutphin Blvd,-73.810708,40.70546,3864.6904776096344
12:11:00,0,F05,Briarwood,-73.820574,40.709179,3594.690477609635
12:11:00,0,F06,Kew Gardens-Union Tpke,-73.831008,40.714441,3678.690477609635
12:11:00,0,F07,75 Av,-73.837324,40.718331,3826.1904776096353
12:15:00,0,F09,Court Sq-23 St,-73.946,40.747846,2861.4404776096344
12:15:00,0,F11,Lexington Av/53 St,-73.969055,40.757552,2690.302723748343
13:05:00,0,F12,5 Av/53 St,-73.975224,40.760167,2591.1190502789555
12:15:00,1,F14,2 Av,-73.989938,40.723402,1921.1904776096346
13:05:00,1,F15,Delancey St-Essex St,-73.988114,40.718611,1801.1904776096344
13:05:00,1,F16,East Broadway,-73.990173,40.713715,1711.1904776096344
13:05:00,1,F18,York St,-73.986751,40.701397,1531.1904776096344
12:15:00,1,F20,Bergen St,-73.990862,40.686145,1608.3581807613375
12:15:00,1,F21,Carroll St,-73.995048,40.680303,1746.3756620883944
12:15:00,1,F22,Smith-9 Sts,-73.995959,40.67358,1698.5357584953308
12:15:00,1,F23,4 Av-9 St,-73.989779,40.670272,1586.9479241371155
13:53:00,1,F24,7 Av,-73.980305,40.666271,1713.5357584953308
13:53:00,1,F25,15 St-Prospect Park,-73.979493,40.660365,1833.5357584953308
13:53:00,1,F26,Fort Hamilton Pkwy,-73.975776,40.650782,2002.9479241371153
12:15:00,1,F27,Church Av,-73.979678,40.644041,2001.7008974552155
12:42:30,0,F29,Ditmas Av,-73.978172,40.636119,2121.7008974552155
12:42:30,0,F30,18 Av,-73.976971,40.629755,2241.7008974552155
12:42:30,0,F31,Avenue I,-73.976127,40.625322,2260.166665077209
12:42:30,0,F32,Bay Pkwy,-73.975264,40.620769,2145.1666650772095
12:42:30,0,F33,Avenue N,-73.974197,40.61514,2025.1666650772092
12:42:30,0,F34,Avenue P,-73.973022,40.608944,1920.1666650772092
12:42:30,0,F35,Kings Hwy,-73.972361,40.603217,1805.1666650772095
12:42:30,0,F36,Avenue U,-73.973357,40.596063,1685.1666650772095
12:42:30,0,F38,Avenue X,-73.97425,40.58962,1551.1666650772095
12:42:30,0,F39,Neptune Av,-73.974574,40.581011,1416.1666650772095
12:03:00,2,G05,Jamaica Center-Parsons/Archer,-73.801109,40.702147,3126.690477609635
13:45:00,2,G06,Sutphin Blvd-Archer Av-JFK Airport,-73.807969,40.700486,3066.690477609635
13:05:00,0,G07,Jamaica-Van Wyck,-73.816859,40.702566,3431.690477609635
12:11:00,0,G08,Forest Hills-71 Av,-73.844521,40.721691,3719.6904776096344
12:11:00,0,G09,67 Av,-73.852719,40.726523,3857.6904776096344
12:51:00,0,G10,63 Dr-Rego Park,-73.861604,40.729846,3959.6904776096344
12:51:00,0,G11,Woodhaven Blvd,-73.869229,40.733106,3869.6904776096344
12:51:00,0,G12,Grand Av-Newtown,-73.877223,40.737015,3749.6904776096344
12:51:00,0,G13,Elmhurst Av,-73.882017,40.742454,3659.5515892505646
12:11:00,0,G14,Jackson Hts-Roosevelt Av,-73.891338,40.746644,3299.6904776096344
12:11:00,0,G15,65 St,-73.898453,40.749669,3551.453101215778
12:15:00,0,G16,Northern Blvd,-73.906006,40.752885,3457.1232043085615
12:15:00,0,G18,46 St,-73.913333,40.756312,3367.1232043085615
12:15:00,0,G19,Steinway St,-73.92074,40.756879,3250.2159878137163
12:15:00,0,G20,36 St,-73.928781,40.752039,3130.2159878137163
12:15:00,0,G21,Queens Plaza,-73.937243,40.748973,2983.4404776096344
13:45:00,1,G22,Court Sq,-73.943832,40.746554,2801.4404776096344
13:45:00,1,G24,21 St,-73.949724,40.744065,2892.286223888397
13:45:00,1,G26,Greenpoint Av,-73.954449,40.731352,2722.7886898517613
13:45:00,1,G28,Nassau Av,-73.951277,40.724635,2607.7886898517613
13:45:00,1,G29,Metropolitan Av,-73.951418,40.712792,2442.286223888397
13:45:00,1,G30,Broadway,-73.950308,40.706092,2327.2886898517613
13:45:00,1,G31,Flushing Av,-73.950234,40.700377,2217.2886898517613
13:45:00,1,G32,Myrtle-Willoughby Avs,-73.949046,40.694568,2111.286223888397
13:45:00,1,G33,Bedford-Nostrand Avs,-73.953522,40.689627,1991.2862238883974
13:45:00,1,G34,Classon Av,-73.96007,40.688873,1886.2862238883974
13:45:00,1,G35,Clinton-Washington Avs,-73.966839,40.688089,1783.2862238883974
13:45:00,1,G36,Fulton St,-73.975375,40.687119,1671.2862238883974
12:41:00,1,H01,Aqueduct Racetrack,-73.834058,40.668234,2578.532583475113
12:25:00,1,H02,Aqueduct-N Conduit Av,-73.834058,40.668234,2664.208461523056
12:25:00,1,H03,Howard Beach-JFK Airport,-73.830301,40.660476,2803.532583475113
12:25:00,1,H04,Broad Channel,-73.815925,40.608382,3286.5325834751134
12:25:00,1,H06,Beach 67 St,-73.796924,40.590927,3628.4584615230565
13:05:00,1,H07,Beach 60 St,-73.788522,40.592374,3748.4584615230565
13:05:00,1,H08,Beach 44 St,-73.776013,40.592943,3868.4584615230565
13:05:00,1,H09,Beach 36 St,-73.768175,40.595398,3985.458461523057
13:05:00,1,H10,Beach 25 St,-73.761353,40.600066,4104.458461523057
13:05:00,1,H11,Far Rockaway-Mott Av,-73.755405,40.603995,4175.458461523057
13:05:00,1,H12,Beach 90 St,-73.813641,40.588034,3583.5325834751134
13:05:00,1,H13,Beach 98 St,-73.820558,40.585307,3698.5325834751134
13:05:00,1,H14,Beach 105 St,-73.827559,40.583209,3806.532583475113
13:05:00,1,H15,Rockaway Park-Beach 116 St,-73.835592,40.580903,3926.532583475113
13:45:00,2,J12,121 St,-73.828294,40.700492,2826.690477609635
13:45:00,2,J13,111 St,-73.836345,40.697418,2991.690477609635
13:45:00,2,J14,104 St,-73.84433,40.695178,2646.690477609635
13:45:00,2,J15,Woodhaven Blvd,-73.851576,40.693879,2556.690477609635
13:45:00,2,J16,85 St-Forest Pkwy,-73.86001,40.692435,2661.4325840473175
13:45:00,2,J17,75 St-Elderts Ln,-73.867139,40.691324,2376.690477609635
13:45:00,2,J19,Cypress Hills,-73.87255,40.689941,2481.4325840473175
13:45:00,2,J20,Crescent St,-73.873785,40.683194,2226.690477609635
13:45:00,2,J21,Norwood Av,-73.880039,40.68141,2136.690477609635
13:45:00,2,J22,Cleveland St,-73.884639,40.679947,2161.7267587184906
13:45:00,2,J23,Van Siclen Av,-73.891688,40.678024,1986.6904776096349
13:45:00,2,J24,Alabama Av,-73.898654,40.676992,1919.532583475113
12:15:00,2,J27,Broadway Junction,-73.904512,40.679498,1793.532583475113
12:25:00,2,J28,Chauncey St,-73.910456,40.682893,1896.6904776096346
12:25:00,2,J29,Halsey St,-73.916559,40.68637,2025.4325840473175
12:25:00,2,J30,Gates Av,-73.92227,40.68963,2046.6904776096349
12:25:00,2,J31,Kosciuszko St,-73.928814,40.693342,2217.4325840473175
12:11:00,1,L01,8 Av,-74.002578,40.739777,2200.6904776096344
12:11:00,1,L02,6 Av,-73.996786,40.737335,2156.961039781571
12:11:00,1,L03,14 St-Union Sq,-73.99073,40.734789,2058.961039781571
12:11:00,1,L05,3 Av,-73.986122,40.732849,2128.6304347515106
12:11:00,1,L06,1 Av,-73.981628,40.730953,2182.63043475151
12:11:00,1,L08,Bedford Av,-73.956872,40.717304,2387.63043475151
12:11:00,1,L10,Lorimer St,-73.950275,40.714063,2463.63043475151
12:11:00,1,L11,Graham Av,-73.944053,40.714565,2508.63043475151
12:11:00,1,L12,Grand St,-73.94067,40.711926,2546.850970745086
12:11:00,1,L13,Montrose Av,-73.93985,40.707739,2491.8509707450867
12:11:00,1,L14,Morgan Av,-73.933147,40.706152,2414.8509707450867
12:11:00,1,L15,Jefferson St,-73.922913,40.706607,2323.8509707450867
12:03:00,2,L16,DeKalb Av,-73.918425,40.703811,2249.8509707450867
12:15:00,2,L17,Myrtle-Wyckoff Avs,-73.911586,40.699814,2166.8509707450867
12:15:00,2,L19,Halsey St,-73.904084,40.695602,2111.8509707450867
12:15:00,2,L20,Wilson Av,-73.904046,40.688764,1979.8509707450867
12:15:00,2,L21,Bushwick Av-Aberdeen St,-73.905249,40.682829,1877.8509707450867
12:15:00,2,L22,Broadway Junction,-73.90324,40.678856,1786.1714718341827
12:15:00,2,L24,Atlantic Av,-73.903097,40.675345,1886.1714718341827
12:15:00,2,L25,Sutter Av,-73.901975,40.669367,1947.6904764175415
12:15:00,2,L26,Livonia Av,-73.900571,40.664038,1865.4404764175415
12:33:00,2,L27,New Lots Av,-73.899232,40.658733,1939.6904764175415
12:33:00,2,L28,East 105 St,-73.899485,40.650573,2070.690476417541
12:33:00,2,L29,Canarsie-Rockaway Pkwy,-73.90185,40.646654,2213.690476417541
13:35:00,0,M01,Middle Village-Metropolitan Av,-73.889601,40.711396,2845.091355085373
13:05:00,0,M04,Fresh Pond Rd,-73.895877,40.706186,2726.850970745086
13:35:00,0,M05,Forest Av,-73.903077,40.704423,2610.841355085373
13:05:00,0,M06,Seneca Av,-73.90774,40.702762,2495.841355085373
13:05:00,0,M08,Myrtle-Wyckoff Avs,-73.912385,40.69943,2391.8509707450867
13:05:00,0,M09,Knickerbocker Av,-73.919711,40.698664,2509.8509707450867
13:05:00,0,M10,Central Av,-73.927397,40.697857,2449.4452049732204
13:05:00,0,M11,Myrtle Av,-73.935657,40.697207,2226.690477609635
13:05:00,0,M12,Flushing Av,-73.941126,40.70026,2422.131652116776
13:05:00,0,M13,Lorimer St,-73.947408,40.703869,2542.131652116776
13:05:00,0,M14,Hewes St,-73.953431,40.70687,2494.1904776096344
13:05:00,0,M16,Marcy Av,-73.957757,40.708359,2405.721153020859
13:05:00,0,M18,Delancey St-Essex St,-73.987437,40.718315,2003.7211530208592
12:11:00,1,M19,Bowery,-73.993915,40.72028,1900.721153020859
12:15:00,1,M20,Canal St,-73.999892,40.718092,1780.721153020859
12:15:00,1,M21,Chambers St,-74.003401,40.713243,1900.721153020859
12:15:00,1,M22,Fulton St,-74.007582,40.710374,1984.6719694137576
12:15:00,1,M23,Broad St,-74.011056,40.706476,2068.5943245887756
12:03:00,0,N02,8 Av,-74.011719,40.635064,2089.7619032859807
12:03:00,0,N03,Fort Hamilton Pkwy,-74.005351,40.631386,2260.7619032859807
13:03:30,0,N04,New Utrecht Av,-73.996353,40.624842,2175.1666650772095
13:03:30,0,N05,18 Av,-73.990414,40.620671,2060.1666650772095
13:03:30,0,N06,20 Av,-73.985026,40.61741,1955.1666650772095
13:03:30,0,N07,Bay Pkwy,-73.981848,40.611815,1837.1666650772095
13:03:30,0,N08,Kings Hwy,-73.980353,40.603923,1717.1666650772095
13:03:30,0,N09,Avenue U,-73.979137,40.597473,1602.1666650772095
13:03:30,0,N10,86 St,-73.97823,40.592721,1504.1666650772095
12:11:00,0,Q01,Canal St,-74.00046,40.718383,1555.0000000000002
12:11:00,0,Q03,72 St,-73.958424,40.768799,2655.7499999999995
12:11:00,0,Q04,86 St,-73.951787,40.777891,2780.75
12:11:00,0,Q05,96 St,-73.947152,40.784318,2893.75
12:11:00,0,R01,Astoria-Ditmars Blvd,-73.912034,40.775036,3642.8827857971187
12:11:00,0,R03,Astoria Blvd,-73.917843,40.770258,3534.632785797119
12:11:00,0,R04,30 Av,-73.921479,40.766779,3417.632785797119
12:11:00,0,R05,Broadway,-73.925508,40.76182,3305.882785797119
12:11:00,0,R06,36 Av,-73.929575,40.756804,3186.882785797119
12:11:00,0,R08,39 Av-Dutch Kills,-73.932755,40.752882,3064.882785797119
12:11:00,0,R09,Queensboro Plaza,-73.940202,40.750582,2887.882785797119
12:11:00,0,R11,Lexington Av/59 St,-73.967258,40.76266,2768.2764651775356
12:11:00,0,R13,5 Av/59 St,-73.973347,40.764811,2668.9999999999995
12:11:00,0,R14,57 St-7 Av,-73.980658,40.764664,2330.75
12:15:00,0,R15,49 St,-73.984139,40.759901,2379.0
12:11:00,0,R16,Times Sq-42 St,-73.986754,40.754672,2144.0
12:11:00,0,R17,34 St-Herald Sq,-73.98795,40.749567,2025.0
12:03:00,0,R18,28 St,-73.988691,40.745494,2299.6808493137364
12:03:00,0,R19,23 St,-73.989344,40.741303,2190.0
12:11:00,0,R20,14 St-Union Sq,-73.990568,40.735736,1845.0000000000002
12:11:00,0,R21,8 St-NYU,-73.992629,40.730328,2031.5803561210635
12:03:00,1,R22,Prince St,-73.997702,40.724329,1910.5803561210635
12:15:00,0,R23,Canal St,-74.001775,40.719527,1790.5803561210635
12:15:00,0,R24,City Hall,-74.006978,40.713282,1970.5803561210635
12:15:00,0,R25,Cortlandt St,-74.011029,40.710668,1912.1904776096344
12:15:00,0,R26,Rector St,-74.013342,40.70722,1727.1904776096344
12:15:00,0,R27,Whitehall St-South Ferry,-74.012994,40.703087,1660.1904776096344
12:15:00,0,R28,Court St,-73.991777,40.6941,1431.1904776096344
12:15:00,0,R29,Jay St-MetroTech,-73.985942,40.69218,1306.1904776096344
12:11:00,0,R30,DeKalb Av,-73.981824,40.690635,942.6904776096344
12:03:00,0,R31,Atlantic Av-Barclays Ctr,-73.97881,40.683666,952.2619032859802
12:03:00,0,R32,Union St,-73.98311,40.677316,1226.5425171852112
12:03:00,0,R33,4 Av-9 St,-73.988302,40.670847,1346.5425171852112
12:03:00,0,R34,Prospect Av,-73.992872,40.665414,1468.5425171852112
12:03:00,0,R35,25 St,-73.998091,40.660397,1588.5425171852112
12:03:00,0,R36,36 St,-74.003549,40.655144,1552.2619032859805
12:03:00,0,R39,45 St,-74.010006,40.648939,1788.2619032859802
12:03:00,0,R40,53 St,-74.014034,40.645069,1903.2619032859802
12:03:00,0,R41,59 St,-74.017881,40.641362,1887.2619032859802
12:03:00,0,R42,Bay Ridge Av,-74.023377,40.634967,2052.802443504334
12:03:00,0,R43,77 St,-74.02551,40.629742,2155.802443504334
12:03:00,0,R44,86 St,-74.028398,40.622687,2335.802443504334
12:33:00,0,R45,Bay Ridge-95 St,-74.030876,40.616622,2406.8024435043335
12:15:00,0,S01,Franklin Av,-73.955827,40.680596,854.6904776096344
12:15:00,0,S03,Park Pl,-73.957624,40.674772,730.6904776096345
12:15:00,0,S04,Botanic Garden,-73.959245,40.670343,586.6904776096344
