start_time,ntransfers,stop_id,stop_name,stop_lon,stop_lat,duration
12:53:00,1,101,Van Cortlandt Park-242 St,-73.898583,40.889248,4492.628019571304
12:53:00,1,103,238 St,-73.90087,40.884667,4373.378019571305
12:53:00,1,104,231 St,-73.904834,40.878856,4271.378019571304
12:53:00,1,106,Marble Hill-225 St,-73.909831,40.874561,4171.378019571304
12:53:00,1,107,215 St,-73.915279,40.869444,4066.921608924865
12:53:00,1,108,207 St,-73.918822,40.864621,3971.1280195713043
12:53:00,1,109,Dyckman St,-73.925536,40.860531,3864.1280195713043
12:53:00,1,110,191 St,-73.929412,40.855225,3773.1280195713043
12:53:00,1,111,181 St,-73.933596,40.849505,3671.1280195713043
12:53:00,1,112,168 St-Washington Hts,-73.940133,40.840556,3545.128019571304
12:53:00,1,113,157 St,-73.94489,40.834041,3531.03679561615
12:53:00,1,114,145 St,-73.95036,40.826551,3410.03679561615
12:53:00,1,115,137 St-City College,-73.953676,40.822008,3308.03679561615
12:53:00,1,116,125 St,-73.958372,40.815581,3200.03679561615
12:53:00,1,117,116 St-Columbia University,-73.96411,40.807722,3083.03679561615
12:53:00,1,118,Cathedral Pkwy (110 St),-73.966847,40.803967,3002.0367956161494
12:53:00,1,119,103 St,-73.968379,40.799446,2919.0367956161494
12:53:00,1,120,96 St,-73.972323,40.793919,2653.6388883590694
12:43:30,1,121,86 St,-73.976218,40.788644,2688.0367956161494
12:43:30,1,122,79 St,-73.979917,40.783934,2599.0367956161494
12:53:00,1,123,72 St,-73.98197,40.778453,2455.5683872699738
13:12:00,1,124,66 St-Lincoln Center,-73.982209,40.77344,2547.499998807907
12:23:00,1,125,59 St-Columbus Circle,-73.981929,40.768247,2459.499998807907
12:23:00,1,126,50 St,-73.983849,40.761728,2344.499998807907
12:53:00,1,127,Times Sq-42 St,-73.987495,40.75529,2200.3183872699733
12:53:00,1,128,34 St-Penn Station,-73.991057,40.750373,2091.3183872699733
12:23:00,1,129,28 St,-73.993365,40.747215,2132.63888835907
12:23:00,1,130,23 St,-73.995657,40.744081,2058.63888835907
12:23:00,1,131,18 St,-73.997871,40.74104,1986.6388883590694
12:13:30,1,132,14 St,-74.000201,40.737826,1909.6388883590696
12:13:30,1,133,Christopher St-Sheridan Sq,-74.002906,40.733422,2005.6388883590696
12:53:00,1,134,Houston St,-74.005367,40.728251,2096.63888835907
12:53:00,1,135,Canal St,-74.006277,40.722854,2185.63888835907
12:53:00,1,136,Franklin St,-74.006886,40.719318,2205.885130882263
12:13:30,1,137,Chambers St,-74.009266,40.715478,1964.993228673935
12:33:00,1,138,WTC Cortlandt,-74.012188,40.711835,2048.885130882263
12:33:00,1,139,Rector St,-74.013783,40.707513,1966.885130882263
12:33:00,1,142,South Ferry,-74.013664,40.702068,1860.8851308822632
12:33:00,1,201,Wakefield-241 St,-73.85062,40.903125,5359.529427051545
12:33:00,1,204,Nereid Av,-73.854376,40.898379,5103.529427051545
12:33:00,1,205,233 St,-73.857473,40.893193,4955.529427051544
12:33:00,1,206,225 St,-73.860341,40.888022,4857.029427051545
12:33:00,1,207,219 St,-73.862633,40.883895,4773.029427051544
12:33:00,1,208,Gun Hill Rd,-73.866256,40.87785,4660.279427051544
12:33:00,1,209,Burke Av,-73.867164,40.871356,4759.029427051544
12:33:00,1,210,Allerton Av,-73.867352,40.865462,4715.529427051544
12:33:00,1,211,Pelham Pkwy,-73.867615,40.857192,4601.529427051544
12:33:00,1,212,Bronx Park East,-73.868457,40.848828,4472.529427051544
12:33:00,1,213,E 180 St,-73.873488,40.841894,4070.7794270515437
12:33:00,1,214,West Farms Sq-E Tremont Av,-73.880049,40.840295,4072.5294270515446
12:33:00,1,215,174 St,-73.887734,40.837288,3941.529427051544
12:33:00,1,216,Freeman St,-73.891865,40.829993,3816.529427051544
12:33:00,1,217,Simpson St,-73.893064,40.824073,3700.529427051544
12:33:00,1,218,Intervale Av,-73.896736,40.822181,3621.529427051544
12:33:00,1,219,Prospect Av,-73.90177,40.819585,3533.529427051544
12:33:00,1,220,Jackson Av,-73.907807,40.81649,3429.529427051544
12:33:00,1,221,3 Av-149 St,-73.917757,40.816109,3288.5294270515437
12:33:00,1,222,149 St-Grand Concourse,-73.926718,40.81841,3152.529427051544
12:53:00,1,224,135 St,-73.94077,40.814229,3223.6388883590694
12:53:00,1,225,125 St,-73.945495,40.807754,3101.63888835907
12:53:00,1,226,116 St,-73.949625,40.802098,2995.63888835907
12:53:00,1,227,Central Park North (110 St),-73.951822,40.799075,2920.63888835907
12:13:30,1,228,Park Place,-74.008811,40.713051,1871.993228673935
12:09:30,2,229,Fulton St,-74.006571,40.709416,1752.993228673935
12:33:00,1,230,Wall St,-74.0091,40.706821,1832.993228673935
12:09:30,3,231,Clark St,-73.993086,40.697466,1757.2391300201416
12:09:30,3,232,Borough Hall,-73.989998,40.693219,1662.2391300201416
12:09:30,3,233,Hoyt St,-73.985065,40.690545,1755.2391300201416
12:09:30,3,234,Nevins St,-73.980492,40.688246,1782.2391300201416
12:09:30,3,235,Atlantic Av-Barclays Ctr,-73.977666,40.684359,1825.9999999999998
12:29:30,2,236,Bergen St,-73.975098,40.680829,1848.0
12:29:30,2,237,Grand Army Plaza,-73.971046,40.675235,1747.0
12:29:30,2,238,Eastern Pkwy-Brooklyn Museum,-73.964375,40.671987,1647.0
12:29:30,2,239,Franklin Av-Medgar Evers College,-73.958131,40.670682,1535.0
12:29:30,2,241,President St-Medgar Evers College,-73.950683,40.667883,1708.0
12:29:30,2,242,Sterling St,-73.95085,40.662742,1802.0
12:29:30,2,243,Winthrop St,-73.9502,40.656652,1901.5
12:29:30,2,244,Church Av,-73.949575,40.650843,1991.4999999999998
12:29:30,2,245,Beverly Rd,-73.948959,40.645098,2085.5
12:29:30,2,246,Newkirk Av-Little Haiti,-73.948411,40.639967,2177.5
12:29:30,2,247,Flatbush Av-Brooklyn College,-73.947642,40.632836,2334.5
12:29:30,2,248,Nostrand Av,-73.950466,40.669847,1514.068387269974
12:29:30,2,249,Kingston Av,-73.942161,40.669399,1411.1023015975952
12:29:30,2,250,Crown Hts-Utica Av,-73.932942,40.668897,1315.1023015975952
12:29:30,2,251,Sutter Av-Rutland Rd,-73.92261,40.664717,1179.388887166977
12:29:30,2,252,Saratoga Av,-73.916327,40.661453,1069.388887166977
12:29:30,2,253,Rockaway Av,-73.908946,40.662549,975.1023015975951
12:29:30,2,254,Junius St,-73.902447,40.663515,887.1023015975952
12:49:30,2,255,Pennsylvania Av,-73.894895,40.664635,992.1023015975952
12:49:30,2,256,Van Siclen Av,-73.889395,40.665449,1073.3183872699738
12:49:30,2,257,New Lots Av,-73.884079,40.666235,1161.888887166977
13:52:00,1,301,Harlem-148 St,-73.93647,40.82388,3505.88888835907
13:52:00,1,302,145 St,-73.936245,40.820421,3381.88888835907
12:13:30,1,401,Woodlawn,-73.878751,40.886037,4573.779427051545
12:13:30,1,402,Mosholu Pkwy,-73.884655,40.87975,4388.279427051545
12:13:30,1,405,Bedford Park Blvd-Lehman College,-73.890064,40.873412,4271.779427051545
12:13:30,1,406,Kingsbridge Rd,-73.897174,40.86776,4151.779427051545
12:13:30,1,407,Fordham Rd,-73.901034,40.862803,4050.7794270515446
12:13:30,1,408,183 St,-73.903879,40.858407,3963.7794270515446
12:13:30,1,409,Burnside Av,-73.907684,40.853453,3860.779427051544
12:13:30,1,410,176 St,-73.911794,40.84848,3778.779427051544
12:13:30,1,411,Mt Eden Av,-73.914685,40.844434,3697.779427051544
12:13:30,1,412,170 St,-73.917791,40.840075,3612.7794270515446
12:13:30,1,413,167 St,-73.9214,40.835537,3518.779427051544
12:13:30,1,414,161 St-Yankee Stadium,-73.925831,40.827994,3314.029427051544
12:13:30,1,415,149 St-Grand Concourse,-73.927351,40.818375,3133.029427051544
12:13:30,1,416,138 St-Grand Concourse,-73.929849,40.813224,2960.279427051544
12:43:30,1,418,Fulton St,-74.009509,40.710368,1665.0
12:43:30,1,419,Wall St,-74.011862,40.707557,1755.75
12:43:30,1,420,Bowling Green,-74.014065,40.704817,1838.75
12:09:30,3,423,Borough Hall,-73.990151,40.692404,1661.5038363933563
13:52:00,1,501,Eastchester-Dyre Av,-73.830834,40.8883,4820.779427051543
12:33:00,1,502,Baychester Av,-73.838591,40.878663,4670.779427051543
12:33:00,1,503,Gun Hill Rd,-73.846384,40.869526,4520.779427051543
12:33:00,1,504,Pelham Pkwy,-73.855359,40.858985,4370.779427051543
12:33:00,1,505,Morris Park,-73.860495,40.854364,4280.779427051543
12:13:30,1,601,Pelham Bay Park,-73.828121,40.852462,4768.422285556793
12:13:30,1,602,Buhre Av,-73.832569,40.84681,4557.922285556792
12:13:30,1,603,Middletown Rd,-73.836322,40.843863,4479.922285556793
12:13:30,1,604,Westchester Sq-E Tremont Av,-73.842952,40.839892,4325.422285556792
12:13:30,1,606,Zerega Av,-73.847036,40.836488,4233.172285556793
12:13:30,1,607,Castle Hill Av,-73.851222,40.834255,4159.172285556793
12:13:30,1,608,Parkchester,-73.860816,40.833226,3923.1722855567928
12:13:30,1,609,St Lawrence Av,-73.867618,40.831509,4103.266597747802
12:13:30,1,610,Morrison Av-Soundview,-73.874516,40.829521,4011.266597747802
12:13:30,1,611,Elder Av,-73.879159,40.828584,3937.266597747802
12:13:30,1,612,Whitlock Av,-73.886283,40.826525,3825.2665977478023
12:13:30,1,613,Hunts Point Av,-73.890549,40.820948,3592.4222855567928
12:33:00,1,614,Longwood Av,-73.896435,40.816104,3711.2318115234375
12:33:00,1,615,E 149 St,-73.904098,40.812118,3607.2318115234375
12:33:00,1,616,E 143 St-St Mary's St,-73.907657,40.808719,3523.2318115234375
12:33:00,1,617,Cypress Av,-73.914042,40.805368,3417.7678008079524
12:33:00,1,618,Brook Av,-73.91924,40.807566,3339.767800807953
12:13:30,1,619,3 Av-138 St,-73.926138,40.810476,3215.422285556793
12:13:30,1,621,125 St,-73.937594,40.804138,2773.279427051544
12:33:00,1,622,116 St,-73.941617,40.798629,3065.964399576187
12:13:30,1,623,110 St,-73.94425,40.79502,2981.964399576187
12:13:30,1,624,103 St,-73.947478,40.7906,2898.964399576187
12:13:30,1,625,96 St,-73.95107,40.785672,2803.964399576187
12:13:30,1,626,86 St,-73.955589,40.779492,2449.279427051544
12:13:30,1,627,77 St,-73.959874,40.77362,2640.440477609634
12:13:30,1,628,68 St-Hunter College,-73.96387,40.768141,2543.440477609634
12:13:30,1,629,59 St,-73.967967,40.762526,2233.279427051544
12:13:30,1,630,51 St,-73.97192,40.757107,2334.440477609634
12:13:30,1,631,Grand Central-42 St,-73.976848,40.751776,2074.279427051544
12:53:00,1,632,33 St,-73.982076,40.746081,2074.190477609634
12:53:00,1,633,28 St,-73.984264,40.74307,2003.1904776096344
12:53:00,1,634,23 St,-73.986599,40.739864,1928.0198423862455
12:53:00,1,635,14 St-Union Sq,-73.989951,40.734673,1782.1904776096344
12:53:00,1,636,Astor Pl,-73.99107,40.730054,1695.2285723686218
12:43:30,1,637,Bleecker St,-73.994659,40.725915,1592.2285723686218
12:23:00,1,638,Spring St,-73.997141,40.722301,1593.499998807907
12:33:00,1,639,Canal St,-74.000193,40.718803,1519.499998807907
12:13:30,1,640,Brooklyn Bridge-City Hall,-74.004131,40.713065,1485.0
12:09:30,1,701,Flushing-Main St,-73.83003,40.7596,3357.5805449485774
12:09:30,1,702,Mets-Willets Point,-73.845625,40.754622,3197.580544948578
12:09:30,1,705,111 St,-73.855334,40.75173,3228.2826714515686
12:09:30,1,706,103 St-Corona Plaza,-73.8627,40.749865,3147.532671451568
12:09:30,1,707,Junction Blvd,-73.869527,40.749145,2960.2826714515686
12:09:30,1,708,90 St-Elmhurst Av,-73.876613,40.748408,2998.5326714515677
12:09:30,1,709,82 St-Jackson Hts,-73.883697,40.747659,2922.532671451568
12:09:30,1,710,74 St-Broadway,-73.891394,40.746848,2746.532671451568
12:09:30,1,711,69 St,-73.896403,40.746325,2654.532671451568
12:09:30,1,712,61 St-Woodside,-73.902984,40.74563,2573.532671451568
12:09:30,1,713,52 St,-73.912549,40.744149,2478.532671451568
12:13:30,1,714,46 St-Bliss St,-73.918435,40.743132,2415.532671451568
12:13:30,1,715,40 St-Lowery St,-73.924016,40.743781,2352.5326714515686
12:13:30,1,716,33 St-Rawson St,-73.930997,40.744587,2281.5326714515686
12:13:30,1,718,Queensboro Plaza,-73.940202,40.750582,2156.2826714515686
12:13:30,1,719,Court Sq,-73.945264,40.747023,2061.5326714515686
12:13:30,1,720,Hunters Point Av,-73.948916,40.742216,2151.0326714515686
12:13:30,1,721,Vernon Blvd-Jackson Av,-73.953581,40.742626,2188.5326714515686
12:13:30,1,723,Grand Central-42 St,-73.976041,40.751431,2203.279427051544
12:13:30,1,724,5 Av,-73.981963,40.753821,2231.0
12:13:30,1,725,Times Sq-42 St,-73.987691,40.755477,2228.499998807907
12:13:30,1,726,34 St-Hudson Yards,-74.00191,40.755882,2380.499998807907
12:13:30,2,901,Grand Central-42 St,-73.979189,40.752769,2143.279427051544
12:13:30,2,902,Times Sq-42 St,-73.986229,40.755983,2168.499998807907
13:12:00,0,A02,Inwood-207 St,-73.919899,40.868072,3931.6388883590694
13:12:00,0,A03,Dyckman St,-73.927271,40.865491,3817.6388883590694
13:12:00,0,A05,190 St,-73.93418,40.859022,3684.6388883590694
13:12:00,0,A06,181 St,-73.937969,40.851695,3564.6388883590694
13:12:00,0,A07,175 St,-73.939704,40.847391,3449.6388883590694
13:12:00,0,A09,168 St,-73.939561,40.840719,3319.6388883590694
12:03:00,0,A10,163 St-Amsterdam Av,-73.939892,40.836013,3344.7967846393585
12:03:00,0,A11,155 St,-73.941514,40.830518,3239.7967846393585
12:03:00,0,A12,145 St,-73.944216,40.824783,3064.6388883590694
12:03:00,0,A14,135 St,-73.947649,40.817894,2952.6388883590694
13:02:00,0,A15,125 St,-73.952343,40.811109,2824.6388883590694
12:13:30,0,A16,116 St,-73.954882,40.805085,2984.796784639358
13:12:00,0,A17,Cathedral Pkwy (110 St),-73.958161,40.800603,3089.796784639358
13:12:00,0,A18,103 St,-73.961454,40.796092,3000.63888835907
13:12:00,0,A19,96 St,-73.964696,40.791642,2892.63888835907
13:12:00,0,A20,86 St,-73.968916,40.785868,2774.6388883590694
13:12:00,0,A21,81 St-Museum of Natural History,-73.972143,40.781433,2657.63888835907
13:12:00,0,A22,72 St,-73.97641,40.775594,2545.63888835907
13:02:00,0,A24,59 St-Columbus Circle,-73.981736,40.768296,2306.63888835907
13:02:00,0,A25,50 St,-73.985984,40.762456,2295.63888835907
12:09:30,1,A27,42 St-Port Authority Bus Terminal,-73.989735,40.757308,2126.63888835907
12:09:30,1,A28,34 St-Penn Station,-73.993391,40.752287,2007.6388883590696
12:23:00,1,A30,23 St,-73.998041,40.745906,1944.6388883590698
12:09:30,1,A31,14 St,-74.00169,40.740893,1834.6388883590696
12:09:30,1,A32,W 4 St-Wash Sq,-74.000495,40.732338,1793.9393949508667
12:29:30,1,A33,Spring St,-74.003739,40.726227,1913.9393949508667
12:09:30,1,A34,Canal St,-74.005229,40.720824,1777.7391300201414
12:09:30,1,A36,Chambers St,-74.008585,40.714111,1652.7391300201416
12:09:30,1,A38,Fulton St,-74.007691,40.710197,1535.7391300201416
12:09:30,1,A40,High St,-73.990531,40.699337,1343.7391300201416
12:09:30,1,A41,Jay St-MetroTech,-73.987342,40.692338,1183.7391300201416
12:09:30,1,A42,Hoyt-Schermerhorn Sts,-73.985001,40.688484,1063.7391300201416
12:29:30,1,A43,Lafayette Av,-73.973946,40.686113,1183.0
12:19:30,1,A44,Clinton-Washington Avs,-73.965838,40.683263,1076.0
12:19:30,1,A45,Franklin Av,-73.956848,40.68138,959.0
12:09:30,1,A46,Nostrand Av,-73.950426,40.680438,765.0
12:09:30,1,A47,Kingston-Throop Avs,-73.940858,40.679921,706.9891300201416
12:09:30,1,A48,Utica Av,-73.930729,40.679364,585.0
12:19:30,1,A49,Ralph Av,-73.920786,40.678822,495.0
12:19:30,1,A50,Rockaway Av,-73.911946,40.67834,380.0
12:09:30,1,A51,Broadway Junction,-73.905316,40.678334,270.0
12:09:30,1,A52,Liberty Av,-73.896548,40.674542,427.0
12:09:30,1,A53,Van Siclen Av,-73.890358,40.67271,542.0
12:09:30,1,A54,Shepherd Av,-73.88075,40.67413,660.0
13:58:30,1,A55,Euclid Av,-73.872106,40.675377,660.0
13:58:30,1,A57,Grant Av,-73.86505,40.677044,785.0
13:58:30,1,A59,80 St,-73.858992,40.679371,900.0
13:58:30,1,A60,88 St,-73.85147,40.679843,1017.9999999999999
13:58:30,1,A61,Rockaway Blvd,-73.843853,40.680429,1130.0
13:48:30,1,A63,104 St,-73.837683,40.681711,1239.9999999999998
13:48:30,1,A64,111 St,-73.832163,40.684331,1348.0
13:48:30,1,A65,Ozone Park-Lefferts Blvd,-73.825798,40.685951,1468.0
12:33:00,0,B04,21 St-Queensbridge,-73.942836,40.754203,2689.9999999999995
12:33:00,0,B06,Roosevelt Island,-73.95326,40.759145,2569.9999999999995
12:33:00,0,B08,Lexington Av/63 St,-73.966113,40.764629,2419.9999999999995
12:33:00,0,B10,57 St,-73.97745,40.763972,2269.9999999999995
12:43:30,0,B12,9 Av,-73.994324,40.646292,2643.3287534713745
12:43:30,0,B13,Fort Hamilton Pkwy,-73.994304,40.640914,2763.3287534713745
12:43:30,0,B14,50 St,-73.994791,40.63626,2863.578753471375
12:43:30,0,B15,55 St,-73.995476,40.631435,2983.578753471375
12:43:30,0,B16,62 St,-73.996895,40.626472,3053.5787534713745
12:43:30,0,B17,71 St,-73.998864,40.619589,3173.5787534713745
12:43:30,0,B18,79 St,-74.00061,40.613501,3293.5787534713745
12:43:30,0,B19,18 Av,-74.001736,40.607954,3398.5787534713745
12:43:30,0,B20,20 Av,-73.998168,40.604556,3503.5787534713745
12:43:30,0,B21,Bay Pkwy,-73.993728,40.601875,3595.5787534713745
12:43:30,0,B22,25 Av,-73.986829,40.597704,3480.6400017738333
12:43:30,0,B23,Bay 50 St,-73.983765,40.588841,3318.6400017738333
12:13:30,0,D01,Norwood-205 St,-73.878855,40.874811,4501.454680919646
12:13:30,0,D03,Bedford Park Blvd,-73.887138,40.873244,4290.954680919647
12:13:30,0,D04,Kingsbridge Rd,-73.893509,40.866978,4170.954680919647
12:13:30,0,D05,Fordham Rd,-73.897749,40.861296,4054.9546809196463
12:13:30,0,D06,182-183 Sts,-73.900741,40.856093,3976.9546809196468
13:02:00,0,D07,Tremont Av,-73.905227,40.85041,3874.9546809196463
13:02:00,0,D08,174-175 Sts,-73.910136,40.8459,3793.5048670768733
13:02:00,0,D09,170 St,-73.9134,40.839306,3673.5048670768733
13:02:00,0,D10,167 St,-73.91844,40.833771,3553.5048670768733
13:02:00,0,D11,161 St-Yankee Stadium,-73.925651,40.827905,3404.9546809196468
13:02:00,0,D12,155 St,-73.938209,40.830135,3274.9546809196468
13:02:00,0,D13,145 St,-73.944216,40.824783,3123.5048670768733
13:02:00,0,D14,7 Av,-73.981637,40.762862,2320.9393949508667
12:13:30,0,D15,47-50 Sts-Rockefeller Ctr,-73.981329,40.758663,2120.9999999999995
12:13:30,0,D16,42 St-Bryant Pk,-73.984569,40.754222,2005.9999999999998
12:13:30,0,D17,34 St-Herald Sq,-73.987823,40.749719,1906.0
12:23:00,0,D18,23 St,-73.992821,40.742878,1786.0
12:23:00,0,D19,14 St,-73.996209,40.738228,1688.0000000000002
12:23:00,0,D20,W 4 St-Wash Sq,-74.000495,40.732338,1560.0
12:23:00,0,D21,Broadway-Lafayette St,-73.996204,40.725297,1380.0
12:43:30,0,D22,Grand St,-73.993753,40.718267,1772.2040791511536
12:03:00,1,D24,Atlantic Av-Barclays Ctr,-73.97689,40.68446,1867.5238065719604
12:03:00,1,D25,7 Av,-73.972367,40.67705,1740.0
12:09:30,2,D26,Prospect Park,-73.962246,40.661614,1396.0
12:03:00,1,D27,Parkside Av,-73.961495,40.655292,1764.5238089561462
12:03:00,1,D28,Church Av,-73.962982,40.650527,1685.9999999999998
12:03:00,1,D29,Beverley Rd,-73.964492,40.644031,1796.6904776096344
12:03:00,1,D30,Cortelyou Rd,-73.963891,40.640927,1896.6904776096344
12:03:00,1,D31,Newkirk Plaza,-73.962793,40.635082,1865.9999999999998
12:03:00,1,D32,Avenue H,-73.961639,40.62927,1984.320000886917
12:03:00,1,D33,Avenue J,-73.960803,40.625039,2104.320000886917
12:03:00,1,D34,Avenue M,-73.959399,40.617618,2224.320000886917
12:13:30,0,D35,Kings Hwy,-73.957734,40.60867,2111.0
12:43:30,0,D37,Avenue U,-73.955929,40.5993,2353.0103120803833
12:43:30,0,D38,Neck Rd,-73.955161,40.595246,2474.010312080383
12:13:30,0,D39,Sheepshead Bay,-73.954155,40.586896,2359.9999999999995
12:43:30,0,D40,Brighton Beach,-73.961376,40.577621,2554.0
12:43:30,0,D41,Ocean Pkwy,-73.968501,40.576312,2792.6400017738333
12:09:30,1,D42,W 8 St-NY Aquarium,-73.975939,40.576127,2915.6400017738333
12:03:00,1,D43,Coney Island-Stillwell Av,-73.981233,40.577422,3020.6400017738333
12:09:30,1,E01,World Trade Center,-74.009781,40.712582,1952.7391300201416
12:39:30,0,F01,Jamaica-179 St,-73.783817,40.712646,2403.0
12:39:30,0,F02,169 St,-73.793604,40.71047,2313.0
12:39:30,0,F03,Parsons Blvd,-73.803326,40.707564,2178.0
12:39:30,0,F04,Sutphin Blvd,-73.810708,40.70546,2088.0
12:39:30,0,F05,Briarwood,-73.820574,40.709179,1817.9999999999998
13:09:30,0,F06,Kew Gardens-Union Tpke,-73.831008,40.714441,1902.0
13:09:30,0,F07,75 Av,-73.837324,40.718331,2049.5
12:23:00,0,F09,Court Sq-23 St,-73.946,40.747846,2061.5326714515686
12:23:00,0,F11,Lexington Av/53 St,-73.969055,40.757552,2265.1041000229975
12:23:00,0,F12,5 Av/53 St,-73.975224,40.760167,2272.530612244898
12:43:30,1,F14,2 Av,-73.989938,40.723402,1393.7499999999998
12:23:00,0,F15,Delancey St-Essex St,-73.988114,40.718611,1265.0
12:13:30,1,F16,East Broadway,-73.990173,40.713715,1370.0
12:49:30,1,F18,York St,-73.986751,40.701397,1408.7391300201416
13:38:30,1,F20,Bergen St,-73.990862,40.686145,1425.837342262268
12:49:30,1,F21,Carroll St,-73.995048,40.680303,1556.087342262268
12:49:30,1,F22,Smith-9 Sts,-73.995959,40.67358,1696.087342262268
12:49:30,1,F23,4 Av-9 St,-73.989779,40.670272,1811.087342262268
12:49:30,1,F24,7 Av,-73.980305,40.666271,1738.7391300201416
12:49:30,1,F25,15 St-Prospect Park,-73.979493,40.660365,1906.9042689800262
12:49:30,1,F26,Fort Hamilton Pkwy,-73.975776,40.650782,2086.9042689800262
12:49:30,1,F27,Church Av,-73.979678,40.644041,1978.7391300201418
12:49:30,1,F29,Ditmas Av,-73.978172,40.636119,2098.7391300201416
12:49:30,1,F30,18 Av,-73.976971,40.629755,2218.7391300201416
12:49:30,1,F31,Avenue I,-73.976127,40.625322,2278.7391300201416
12:49:30,1,F32,Bay Pkwy,-73.975264,40.620769,2338.7391300201416
12:49:30,1,F33,Avenue N,-73.974197,40.61514,2458.7391300201416
12:49:30,1,F34,Avenue P,-73.973022,40.608944,2548.7391300201416
12:49:30,1,F35,Kings Hwy,-73.972361,40.603217,2829.4891300201416
12:49:30,1,F36,Avenue U,-73.973357,40.596063,2949.4891300201416
12:49:30,1,F38,Avenue X,-73.97425,40.58962,3069.4891300201416
12:49:30,1,F39,Neptune Av,-73.974574,40.581011,3193.989130020142
12:09:30,0,G05,Jamaica Center-Parsons/Archer,-73.801109,40.702147,1350.0
12:09:30,0,G06,Sutphin Blvd-Archer Av-JFK Airport,-73.807969,40.700486,1290.0
13:09:30,0,G07,Jamaica-Van Wyck,-73.816859,40.702566,1655.0
13:09:30,0,G08,Forest Hills-71 Av,-73.844521,40.721691,2147.0
12:09:30,0,G09,67 Av,-73.852719,40.726523,2298.4393048286433
12:09:30,0,G10,63 Dr-Rego Park,-73.861604,40.729846,2418.4393048286433
12:09:30,0,G11,Woodhaven Blvd,-73.869229,40.733106,2510.75
12:09:30,0,G12,Grand Av-Newtown,-73.877223,40.737015,2630.75
12:09:30,0,G13,Elmhurst Av,-73.882017,40.742454,2720.75
13:09:30,0,G14,Jackson Hts-Roosevelt Av,-73.891338,40.746644,2592.0
12:09:30,0,G15,65 St,-73.898453,40.749669,2751.5452950577123
12:23:00,0,G16,Northern Blvd,-73.906006,40.752885,2657.2153981504957
12:23:00,0,G18,46 St,-73.913333,40.756312,2567.2153981504957
12:23:00,0,G19,Steinway St,-73.92074,40.756879,2450.3081816556505
12:23:00,0,G20,36 St,-73.928781,40.752039,2330.3081816556505
12:23:00,0,G21,Queens Plaza,-73.937243,40.748973,2183.5326714515686
12:09:30,1,G22,Court Sq,-73.943832,40.746554,1941.5326714515688
12:09:30,1,G24,21 St,-73.949724,40.744065,1873.5326714515688
12:09:30,1,G26,Greenpoint Av,-73.954449,40.731352,1658.5326714515688
12:09:30,1,G28,Nassau Av,-73.951277,40.724635,1543.5326714515688
12:09:30,1,G29,Metropolitan Av,-73.951418,40.712792,1383.5326714515686
12:09:30,1,G30,Broadway,-73.950308,40.706092,1504.0326714515686
12:09:30,1,G31,Flushing Av,-73.950234,40.700377,1614.0326714515686
12:09:30,1,G32,Myrtle-Willoughby Avs,-73.949046,40.694568,1709.0326714515686
12:09:30,1,G33,Bedford-Nostrand Avs,-73.953522,40.689627,1731.1304337978363
12:09:30,1,G34,Classon Av,-73.96007,40.688873,1626.1304337978363
12:09:30,1,G35,Clinton-Washington Avs,-73.966839,40.688089,1523.1304337978363
12:09:30,1,G36,Fulton St,-73.975375,40.687119,1411.1304337978363
12:59:30,1,H01,Aqueduct Racetrack,-73.834058,40.668234,1355.0
13:58:30,1,H02,Aqueduct-N Conduit Av,-73.834058,40.668234,1418.7391300201416
13:58:30,1,H03,Howard Beach-JFK Airport,-73.830301,40.660476,1580.0
13:58:30,1,H04,Broad Channel,-73.815925,40.608382,2063.0
13:58:30,1,H06,Beach 67 St,-73.796924,40.590927,2382.989130020142
13:58:30,1,H07,Beach 60 St,-73.788522,40.592374,2502.989130020142
13:58:30,1,H08,Beach 44 St,-73.776013,40.592943,2622.989130020142
13:58:30,1,H09,Beach 36 St,-73.768175,40.595398,2739.989130020142
13:58:30,1,H10,Beach 25 St,-73.761353,40.600066,2858.989130020142
13:58:30,1,H11,Far Rockaway-Mott Av,-73.755405,40.603995,2929.989130020142
13:58:30,1,H12,Beach 90 St,-73.813641,40.588034,2360.0
13:58:30,1,H13,Beach 98 St,-73.820558,40.585307,2475.0
13:58:30,1,H14,Beach 105 St,-73.827559,40.583209,2583.0
13:58:30,1,H15,Rockaway Park-Beach 116 St,-73.835592,40.580903,2703.0
12:09:30,0,J12,121 St,-73.828294,40.700492,1050.0
12:09:30,0,J13,111 St,-73.836345,40.697418,1215.0
12:09:30,0,J14,104 St,-73.84433,40.695178,870.0
12:09:30,0,J15,Woodhaven Blvd,-73.851576,40.693879,780.0
12:09:30,0,J16,85 St-Forest Pkwy,-73.86001,40.692435,951.0
12:09:30,0,J17,75 St-Elderts Ln,-73.867139,40.691324,600.0
12:09:30,0,J19,Cypress Hills,-73.87255,40.689941,771.0
12:09:30,0,J20,Crescent St,-73.873785,40.683194,450.0
12:09:30,0,J21,Norwood Av,-73.880039,40.68141,360.0
12:09:30,0,J22,Cleveland St,-73.884639,40.679947,471.0
12:09:30,0,J23,Van Siclen Av,-73.891688,40.678024,210.0
12:09:30,0,J24,Alabama Av,-73.898654,40.676992,150.0
12:09:30,0,J27,Broadway Junction,-73.904512,40.679498,60.0
12:19:30,0,J28,Chauncey St,-73.910456,40.682893,0.0
12:03:00,0,J29,Halsey St,-73.916559,40.68637,112.0
12:03:00,0,J30,Gates Av,-73.92227,40.68963,150.0
12:03:00,0,J31,Kosciuszko St,-73.928814,40.693342,300.0
13:38:30,1,L01,8 Av,-74.002578,40.739777,1774.6388883590696
13:38:30,1,L02,6 Av,-73.996786,40.737335,1699.6388883590696
13:38:30,1,L03,14 St-Union Sq,-73.99073,40.734789,1591.6388883590696
13:38:30,1,L05,3 Av,-73.986122,40.732849,1518.3183872699738
13:38:30,1,L06,1 Av,-73.981628,40.730953,1475.3183872699738
13:38:30,1,L08,Bedford Av,-73.956872,40.717304,1268.3183872699738
13:38:30,1,L10,Lorimer St,-73.950275,40.714063,1170.3183872699738
13:38:30,1,L11,Graham Av,-73.944053,40.714565,1128.318387269974
13:38:30,1,L12,Grand St,-73.94067,40.711926,1038.318387269974
13:38:30,1,L13,Montrose Av,-73.93985,40.707739,983.3183872699739
13:38:30,1,L14,Morgan Av,-73.933147,40.706152,906.3183872699738
13:38:30,1,L15,Jefferson St,-73.922913,40.706607,815.3183872699738
13:38:30,1,L16,DeKalb Av,-73.918425,40.703811,741.3183872699738
13:38:30,1,L17,Myrtle-Wyckoff Avs,-73.911586,40.699814,658.3183872699738
13:38:30,1,L19,Halsey St,-73.904084,40.695602,603.3183872699738
13:38:30,1,L20,Wilson Av,-73.904046,40.688764,471.31838726997375
13:38:30,1,L21,Bushwick Av-Aberdeen St,-73.905249,40.682829,369.31838726997375
12:19:30,1,L22,Broadway Junction,-73.90324,40.678856,277.6388883590698
12:29:30,1,L24,Atlantic Av,-73.903097,40.675345,377.6388883590698
12:29:30,1,L25,Sutter Av,-73.901975,40.669367,467.6388883590698
12:29:30,1,L26,Livonia Av,-73.900571,40.664038,555.6388883590698
12:29:30,1,L27,New Lots Av,-73.899232,40.658733,623.3183872699739
12:29:30,1,L28,East 105 St,-73.899485,40.650573,754.3183872699739
12:19:30,1,L29,Canarsie-Rockaway Pkwy,-73.90185,40.646654,897.3183872699738
13:52:00,0,M01,Middle Village-Metropolitan Av,-73.889601,40.711396,1225.662621498108
13:32:00,0,M04,Fresh Pond Rd,-73.895877,40.706186,1111.412621498108
13:52:00,0,M05,Forest Av,-73.903077,40.704423,991.412621498108
13:32:00,0,M06,Seneca Av,-73.90774,40.702762,876.4126214981079
13:32:00,0,M08,Myrtle-Wyckoff Avs,-73.912385,40.69943,786.4126214981079
12:23:00,0,M09,Knickerbocker Av,-73.919711,40.698664,645.9126214981079
13:32:00,0,M10,Central Av,-73.927397,40.697857,535.9126214981079
12:03:00,0,M11,Myrtle Av,-73.935657,40.697207,330.0
13:02:00,0,M12,Flushing Av,-73.941126,40.70026,525.4411745071411
13:02:00,0,M13,Lorimer St,-73.947408,40.703869,645.4411745071411
13:02:00,0,M14,Hewes St,-73.953431,40.70687,757.4411745071412
12:03:00,0,M16,Marcy Av,-73.957757,40.708359,589.9999999999999
12:03:00,0,M18,Delancey St-Essex St,-73.987437,40.718315,1040.0
12:03:00,0,M19,Bowery,-73.993915,40.72028,1160.0
12:03:00,0,M20,Canal St,-73.999892,40.718092,1282.0
12:03:00,0,M21,Chambers St,-74.003401,40.713243,1402.0
12:03:00,0,M22,Fulton St,-74.007582,40.710374,1517.0
12:03:00,0,M23,Broad St,-74.011056,40.706476,1584.0000000000002
12:03:00,1,N02,8 Av,-74.011719,40.635064,2796.249997615814
12:03:00,1,N03,Fort Hamilton Pkwy,-74.005351,40.631386,2939.7499976158147
12:03:00,1,N04,New Utrecht Av,-73.996353,40.624842,3060.7499976158147
12:03:00,1,N05,18 Av,-73.990414,40.620671,3175.749997615814
12:03:00,1,N06,20 Av,-73.985026,40.61741,3283.499997615814
12:03:00,1,N07,Bay Pkwy,-73.981848,40.611815,3400.749997615814
12:03:00,1,N08,Kings Hwy,-73.980353,40.603923,3520.749997615814
12:03:00,1,N09,Avenue U,-73.979137,40.597473,3416.6400017738333
12:03:00,1,N10,86 St,-73.97823,40.592721,3318.6400017738333
12:13:30,1,Q01,Canal St,-74.00046,40.718383,1519.499998807907
13:02:00,0,Q03,72 St,-73.958424,40.768799,2620.249998807907
13:02:00,0,Q04,86 St,-73.951787,40.777891,2745.249998807907
13:02:00,0,Q05,96 St,-73.947152,40.784318,2858.249998807907
12:03:00,1,R01,Astoria-Ditmars Blvd,-73.912034,40.775036,2962.9749796390533
12:03:00,1,R03,Astoria Blvd,-73.917843,40.770258,2854.7249796390533
12:03:00,1,R04,30 Av,-73.921479,40.766779,2737.7249796390533
12:03:00,1,R05,Broadway,-73.925508,40.76182,2625.9749796390533
12:03:00,1,R06,36 Av,-73.929575,40.756804,2506.9749796390533
12:03:00,1,R08,39 Av-Dutch Kills,-73.932755,40.752882,2384.974979639054
12:03:00,1,R09,Queensboro Plaza,-73.940202,40.750582,2207.9749796390533
12:03:00,1,R11,Lexington Av/59 St,-73.967258,40.76266,2462.5326731204987
12:03:00,1,R13,5 Av/59 St,-73.973347,40.764811,2517.499998807907
12:13:30,1,R14,57 St-7 Av,-73.980658,40.764664,2295.249998807907
12:13:30,1,R15,49 St,-73.984139,40.759901,2231.499998807907
12:13:30,1,R16,Times Sq-42 St,-73.986754,40.754672,2108.499998807907
12:13:30,1,R17,34 St-Herald Sq,-73.98795,40.749567,1983.499998807907
12:13:30,1,R18,28 St,-73.988691,40.745494,2031.279427051544
12:43:30,1,R19,23 St,-73.989344,40.741303,1926.279427051544
12:13:30,1,R20,14 St-Union Sq,-73.990568,40.735736,1803.499998807907
12:43:30,1,R21,8 St-NYU,-73.992629,40.730328,1869.499998807907
12:43:30,1,R22,Prince St,-73.997702,40.724329,1758.499998807907
12:43:30,1,R23,Canal St,-74.001775,40.719527,1639.499998807907
12:13:30,1,R24,City Hall,-74.006978,40.713282,1799.499998807907
12:13:30,1,R25,Cortlandt St,-74.011029,40.710668,1911.749997615814
12:09:30,2,R26,Rector St,-74.013342,40.70722,1755.4999976158142
12:09:30,2,R27,Whitehall St-South Ferry,-74.012994,40.703087,1680.7499976158142
12:09:30,2,R28,Court St,-73.991777,40.6941,1422.2391300201416
12:09:30,2,R29,Jay St-MetroTech,-73.985942,40.69218,1318.7391300201416
12:09:30,2,R30,DeKalb Av,-73.981824,40.690635,1438.7391300201416
12:03:00,1,R31,Atlantic Av-Barclays Ctr,-73.97881,40.683666,1618.7391300201416
12:49:30,2,R32,Union St,-73.98311,40.677316,1759.2499976158142
12:43:30,0,R33,4 Av-9 St,-73.988302,40.670847,1879.2499976158142
12:49:30,2,R34,Prospect Av,-73.992872,40.665414,2000.499997615814
12:43:30,0,R35,25 St,-73.998091,40.660397,2102.4891300201416
12:03:00,1,R36,36 St,-74.003549,40.655144,2243.9891300201416
12:43:30,0,R39,45 St,-74.010006,40.648939,2391.249997615814
12:03:00,1,R40,53 St,-74.014034,40.645069,2509.999997615814
12:03:00,1,R41,59 St,-74.017881,40.641362,2593.749997615814
12:43:30,0,R42,Bay Ridge Av,-74.023377,40.634967,2759.2905378341675
12:43:30,0,R43,77 St,-74.02551,40.629742,2862.2905378341675
12:43:30,0,R44,86 St,-74.028398,40.622687,3042.2905378341675
12:43:30,0,R45,Bay Ridge-95 St,-74.030876,40.616622,3113.2905378341675
12:09:30,2,S01,Franklin Av,-73.955827,40.680596,1019.0
12:09:30,2,S03,Park Pl,-73.957624,40.674772,1140.0
12:09:30,2,S04,Botanic Garden,-73.959245,40.670343,1310.0
