start_time,ntransfers,stop_id,stop_name,stop_lon,stop_lat,duration
12:05:30,1,101,Van Cortlandt Park-242 St,-73.898583,40.889248,4804.9891312122345
12:05:30,1,103,238 St,-73.90087,40.884667,4685.7391312122345
12:05:30,1,104,231 St,-73.904834,40.878856,4583.7391312122345
12:05:30,1,106,Marble Hill-225 St,-73.909831,40.874561,4483.7391312122345
12:05:30,1,107,215 St,-73.915279,40.869444,4379.282720565795
12:05:30,1,108,207 St,-73.918822,40.864621,4283.4891312122345
12:05:30,1,109,Dyckman St,-73.925536,40.860531,4176.4891312122345
12:05:30,1,110,191 St,-73.929412,40.855225,4085.489131212234
12:05:30,1,111,181 St,-73.933596,40.849505,3983.489131212234
12:05:30,1,112,168 St-Washington Hts,-73.940133,40.840556,3857.4891312122345
12:05:30,1,113,157 St,-73.94489,40.834041,3828.4809193611145
12:05:30,1,114,145 St,-73.95036,40.826551,3707.4809193611145
12:05:30,1,115,137 St-City College,-73.953676,40.822008,3605.4809193611145
12:05:30,1,116,125 St,-73.958372,40.815581,3497.4809193611145
12:05:30,1,117,116 St-Columbia University,-73.96411,40.807722,3378.4809193611136
12:05:30,1,118,Cathedral Pkwy (110 St),-73.966847,40.803967,3299.4809193611145
12:05:30,1,119,103 St,-73.968379,40.799446,3215.480919361114
12:05:30,1,120,96 St,-73.972323,40.793919,2893.2500000000005
12:45:30,1,121,86 St,-73.976218,40.788644,2985.4809193611145
12:45:30,1,122,79 St,-73.979917,40.783934,2896.4809193611145
12:05:30,1,123,72 St,-73.98197,40.778453,2694.25
12:25:30,1,124,66 St-Lincoln Center,-73.982209,40.77344,2757.9999999999995
12:25:30,1,125,59 St-Columbus Circle,-73.981929,40.768247,2669.9999999999995
12:25:30,1,126,50 St,-73.983849,40.761728,2554.9999999999995
12:05:30,1,127,Times Sq-42 St,-73.987495,40.75529,2439.0
12:05:30,1,128,34 St-Penn Station,-73.991057,40.750373,2548.0
12:05:30,1,129,28 St,-73.993365,40.747215,2635.0
12:25:30,1,130,23 St,-73.995657,40.744081,2581.9610397815704
12:25:30,1,131,18 St,-73.997871,40.74104,2509.9610397815704
13:55:00,1,132,14 St,-74.000201,40.737826,2432.9610397815704
13:55:00,1,133,Christopher St-Sheridan Sq,-74.002906,40.733422,2528.9610397815704
13:55:00,1,134,Houston St,-74.005367,40.728251,2498.75
13:55:00,1,135,Canal St,-74.006277,40.722854,2409.75
13:55:00,1,136,Franklin St,-74.006886,40.719318,2340.75
13:55:00,1,137,Chambers St,-74.009266,40.715478,2162.5000000000005
12:45:30,1,138,WTC Cortlandt,-74.012188,40.711835,2183.75
12:45:30,1,139,Rector St,-74.013783,40.707513,2101.75
12:45:30,1,142,South Ferry,-74.013664,40.702068,1995.7500000000002
12:15:30,1,201,Wakefield-241 St,-73.85062,40.903125,5767.502429962158
12:15:30,1,204,Nereid Av,-73.854376,40.898379,5511.502429962158
12:15:30,1,205,233 St,-73.857473,40.893193,5363.502429962158
12:15:30,1,206,225 St,-73.860341,40.888022,5265.002429962158
12:15:30,1,207,219 St,-73.862633,40.883895,5181.002429962158
12:15:30,1,208,Gun Hill Rd,-73.866256,40.87785,5068.252429962158
12:15:30,1,209,Burke Av,-73.867164,40.871356,5167.002429962158
12:15:30,1,210,Allerton Av,-73.867352,40.865462,5123.502429962159
12:15:30,1,211,Pelham Pkwy,-73.867615,40.857192,5009.502429962159
12:15:30,1,212,Bronx Park East,-73.868457,40.848828,4880.502429962158
12:15:30,1,213,E 180 St,-73.873488,40.841894,4478.752429962158
12:15:30,1,214,West Farms Sq-E Tremont Av,-73.880049,40.840295,4480.502429962158
12:15:30,1,215,174 St,-73.887734,40.837288,4349.502429962158
12:15:30,1,216,Freeman St,-73.891865,40.829993,4224.502429962158
12:15:30,1,217,Simpson St,-73.893064,40.824073,4108.502429962158
12:15:30,1,218,Intervale Av,-73.896736,40.822181,4029.502429962158
12:15:30,1,219,Prospect Av,-73.90177,40.819585,3941.502429962158
12:15:30,1,220,Jackson Av,-73.907807,40.81649,3837.502429962158
12:15:30,1,221,3 Av-149 St,-73.917757,40.816109,3696.5024299621577
12:15:30,1,222,149 St-Grand Concourse,-73.926718,40.81841,3560.502429962158
12:05:30,1,224,135 St,-73.94077,40.814229,3467.0
12:05:30,1,225,125 St,-73.945495,40.807754,3352.0
12:05:30,1,226,116 St,-73.949625,40.802098,3245.0
12:05:30,1,227,Central Park North (110 St),-73.951822,40.799075,3166.0
13:55:00,1,228,Park Place,-74.008811,40.713051,2068.5
13:55:00,1,229,Fulton St,-74.006571,40.709416,1948.5
13:55:00,1,230,Wall St,-74.0091,40.706821,1869.5
13:55:00,1,231,Clark St,-73.993086,40.697466,1671.4999999999998
13:55:00,1,232,Borough Hall,-73.989998,40.693219,1550.5
13:55:00,1,233,Hoyt St,-73.985065,40.690545,1457.4999999999998
13:55:00,1,234,Nevins St,-73.980492,40.688246,1355.5
12:35:30,1,235,Atlantic Av-Barclays Ctr,-73.977666,40.684359,1268.5
12:35:30,1,236,Bergen St,-73.975098,40.680829,1349.5
12:35:30,1,237,Grand Army Plaza,-73.971046,40.675235,1469.5
12:35:30,1,238,Eastern Pkwy-Brooklyn Museum,-73.964375,40.671987,1585.5
13:55:00,1,239,Franklin Av-Medgar Evers College,-73.958131,40.670682,1550.9999999999998
13:55:00,1,241,President St-Medgar Evers College,-73.950683,40.667883,1779.9999999999998
13:55:00,1,242,Sterling St,-73.95085,40.662742,1877.9999999999998
13:55:00,1,243,Winthrop St,-73.9502,40.656652,1975.9999999999998
13:55:00,1,244,Church Av,-73.949575,40.650843,2066.0
13:55:00,1,245,Beverly Rd,-73.948959,40.645098,2176.0
13:55:00,1,246,Newkirk Av-Little Haiti,-73.948411,40.639967,2273.9999999999995
13:55:00,1,247,Flatbush Av-Brooklyn College,-73.947642,40.632836,2435.4999999999995
13:55:00,1,248,Nostrand Av,-73.950466,40.669847,1736.25
13:55:00,1,249,Kingston Av,-73.942161,40.669399,1838.0
12:05:30,1,250,Crown Hts-Utica Av,-73.932942,40.668897,1920.5
13:55:00,1,251,Sutter Av-Rutland Rd,-73.92261,40.664717,2064.25
13:55:00,1,252,Saratoga Av,-73.916327,40.661453,2180.0
13:55:00,1,253,Rockaway Av,-73.908946,40.662549,2273.0
13:55:00,1,254,Junius St,-73.902447,40.663515,2360.0
13:55:00,1,255,Pennsylvania Av,-73.894895,40.664635,2464.0
13:55:00,1,256,Van Siclen Av,-73.889395,40.665449,2543.0000000000005
13:55:00,1,257,New Lots Av,-73.884079,40.666235,2639.5
12:25:30,1,301,Harlem-148 St,-73.93647,40.82388,3781.25
12:25:30,1,302,145 St,-73.936245,40.820421,3622.2500000000005
12:35:30,1,401,Woodlawn,-73.878751,40.886037,4947.843132019043
12:35:30,1,402,Mosholu Pkwy,-73.884655,40.87975,4796.252429962158
12:35:30,1,405,Bedford Park Blvd-Lehman College,-73.890064,40.873412,4679.752429962158
12:35:30,1,406,Kingsbridge Rd,-73.897174,40.86776,4559.752429962158
12:35:30,1,407,Fordham Rd,-73.901034,40.862803,4458.752429962158
12:35:30,1,408,183 St,-73.903879,40.858407,4371.752429962158
12:35:30,1,409,Burnside Av,-73.907684,40.853453,4268.752429962158
12:35:30,1,410,176 St,-73.911794,40.84848,4183.843132019043
12:35:30,1,411,Mt Eden Av,-73.914685,40.844434,4098.843132019043
12:35:30,1,412,170 St,-73.917791,40.840075,4011.8431320190425
12:35:30,1,413,167 St,-73.9214,40.835537,3915.843132019043
12:35:30,1,414,161 St-Yankee Stadium,-73.925831,40.827994,3722.002429962158
12:35:30,1,415,149 St-Grand Concourse,-73.927351,40.818375,3541.002429962158
12:15:30,1,416,138 St-Grand Concourse,-73.929849,40.813224,3368.252429962158
12:05:30,1,418,Fulton St,-74.009509,40.710368,1988.4790070056913
12:05:30,1,419,Wall St,-74.011862,40.707557,1902.7290070056913
12:05:30,1,420,Bowling Green,-74.014065,40.704817,1819.7290070056913
12:05:30,1,423,Borough Hall,-73.990151,40.692404,1516.0
13:35:30,1,501,Eastchester-Dyre Av,-73.830834,40.8883,5228.752429962158
12:15:30,1,502,Baychester Av,-73.838591,40.878663,5078.752429962158
12:15:30,1,503,Gun Hill Rd,-73.846384,40.869526,4928.752429962158
12:15:30,1,504,Pelham Pkwy,-73.855359,40.858985,4778.752429962158
12:15:30,1,505,Morris Park,-73.860495,40.854364,4688.752429962158
13:15:30,1,601,Pelham Bay Park,-73.828121,40.852462,5176.395288467407
13:15:30,1,602,Buhre Av,-73.832569,40.84681,4965.895288467407
13:15:30,1,603,Middletown Rd,-73.836322,40.843863,4887.895288467407
13:15:30,1,604,Westchester Sq-E Tremont Av,-73.842952,40.839892,4733.395288467407
13:15:30,1,606,Zerega Av,-73.847036,40.836488,4641.145288467407
13:15:30,1,607,Castle Hill Av,-73.851222,40.834255,4567.145288467407
12:35:30,1,608,Parkchester,-73.860816,40.833226,4331.145288467407
12:35:30,1,609,St Lawrence Av,-73.867618,40.831509,4511.239600658417
12:35:30,1,610,Morrison Av-Soundview,-73.874516,40.829521,4419.239600658417
12:35:30,1,611,Elder Av,-73.879159,40.828584,4345.239600658417
12:35:30,1,612,Whitlock Av,-73.886283,40.826525,4233.239600658417
12:35:30,1,613,Hunts Point Av,-73.890549,40.820948,4000.3952884674068
12:15:30,1,614,Longwood Av,-73.896435,40.816104,4119.2048144340515
12:15:30,1,615,E 149 St,-73.904098,40.812118,4015.2048144340515
12:15:30,1,616,E 143 St-St Mary's St,-73.907657,40.808719,3931.2048144340515
12:15:30,1,617,Cypress Av,-73.914042,40.805368,3825.7408037185664
12:15:30,1,618,Brook Av,-73.91924,40.807566,3747.740803718567
12:15:30,1,619,3 Av-138 St,-73.926138,40.810476,3623.395288467407
12:15:30,1,621,125 St,-73.937594,40.804138,3181.252429962158
12:15:30,1,622,116 St,-73.941617,40.798629,3473.9374024868016
12:15:30,1,623,110 St,-73.94425,40.79502,3389.9374024868016
12:15:30,1,624,103 St,-73.947478,40.7906,3306.9374024868016
12:15:30,1,625,96 St,-73.95107,40.785672,3211.9374024868016
12:15:30,1,626,86 St,-73.955589,40.779492,2857.252429962158
12:15:30,1,627,77 St,-73.959874,40.77362,3013.880954027176
12:15:30,1,628,68 St-Hunter College,-73.96387,40.768141,2906.8809540271764
12:15:30,1,629,59 St,-73.967967,40.762526,2641.2524299621587
12:15:30,1,630,51 St,-73.97192,40.757107,2692.880954027176
12:15:30,1,631,Grand Central-42 St,-73.976848,40.751776,2482.252429962158
12:05:30,1,632,33 St,-73.982076,40.746081,2402.8809540271764
12:05:30,1,633,28 St,-73.984264,40.74307,2328.8809540271764
12:05:30,1,634,23 St,-73.986599,40.739864,2247.3809540271764
12:05:30,1,635,14 St-Union Sq,-73.989951,40.734673,2138.380954027176
12:05:30,1,636,Astor Pl,-73.99107,40.730054,2069.7893185615544
12:15:30,1,637,Bleecker St,-73.994659,40.725915,1966.7893185615544
12:15:30,1,638,Spring St,-73.997141,40.722301,1950.0
12:05:30,1,639,Canal St,-74.000193,40.718803,1866.0
12:05:30,1,640,Brooklyn Bridge-City Hall,-74.004131,40.713065,1981.0
13:55:00,1,701,Flushing-Main St,-73.83003,40.7596,4253.2731511592865
13:45:30,1,702,Mets-Willets Point,-73.845625,40.754622,4057.6758266176494
13:45:30,1,705,111 St,-73.855334,40.75173,4078.5329694747925
13:45:30,1,706,103 St-Corona Plaza,-73.8627,40.749865,4002.5329694747925
13:45:30,1,707,Junction Blvd,-73.869527,40.749145,3810.5329694747925
13:45:30,1,708,90 St-Elmhurst Av,-73.876613,40.748408,3894.2252776622768
13:45:30,1,709,82 St-Jackson Hts,-73.883697,40.747659,3796.3332598209386
13:45:30,1,710,74 St-Broadway,-73.891394,40.746848,3642.225277662277
13:45:30,1,711,69 St,-73.896403,40.746325,3550.225277662277
13:45:30,1,712,61 St-Woodside,-73.902984,40.74563,3469.225277662277
13:45:30,1,713,52 St,-73.912549,40.744149,3374.225277662277
13:45:30,1,714,46 St-Bliss St,-73.918435,40.743132,3311.225277662277
13:45:30,1,715,40 St-Lowery St,-73.924016,40.743781,3248.225277662277
13:45:30,1,716,33 St-Rawson St,-73.930997,40.744587,3177.2252776622777
12:05:30,1,718,Queensboro Plaza,-73.940202,40.750582,3006.532969474793
12:05:30,1,719,Court Sq,-73.945264,40.747023,2911.782969474793
12:05:30,1,720,Hunters Point Av,-73.948916,40.742216,2822.282969474793
12:05:30,1,721,Vernon Blvd-Jackson Av,-73.953581,40.742626,2784.782969474793
12:05:30,1,723,Grand Central-42 St,-73.976041,40.751431,2571.032969474793
12:05:30,1,724,5 Av,-73.981963,40.753821,2495.032969474793
12:05:30,2,725,Times Sq-42 St,-73.987691,40.755477,2439.0
12:05:30,1,726,34 St-Hudson Yards,-74.00191,40.755882,2591.0
12:05:30,1,901,Grand Central-42 St,-73.979189,40.752769,2490.0
12:05:30,1,902,Times Sq-42 St,-73.986229,40.755983,2379.0
13:05:30,0,A02,Inwood-207 St,-73.919899,40.868072,4244.0
12:05:30,1,A03,Dyckman St,-73.927271,40.865491,4130.0
12:05:30,1,A05,190 St,-73.93418,40.859022,3996.9999999999995
12:05:30,1,A06,181 St,-73.937969,40.851695,3876.9999999999995
12:05:30,1,A07,175 St,-73.939704,40.847391,3761.9999999999995
12:05:30,1,A09,168 St,-73.939561,40.840719,3632.0
12:05:30,1,A10,163 St-Amsterdam Av,-73.939892,40.836013,3657.1578962802887
12:15:30,0,A11,155 St,-73.941514,40.830518,3552.1578962802887
12:05:30,1,A12,145 St,-73.944216,40.824783,3377.0
12:25:30,0,A14,135 St,-73.947649,40.817894,3265.0
12:55:30,0,A15,125 St,-73.952343,40.811109,3137.0
12:05:30,1,A16,116 St,-73.954882,40.805085,3297.1578962802882
12:05:30,1,A17,Cathedral Pkwy (110 St),-73.958161,40.800603,3354.0
12:05:30,1,A18,103 St,-73.961454,40.796092,3254.0
12:05:30,1,A19,96 St,-73.964696,40.791642,3144.0
12:05:30,1,A20,86 St,-73.968916,40.785868,3029.0
12:05:30,1,A21,81 St-Museum of Natural History,-73.972143,40.781433,2920.0
12:05:30,1,A22,72 St,-73.97641,40.775594,2804.0
13:05:30,1,A24,59 St-Columbus Circle,-73.981736,40.768296,2619.0
12:05:30,1,A25,50 St,-73.985984,40.762456,2558.0
12:05:30,2,A27,42 St-Port Authority Bus Terminal,-73.989735,40.757308,2439.0
13:45:30,1,A28,34 St-Penn Station,-73.993391,40.752287,2465.560746192932
12:05:30,2,A30,23 St,-73.998041,40.745906,2397.560746192932
13:15:30,1,A31,14 St,-74.00169,40.740893,2282.5607461929326
13:15:30,1,A32,W 4 St-Wash Sq,-74.000495,40.732338,2162.5607461929326
13:05:30,1,A33,Spring St,-74.003739,40.726227,2282.5607461929326
13:15:30,1,A34,Canal St,-74.005229,40.720824,2162.964284181595
13:15:30,1,A36,Chambers St,-74.008585,40.714111,2027.4062488079069
13:15:30,1,A38,Fulton St,-74.007691,40.710197,1909.406248807907
13:15:30,1,A40,High St,-73.990531,40.699337,1724.406248807907
13:25:30,1,A41,Jay St-MetroTech,-73.987342,40.692338,1596.75
13:35:30,1,A42,Hoyt-Schermerhorn Sts,-73.985001,40.688484,1575.75
12:15:30,1,A43,Lafayette Av,-73.973946,40.686113,1891.9642841815946
13:25:30,1,A44,Clinton-Washington Avs,-73.965838,40.683263,1991.9642841815946
13:25:30,1,A45,Franklin Av,-73.956848,40.68138,2123.4062488079076
13:35:30,1,A46,Nostrand Av,-73.950426,40.680438,2022.5108675956726
12:15:30,1,A47,Kingston-Throop Avs,-73.940858,40.679921,2142.5108675956726
13:35:30,1,A48,Utica Av,-73.930729,40.679364,2204.5108675956726
13:35:30,1,A49,Ralph Av,-73.920786,40.678822,2324.5108675956726
13:35:30,1,A50,Rockaway Av,-73.911946,40.67834,2439.510867595672
13:35:30,1,A51,Broadway Junction,-73.905316,40.678334,2449.5108675956726
13:25:30,1,A52,Liberty Av,-73.896548,40.674542,2574.5108675956726
13:25:30,1,A53,Van Siclen Av,-73.890358,40.67271,2679.5108675956726
13:25:30,1,A54,Shepherd Av,-73.88075,40.67413,2799.5108675956726
13:35:30,1,A55,Euclid Av,-73.872106,40.675377,2833.964284181595
13:35:30,1,A57,Grant Av,-73.86505,40.677044,2958.964284181595
13:35:30,1,A59,80 St,-73.858992,40.679371,3073.964284181595
13:35:30,1,A60,88 St,-73.85147,40.679843,3191.964284181595
13:35:30,1,A61,Rockaway Blvd,-73.843853,40.680429,3303.964284181595
13:35:30,1,A63,104 St,-73.837683,40.681711,3413.9642841815953
13:35:30,1,A64,111 St,-73.832163,40.684331,3521.964284181595
13:35:30,1,A65,Ozone Park-Lefferts Blvd,-73.825798,40.685951,3636.5108675956726
12:05:30,0,B04,21 St-Queensbridge,-73.942836,40.754203,3074.5607461929326
12:05:30,0,B06,Roosevelt Island,-73.95326,40.759145,2954.5607461929326
12:05:30,0,B08,Lexington Av/63 St,-73.966113,40.764629,2804.5607461929326
12:05:30,1,B10,57 St,-73.97745,40.763972,2654.5607461929326
12:05:30,0,B12,9 Av,-73.994324,40.646292,862.3726429939269
12:00:00,1,B13,Fort Hamilton Pkwy,-73.994304,40.640914,742.3726429939269
12:00:00,1,B14,50 St,-73.994791,40.63626,642.122642993927
12:00:00,1,B15,55 St,-73.995476,40.631435,522.122642993927
12:00:00,1,B16,62 St,-73.996895,40.626472,452.122642993927
12:00:00,1,B17,71 St,-73.998864,40.619589,572.122642993927
12:00:00,1,B18,79 St,-74.00061,40.613501,692.122642993927
12:00:00,1,B19,18 Av,-74.001736,40.607954,797.122642993927
12:00:00,1,B20,20 Av,-73.998168,40.604556,902.122642993927
12:00:00,1,B21,Bay Pkwy,-73.993728,40.601875,994.1226429939271
12:00:00,1,B22,25 Av,-73.986829,40.597704,1119.122642993927
12:00:00,0,B23,Bay 50 St,-73.983765,40.588841,1310.0
12:05:30,0,D01,Norwood-205 St,-73.878855,40.874811,4813.815792560577
12:05:30,0,D03,Bedford Park Blvd,-73.887138,40.873244,4603.315792560577
12:05:30,0,D04,Kingsbridge Rd,-73.893509,40.866978,4483.315792560577
12:05:30,0,D05,Fordham Rd,-73.897749,40.861296,4367.315792560577
12:05:30,0,D06,182-183 Sts,-73.900741,40.856093,4289.315792560577
12:55:30,0,D07,Tremont Av,-73.905227,40.85041,4187.315792560577
12:55:30,0,D08,174-175 Sts,-73.910136,40.8459,4105.865978717804
12:55:30,0,D09,170 St,-73.9134,40.839306,3985.8659787178035
12:55:30,0,D10,167 St,-73.91844,40.833771,3865.8659787178035
12:55:30,0,D11,161 St-Yankee Stadium,-73.925651,40.827905,3717.315792560577
12:55:30,0,D12,155 St,-73.938209,40.830135,3587.3157925605774
12:55:30,0,D13,145 St,-73.944216,40.824783,3435.8659787178035
12:55:30,0,D14,7 Av,-73.981637,40.762862,2506.5607461929326
12:05:30,1,D15,47-50 Sts-Rockefeller Ctr,-73.981329,40.758663,2386.5607461929326
12:05:30,1,D16,42 St-Bryant Pk,-73.984569,40.754222,2266.5607461929326
12:05:30,0,D17,34 St-Herald Sq,-73.987823,40.749719,2159.5607461929326
12:05:30,2,D18,23 St,-73.992821,40.742878,2382.5001411437993
13:05:30,0,D19,14 St,-73.996209,40.738228,2274.560746192932
12:05:30,0,D20,W 4 St-Wash Sq,-74.000495,40.732338,1922.5607461929324
12:05:30,0,D21,Broadway-Lafayette St,-73.996204,40.725297,1754.5607461929324
12:05:30,0,D22,Grand St,-73.993753,40.718267,1616.5607461929324
12:05:30,1,D24,Atlantic Av-Barclays Ctr,-73.97689,40.68446,1304.7619032859802
12:05:30,1,D25,7 Av,-73.972367,40.67705,1464.7619032859802
12:05:30,1,D26,Prospect Park,-73.962246,40.661614,1682.7619032859802
12:15:30,1,D27,Parkside Av,-73.961495,40.655292,1797.7619032859802
12:05:30,1,D28,Church Av,-73.962982,40.650527,1922.7619032859802
12:15:30,1,D29,Beverley Rd,-73.964492,40.644031,1989.7619032859802
12:05:30,1,D30,Cortelyou Rd,-73.963891,40.640927,2089.76190328598
12:05:30,1,D31,Newkirk Plaza,-73.962793,40.635082,2146.4523808956146
12:30:00,0,D32,Avenue H,-73.961639,40.62927,2264.7723817825317
12:30:00,0,D33,Avenue J,-73.960803,40.625039,2384.7723817825317
12:30:00,0,D34,Avenue M,-73.959399,40.617618,2336.5000000000005
13:50:00,0,D35,Kings Hwy,-73.957734,40.60867,2102.5000000000005
12:30:00,0,D37,Avenue U,-73.955929,40.5993,2091.5000000000005
12:30:00,0,D38,Neck Rd,-73.955161,40.595246,1970.5000000000005
13:50:00,0,D39,Sheepshead Bay,-73.954155,40.586896,1800.5000000000005
12:30:00,0,D40,Brighton Beach,-73.961376,40.577621,1640.5000000000002
12:30:00,0,D41,Ocean Pkwy,-73.968501,40.576312,1525.5000000000002
12:20:00,0,D42,W 8 St-NY Aquarium,-73.975939,40.576127,1366.0
12:00:00,0,D43,Coney Island-Stillwell Av,-73.981233,40.577422,1239.0
13:45:30,1,E01,World Trade Center,-74.009781,40.712582,2186.9999999999995
13:25:30,0,F01,Jamaica-179 St,-73.783817,40.712646,4634.560746192933
12:05:30,0,F02,169 St,-73.793604,40.71047,4544.560746192933
12:05:30,0,F03,Parsons Blvd,-73.803326,40.707564,4424.560746192933
12:05:30,0,F04,Sutphin Blvd,-73.810708,40.70546,4334.560746192933
12:05:30,0,F05,Briarwood,-73.820574,40.709179,4214.560746192933
12:05:30,0,F06,Kew Gardens-Union Tpke,-73.831008,40.714441,4094.560746192933
12:05:30,0,F07,75 Av,-73.837324,40.718331,4004.560746192933
12:15:30,0,F09,Court Sq-23 St,-73.946,40.747846,3031.782969474793
12:15:30,0,F11,Lexington Av/53 St,-73.969055,40.757552,2860.7472551890787
12:15:30,0,F12,5 Av/53 St,-73.975224,40.760167,2761.563581719691
13:45:30,0,F14,2 Av,-73.989938,40.723402,2076.75
12:25:30,1,F15,Delancey St-Essex St,-73.988114,40.718611,1956.7499999999998
12:25:30,1,F16,East Broadway,-73.990173,40.713715,1866.75
12:25:30,1,F18,York St,-73.986751,40.701397,1686.75
13:35:30,1,F20,Bergen St,-73.990862,40.686145,1460.75
13:35:30,1,F21,Carroll St,-73.995048,40.680303,1330.4999999999998
13:35:30,1,F22,Smith-9 Sts,-73.995959,40.67358,1180.4999999999998
13:25:30,1,F23,4 Av-9 St,-73.989779,40.670272,1075.4999999999998
12:45:30,1,F24,7 Av,-73.980305,40.666271,1195.4999999999998
12:45:30,1,F25,15 St-Prospect Park,-73.979493,40.660365,1315.4999999999998
12:45:30,1,F26,Fort Hamilton Pkwy,-73.975776,40.650782,1491.4999999999995
12:45:30,1,F27,Church Av,-73.979678,40.644041,1483.6651389598844
13:35:30,1,F29,Ditmas Av,-73.978172,40.636119,1603.6651389598844
12:05:30,1,F30,18 Av,-73.976971,40.629755,1723.6651389598844
12:20:00,0,F31,Avenue I,-73.976127,40.625322,1783.6651389598844
12:20:00,0,F32,Bay Pkwy,-73.975264,40.620769,1843.6651389598844
12:20:00,0,F33,Avenue N,-73.974197,40.61514,1963.6651389598844
12:20:00,0,F34,Avenue P,-73.973022,40.608944,2014.9999999999998
12:20:00,0,F35,Kings Hwy,-73.972361,40.603217,1899.9999999999998
12:20:00,0,F36,Avenue U,-73.973357,40.596063,1779.9999999999998
12:20:00,0,F38,Avenue X,-73.97425,40.58962,1614.0
12:20:00,0,F39,Neptune Av,-73.974574,40.581011,1479.0
12:05:30,0,G05,Jamaica Center-Parsons/Archer,-73.801109,40.702147,4026.249997615814
12:05:30,0,G06,Sutphin Blvd-Archer Av-JFK Airport,-73.807969,40.700486,3966.249997615814
12:05:30,0,G07,Jamaica-Van Wyck,-73.816859,40.702566,4331.249997615814
12:05:30,0,G08,Forest Hills-71 Av,-73.844521,40.721691,3884.560746192933
12:05:30,0,G09,67 Av,-73.852719,40.726523,4022.560746192933
12:45:30,0,G10,63 Dr-Rego Park,-73.861604,40.729846,4124.560746192933
12:45:30,0,G11,Woodhaven Blvd,-73.869229,40.733106,4034.560746192933
12:45:30,0,G12,Grand Av-Newtown,-73.877223,40.737015,3914.560746192933
12:45:30,0,G13,Elmhurst Av,-73.882017,40.742454,3824.4218578338628
12:05:30,0,G14,Jackson Hts-Roosevelt Av,-73.891338,40.746644,3464.5607461929326
12:05:30,0,G15,65 St,-73.898453,40.749669,3721.7955930809367
12:15:30,0,G16,Northern Blvd,-73.906006,40.752885,3627.46569617372
12:15:30,0,G18,46 St,-73.913333,40.756312,3537.46569617372
12:15:30,0,G19,Steinway St,-73.92074,40.756879,3420.558479678875
12:15:30,0,G20,36 St,-73.928781,40.752039,3300.558479678875
12:15:30,0,G21,Queens Plaza,-73.937243,40.748973,3153.7829694747925
13:35:30,1,G22,Court Sq,-73.943832,40.746554,2971.782969474793
13:35:30,1,G24,21 St,-73.949724,40.744065,2941.75
13:35:30,1,G26,Greenpoint Av,-73.954449,40.731352,2726.75
13:35:30,1,G28,Nassau Av,-73.951277,40.724635,2611.75
13:35:30,1,G29,Metropolitan Av,-73.951418,40.712792,2451.7500000000005
13:35:30,1,G30,Broadway,-73.950308,40.706092,2331.2500000000005
13:35:30,1,G31,Flushing Av,-73.950234,40.700377,2221.25
13:35:30,1,G32,Myrtle-Willoughby Avs,-73.949046,40.694568,2126.25
13:35:30,1,G33,Bedford-Nostrand Avs,-73.953522,40.689627,2006.25
13:35:30,1,G34,Classon Av,-73.96007,40.688873,1907.25
13:35:30,1,G35,Clinton-Washington Avs,-73.966839,40.688089,1806.75
13:35:30,1,G36,Fulton St,-73.975375,40.687119,1691.75
12:25:30,1,H01,Aqueduct Racetrack,-73.834058,40.668234,3528.964284181595
13:25:30,1,H02,Aqueduct-N Conduit Av,-73.834058,40.668234,3521.5108675956726
13:25:30,1,H03,Howard Beach-JFK Airport,-73.830301,40.660476,3684.5108675956726
13:25:30,1,H04,Broad Channel,-73.815925,40.608382,4180.760867595673
13:25:30,1,H06,Beach 67 St,-73.796924,40.590927,4485.760867595673
13:25:30,1,H07,Beach 60 St,-73.788522,40.592374,4605.760867595673
13:25:30,1,H08,Beach 44 St,-73.776013,40.592943,4725.760867595673
13:25:30,1,H09,Beach 36 St,-73.768175,40.595398,4842.760867595673
13:25:30,1,H10,Beach 25 St,-73.761353,40.600066,4961.760867595673
13:25:30,1,H11,Far Rockaway-Mott Av,-73.755405,40.603995,5032.760867595673
13:55:00,1,H12,Beach 90 St,-73.813641,40.588034,4533.964284181595
13:55:00,1,H13,Beach 98 St,-73.820558,40.585307,4642.760867595673
13:55:00,1,H14,Beach 105 St,-73.827559,40.583209,4714.7608675956735
13:55:00,1,H15,Rockaway Park-Beach 116 St,-73.835592,40.580903,4828.7608675956735
12:05:30,1,J12,121 St,-73.828294,40.700492,3726.249997615814
12:05:30,1,J13,111 St,-73.836345,40.697418,3891.249997615814
12:05:30,1,J14,104 St,-73.84433,40.695178,3546.249997615814
12:05:30,1,J15,Woodhaven Blvd,-73.851576,40.693879,3456.249997615814
12:05:30,1,J16,85 St-Forest Pkwy,-73.86001,40.692435,3567.249997615814
12:05:30,1,J17,75 St-Elderts Ln,-73.867139,40.691324,3276.249997615814
12:05:30,1,J19,Cypress Hills,-73.87255,40.689941,3387.249997615814
12:05:30,1,J20,Crescent St,-73.873785,40.683194,3126.249997615814
12:05:30,1,J21,Norwood Av,-73.880039,40.68141,3036.249997615814
12:05:30,1,J22,Cleveland St,-73.884639,40.679947,3079.249997615814
12:05:30,1,J23,Van Siclen Av,-73.891688,40.678024,2886.249997615814
13:35:30,2,J24,Alabama Av,-73.898654,40.676992,2826.249997615814
12:05:30,1,J27,Broadway Junction,-73.904512,40.679498,2736.249997615814
13:15:30,2,J28,Chauncey St,-73.910456,40.682893,2796.249997615814
12:05:30,1,J29,Halsey St,-73.916559,40.68637,2931.249997615814
12:05:30,1,J30,Gates Av,-73.92227,40.68963,2946.249997615814
12:05:30,1,J31,Kosciuszko St,-73.928814,40.693342,2960.7211530208588
12:05:30,1,L01,8 Av,-74.002578,40.739777,2347.485976696015
12:05:30,1,L02,6 Av,-73.996786,40.737335,2222.9610397815704
12:05:30,1,L03,14 St-Union Sq,-73.99073,40.734789,2124.9610397815704
12:05:30,1,L05,3 Av,-73.986122,40.732849,2208.9610397815704
12:05:30,1,L06,1 Av,-73.981628,40.730953,2251.9610397815704
12:05:30,1,L08,Bedford Av,-73.956872,40.717304,2458.961039781571
12:05:30,1,L10,Lorimer St,-73.950275,40.714063,2556.961039781571
12:05:30,1,L11,Graham Av,-73.944053,40.714565,2598.961039781571
12:05:30,1,L12,Grand St,-73.94067,40.711926,2688.961039781571
12:05:30,1,L13,Montrose Av,-73.93985,40.707739,2743.961039781571
12:05:30,1,L14,Morgan Av,-73.933147,40.706152,2820.9610397815704
12:05:30,1,L15,Jefferson St,-73.922913,40.706607,2911.9610397815704
12:05:30,1,L16,DeKalb Av,-73.918425,40.703811,2985.9610397815704
12:05:30,1,L17,Myrtle-Wyckoff Avs,-73.911586,40.699814,3068.9610397815704
12:05:30,1,L19,Halsey St,-73.904084,40.695602,3041.249997615814
12:05:30,2,L20,Wilson Av,-73.904046,40.688764,2909.249997615814
13:25:30,2,L21,Bushwick Av-Aberdeen St,-73.905249,40.682829,2807.249997615814
12:05:30,2,L22,Broadway Junction,-73.90324,40.678856,2736.249997615814
13:25:30,2,L24,Atlantic Av,-73.903097,40.675345,2836.249997615814
12:25:30,2,L25,Sutter Av,-73.901975,40.669367,2761.0
12:25:30,2,L26,Livonia Av,-73.900571,40.664038,2690.0
12:25:30,2,L27,New Lots Av,-73.899232,40.658733,2753.0
12:25:30,2,L28,East 105 St,-73.899485,40.650573,2884.0
12:25:30,2,L29,Canarsie-Rockaway Pkwy,-73.90185,40.646654,3026.9999999999995
13:05:30,0,M01,Middle Village-Metropolitan Av,-73.889601,40.711396,3641.162620306015
12:45:30,0,M04,Fresh Pond Rd,-73.895877,40.706186,3526.912620306015
13:05:30,0,M05,Forest Av,-73.903077,40.704423,3406.912620306015
12:45:30,0,M06,Seneca Av,-73.90774,40.702762,3291.912620306015
12:45:30,0,M08,Myrtle-Wyckoff Avs,-73.912385,40.69943,3201.912620306015
12:15:30,0,M09,Knickerbocker Av,-73.919711,40.698664,3061.412620306015
12:45:30,0,M10,Central Av,-73.927397,40.697857,2951.412620306015
12:05:30,1,M11,Myrtle Av,-73.935657,40.697207,2780.499998807907
12:05:30,1,M12,Flushing Av,-73.941126,40.70026,2823.721153020859
12:05:30,1,M13,Lorimer St,-73.947408,40.703869,2711.7211530208588
12:05:30,1,M14,Hewes St,-73.953431,40.70687,2596.721153020859
12:05:30,1,M16,Marcy Av,-73.957757,40.708359,2476.721153020859
12:05:30,1,M18,Delancey St-Essex St,-73.987437,40.718315,2074.7211530208588
12:05:30,1,M19,Bowery,-73.993915,40.72028,1971.7211530208588
12:15:30,1,M20,Canal St,-73.999892,40.718092,1851.7211530208588
12:15:30,1,M21,Chambers St,-74.003401,40.713243,1971.7211530208588
12:15:30,1,M22,Fulton St,-74.007582,40.710374,2079.7211530208588
12:15:30,1,M23,Broad St,-74.011056,40.706476,2145.7211530208588
13:50:00,0,N02,8 Av,-74.011719,40.635064,0.0
12:00:00,0,N03,Fort Hamilton Pkwy,-74.005351,40.631386,102.75
12:00:00,0,N04,New Utrecht Av,-73.996353,40.624842,225.0
12:00:00,0,N05,18 Av,-73.990414,40.620671,336.25
12:00:00,0,N06,20 Av,-73.985026,40.61741,428.25
12:00:00,0,N07,Bay Pkwy,-73.981848,40.611815,531.75
12:00:00,0,N08,Kings Hwy,-73.980353,40.603923,657.25
12:00:00,0,N09,Avenue U,-73.979137,40.597473,777.25
12:00:00,0,N10,86 St,-73.97823,40.592721,847.5
12:05:30,0,Q01,Canal St,-74.00046,40.718383,1626.0
12:05:30,0,Q03,72 St,-73.958424,40.768799,2944.4999999999995
12:05:30,0,Q04,86 St,-73.951787,40.777891,3075.7499999999995
12:05:30,0,Q05,96 St,-73.947152,40.784318,3188.7499999999995
12:05:30,0,R01,Astoria-Ditmars Blvd,-73.912034,40.775036,3813.225277662277
12:05:30,0,R03,Astoria Blvd,-73.917843,40.770258,3704.9752776622777
12:05:30,0,R04,30 Av,-73.921479,40.766779,3587.975277662277
12:05:30,0,R05,Broadway,-73.925508,40.76182,3476.2252776622777
12:05:30,0,R06,36 Av,-73.929575,40.756804,3357.2252776622777
12:05:30,0,R08,39 Av-Dutch Kills,-73.932755,40.752882,3235.2252776622777
12:05:30,0,R09,Queensboro Plaza,-73.940202,40.750582,3058.2252776622777
12:05:30,0,R11,Lexington Av/59 St,-73.967258,40.76266,2851.0
12:05:30,0,R13,5 Av/59 St,-73.973347,40.764811,2736.0
12:05:30,0,R14,57 St-7 Av,-73.980658,40.764664,2594.5
12:05:30,0,R15,49 St,-73.984139,40.759901,2475.5
12:05:30,0,R16,Times Sq-42 St,-73.986754,40.754672,2319.0
12:05:30,0,R17,34 St-Herald Sq,-73.98795,40.749567,2199.0
12:05:30,0,R18,28 St,-73.988691,40.745494,2365.680849313736
12:05:30,0,R19,23 St,-73.989344,40.741303,2256.0
12:05:30,0,R20,14 St-Union Sq,-73.990568,40.735736,1911.0
12:05:30,0,R21,8 St-NYU,-73.992629,40.730328,2114.7096738815308
12:45:30,1,R22,Prince St,-73.997702,40.724329,1994.709673881531
12:05:30,1,R23,Canal St,-74.001775,40.719527,1869.7096738815308
12:05:30,1,R24,City Hall,-74.006978,40.713282,2049.7096738815308
12:05:30,1,R25,Cortlandt St,-74.011029,40.710668,2067.75
12:35:30,0,R26,Rector St,-74.013342,40.70722,1882.75
12:35:30,0,R27,Whitehall St-South Ferry,-74.012994,40.703087,1815.75
12:35:30,0,R28,Court St,-73.991777,40.6941,1586.75
12:35:30,0,R29,Jay St-MetroTech,-73.985942,40.69218,1461.75
13:55:00,1,R30,DeKalb Av,-73.981824,40.690635,1205.5607461929324
12:05:30,0,R31,Atlantic Av-Barclays Ctr,-73.97881,40.683666,961.0
12:05:30,0,R32,Union St,-73.98311,40.677316,975.5
12:35:30,0,R33,4 Av-9 St,-73.988302,40.670847,850.4999999999999
12:35:30,0,R34,Prospect Av,-73.992872,40.665414,733.5
12:35:30,0,R35,25 St,-73.998091,40.660397,658.5
12:05:30,0,R36,36 St,-74.003549,40.655144,475.0
12:35:30,0,R39,45 St,-74.010006,40.648939,402.0
12:35:30,0,R40,53 St,-74.014034,40.645069,286.0
12:05:30,0,R41,59 St,-74.017881,40.641362,181.0
12:05:30,0,R42,Bay Ridge Av,-74.023377,40.634967,346.54054021835327
12:05:30,0,R43,77 St,-74.02551,40.629742,449.54054021835327
12:05:30,0,R44,86 St,-74.028398,40.622687,629.5405402183533
12:05:30,0,R45,Bay Ridge-95 St,-74.030876,40.616622,700.5405402183534
12:05:30,1,S01,Franklin Av,-73.955827,40.680596,2094.7131156921387
12:05:30,1,S03,Park Pl,-73.957624,40.674772,1970.7131156921384
12:05:30,1,S04,Botanic Garden,-73.959245,40.670343,1822.0
