start_time,ntransfers,stop_id,stop_name,stop_lon,stop_lat,duration
12:09:30,0,101,Van Cortlandt Park-242 St,-73.898583,40.889248,449.25339427418646
12:04:30,0,103,238 St,-73.90087,40.884667,344.46710395160585
12:04:30,0,104,231 St,-73.904834,40.878856,251.8686483531502
12:04:30,0,106,Marble Hill-225 St,-73.909831,40.874561,166.1417110837775
12:04:30,0,107,215 St,-73.915279,40.869444,74.4037037037037
12:04:30,0,108,207 St,-73.918822,40.864621,0.0
12:02:30,0,109,Dyckman St,-73.925536,40.860531,89.13382899628253
12:02:30,0,110,191 St,-73.929412,40.855225,174.8030305171951
12:02:30,0,111,181 St,-73.933596,40.849505,268.0068041021007
12:02:30,0,112,168 St-Washington Hts,-73.940133,40.840556,388.09013743543403
12:02:30,0,113,157 St,-73.94489,40.834041,483.12044046573703
12:02:30,0,114,145 St,-73.95036,40.826551,596.2864782015861
12:02:30,0,115,137 St-City College,-73.953676,40.822008,680.4449687676239
12:02:30,0,116,125 St,-73.958372,40.815581,803.7180314982512
12:02:30,0,117,116 St-Columbia University,-73.96411,40.807722,921.3917820173525
12:02:30,0,118,Cathedral Pkwy (110 St),-73.966847,40.803967,993.3684537109319
12:02:30,0,119,103 St,-73.968379,40.799446,1075.0906759331542
12:02:30,0,120,96 St,-73.972323,40.793919,1181.2479668161602
12:02:30,0,121,86 St,-73.976218,40.788644,1290.2766553407505
12:02:30,0,122,79 St,-73.979917,40.783934,1367.1506390805878
12:14:30,0,123,72 St,-73.98197,40.778453,1461.2037003050777
12:02:30,0,124,66 St-Lincoln Center,-73.982209,40.77344,1542.2077488880736
12:02:30,0,125,59 St-Columbus Circle,-73.981929,40.768247,1632.9371757032152
12:02:30,0,126,50 St,-73.983849,40.761728,1735.0835429699011
12:14:30,0,127,Times Sq-42 St,-73.987495,40.75529,1720.985788353118
12:14:30,0,128,34 St-Penn Station,-73.991057,40.750373,1822.3447627120925
12:02:30,0,129,28 St,-73.993365,40.747215,2030.5210883149332
12:02:30,0,130,23 St,-73.995657,40.744081,2099.6693772883173
12:02:30,0,131,18 St,-73.997871,40.74104,2167.8474075913477
12:14:30,0,132,14 St,-74.000201,40.737826,1977.6608917443505
12:02:30,0,133,Christopher St-Sheridan Sq,-74.002906,40.733422,2279.3206139665726
12:02:30,0,134,Houston St,-74.005367,40.728251,2365.201566347525
12:02:30,0,135,Canal St,-74.006277,40.722854,2459.124920854931
12:02:30,0,136,Franklin St,-74.006886,40.719318,2523.3178342407577
12:14:30,0,137,Chambers St,-74.009266,40.715478,2236.6479047313633
12:02:30,0,138,WTC Cortlandt,-74.012188,40.711835,2560.656054438917
12:02:30,0,139,Rector St,-74.013783,40.707513,2653.6093618319132
12:02:30,0,142,South Ferry,-74.013664,40.702068,2793.4770661120688
12:02:30,4,201,Wakefield-241 St,-73.85062,40.903125,4158.089988072183
12:02:30,4,204,Nereid Av,-73.854376,40.898379,3916.123861554461
12:02:30,4,205,233 St,-73.857473,40.893193,3826.123861554461
12:02:30,4,206,225 St,-73.860341,40.888022,3736.123861554461
12:02:30,4,207,219 St,-73.862633,40.883895,3646.123861554461
12:02:30,4,208,Gun Hill Rd,-73.866256,40.87785,3541.123861554461
12:02:30,4,209,Burke Av,-73.867164,40.871356,3534.7755425709615
12:02:30,4,210,Allerton Av,-73.867352,40.865462,3442.645107788353
12:02:30,4,211,Pelham Pkwy,-73.867615,40.857192,3338.2972817013965
12:02:30,4,212,Bronx Park East,-73.868457,40.848828,3213.4711947448745
12:02:30,4,213,E 180 St,-73.873488,40.841894,2948.30288282011
12:02:30,4,214,West Farms Sq-E Tremont Av,-73.880049,40.840295,2947.489994633842
12:02:30,4,215,174 St,-73.887734,40.837288,2817.40378773729
12:02:30,4,216,Freeman St,-73.891865,40.829993,2697.5661808996833
12:02:30,4,217,Simpson St,-73.893064,40.824073,2587.18482496748
12:02:30,4,218,Intervale Av,-73.896736,40.822181,2514.261096153921
12:02:30,4,219,Prospect Av,-73.90177,40.819585,2428.379740221718
12:02:30,4,220,Jackson Av,-73.907807,40.81649,2336.320916692306
12:02:30,4,221,3 Av-149 St,-73.917757,40.816109,2214.6125833589726
12:08:30,0,222,149 St-Grand Concourse,-73.926718,40.81841,2099.5528818664357
12:08:30,0,224,135 St,-73.94077,40.814229,1951.025161555452
12:08:30,0,225,125 St,-73.945495,40.807754,1842.945161555452
12:08:30,0,226,116 St,-73.949625,40.802098,1746.9655697187172
12:08:30,0,227,Central Park North (110 St),-73.951822,40.799075,1678.5931207391254
12:14:30,0,228,Park Place,-74.008811,40.713051,2333.876662901298
12:14:30,0,229,Fulton St,-74.006571,40.709416,2457.3601066099072
12:14:30,0,230,Wall St,-74.0091,40.706821,2539.982623166198
12:14:30,0,231,Clark St,-73.993086,40.697466,2754.1559564995314
12:14:30,0,232,Borough Hall,-73.989998,40.693219,2849.246182063441
12:14:30,0,233,Hoyt St,-73.985065,40.690545,2941.333430385589
12:14:30,0,234,Nevins St,-73.980492,40.688246,3041.9978599157903
12:14:30,0,235,Atlantic Av-Barclays Ctr,-73.977666,40.684359,3131.7275896455203
12:14:30,0,236,Bergen St,-73.975098,40.680829,3213.2546166725474
12:14:30,0,237,Grand Army Plaza,-73.971046,40.675235,3318.871055028712
12:14:30,0,238,Eastern Pkwy-Brooklyn Museum,-73.964375,40.671987,3428.001192015013
12:14:30,0,239,Franklin Av-Medgar Evers College,-73.958131,40.670682,3462.7631649400537
12:14:30,0,241,President St-Medgar Evers College,-73.950683,40.667883,3634.070857247746
12:14:30,0,242,Sterling St,-73.95085,40.662742,3724.5420110939
12:14:30,0,243,Winthrop St,-73.9502,40.656652,3809.694392046281
12:14:30,0,244,Church Av,-73.949575,40.650843,3891.546664773554
12:14:30,0,245,Beverly Rd,-73.948959,40.645098,3972.980627037705
12:14:30,0,246,Newkirk Av-Little Haiti,-73.948411,40.639967,4058.980627037705
12:14:30,0,247,Flatbush Av-Brooklyn College,-73.947642,40.632836,4176.317469142969
12:02:30,0,248,Nostrand Av,-73.950466,40.669847,3590.88426081986
12:02:30,0,249,Kingston Av,-73.942161,40.669399,3676.5092608198606
12:14:30,0,250,Crown Hts-Utica Av,-73.932942,40.668897,3705.0375925797534
12:02:30,0,251,Sutter Av-Rutland Rd,-73.92261,40.664717,3842.0375925797534
12:02:30,0,252,Saratoga Av,-73.916327,40.661453,3938.5709259130863
12:02:30,0,253,Rockaway Av,-73.908946,40.662549,4025.8209259130863
12:02:30,0,254,Junius St,-73.902447,40.663515,3975.8933725679817
12:02:30,0,255,Pennsylvania Av,-73.894895,40.664635,4073.1090588424913
12:02:30,0,256,Van Siclen Av,-73.889395,40.665449,4147.61886276406
12:02:30,0,257,New Lots Av,-73.884079,40.666235,4218.393372567981
12:20:30,0,301,Harlem-148 St,-73.93647,40.82388,2198.914372081768
12:20:30,0,302,145 St,-73.936245,40.820421,2084.5301615554517
12:56:30,3,401,Woodlawn,-73.878751,40.886037,2683.0991262718744
12:56:30,3,402,Mosholu Pkwy,-73.884655,40.87975,2561.526439047205
12:56:30,3,405,Bedford Park Blvd-Lehman College,-73.890064,40.873412,2423.8841976678946
12:56:30,3,406,Kingsbridge Rd,-73.897174,40.86776,2312.3949272816285
12:56:30,3,407,Fordham Rd,-73.901034,40.862803,2227.882632199661
12:56:30,3,408,183 St,-73.903879,40.858407,2148.074468934355
12:56:30,3,409,Burnside Av,-73.907684,40.853453,2052.676128685392
12:56:30,3,410,176 St,-73.911794,40.84848,1964.190651506969
12:56:30,3,411,Mt Eden Av,-73.914685,40.844434,1886.479907705316
12:56:30,3,412,170 St,-73.917791,40.840075,1806.9385853912665
12:56:30,3,413,167 St,-73.9214,40.835537,1719.0298716983204
12:56:30,3,414,161 St-Yankee Stadium,-73.925831,40.827994,1611.0340557987388
12:44:30,3,415,149 St-Grand Concourse,-73.927351,40.818375,1819.5528842506217
12:02:30,3,416,138 St-Grand Concourse,-73.929849,40.813224,1943.223154520892
13:50:30,1,418,Fulton St,-74.009509,40.710368,2747.1165264824085
13:50:30,1,419,Wall St,-74.011862,40.707557,2824.3279802269017
13:50:30,1,420,Bowling Green,-74.014065,40.704817,2898.318805914975
12:02:30,0,423,Borough Hall,-73.990151,40.692404,3166.548535644705
13:44:30,0,501,Eastchester-Dyre Av,-73.830834,40.8883,3698.30288282011
12:02:30,3,502,Baychester Av,-73.838591,40.878663,3548.30288282011
12:02:30,3,503,Gun Hill Rd,-73.846384,40.869526,3398.30288282011
12:02:30,3,504,Pelham Pkwy,-73.855359,40.858985,3248.30288282011
12:02:30,3,505,Morris Park,-73.860495,40.854364,3158.30288282011
12:02:30,3,601,Pelham Bay Park,-73.828121,40.852462,3897.318514332531
12:02:30,3,602,Buhre Av,-73.832569,40.84681,3713.8915639779216
12:02:30,3,603,Middletown Rd,-73.836322,40.843863,3605.058230644588
12:02:30,3,604,Westchester Sq-E Tremont Av,-73.842952,40.839892,3460.3082306445876
12:02:30,3,606,Zerega Av,-73.847036,40.836488,3362.2248973112546
12:02:30,3,607,Castle Hill Av,-73.851222,40.834255,3294.891563977921
12:02:30,3,608,Parkchester,-73.860816,40.833226,3138.891563977921
12:02:30,3,609,St Lawrence Av,-73.867618,40.831509,3376.8289304620403
12:02:30,3,610,Morrison Av-Soundview,-73.874516,40.829521,3291.761201378375
12:02:30,3,611,Elder Av,-73.879159,40.828584,3226.597201378375
12:02:30,3,612,Whitlock Av,-73.886283,40.826525,3120.2572013783747
12:02:30,3,613,Hunts Point Av,-73.890549,40.820948,2882.506948593306
12:02:30,3,614,Longwood Av,-73.896435,40.816104,2964.79913183001
12:02:30,3,615,E 149 St,-73.904098,40.812118,2863.690798496677
12:02:30,3,616,E 143 St-St Mary's St,-73.907657,40.808719,2788.8484748452247
12:02:30,3,617,Cypress Av,-73.914042,40.805368,2689.927972753175
12:02:30,3,618,Brook Av,-73.91924,40.807566,2620.369149223763
12:02:30,3,619,3 Av-138 St,-73.926138,40.810476,2503.430025516383
12:02:30,3,621,125 St,-73.937594,40.804138,2076.572881296848
12:02:30,3,622,116 St,-73.941617,40.798629,2405.644311230669
12:02:30,3,623,110 St,-73.94425,40.79502,2486.0728826592403
12:02:30,3,624,103 St,-73.947478,40.7906,2563.384062070801
12:02:30,3,625,96 St,-73.95107,40.785672,2649.854237509398
12:02:30,3,626,86 St,-73.955589,40.779492,2368.418069581367
12:02:30,2,627,77 St,-73.959874,40.77362,2643.978010992487
12:02:30,2,628,68 St-Hunter College,-73.96387,40.768141,2554.353010992487
12:02:30,2,629,59 St,-73.967967,40.762526,2403.7915066574233
12:02:30,2,630,51 St,-73.97192,40.757107,2361.4313667972833
12:02:30,2,631,Grand Central-42 St,-73.976848,40.751776,2253.7915066574233
12:02:30,2,632,33 St,-73.982076,40.746081,2361.8224344924747
12:02:30,2,633,28 St,-73.984264,40.74307,2428.6781045955677
12:02:30,2,634,23 St,-73.986599,40.739864,2491.93066432253
12:26:30,2,635,14 St-Union Sq,-73.989951,40.734673,2469.4454920694184
12:14:30,2,636,Astor Pl,-73.99107,40.730054,2545.136213718903
12:14:30,2,637,Bleecker St,-73.994659,40.725915,2571.3527586280607
12:32:30,2,638,Spring St,-73.997141,40.722301,2640.502418492006
12:32:30,2,639,Canal St,-74.000193,40.718803,2714.2794455190333
12:14:30,2,640,Brooklyn Bridge-City Hall,-74.004131,40.713065,2752.822166073982
12:02:30,2,701,Flushing-Main St,-73.83003,40.7596,3736.51535706774
12:02:30,2,702,Mets-Willets Point,-73.845625,40.754622,3560.205833258216
12:02:30,2,705,111 St,-73.855334,40.75173,3573.486625810846
12:02:30,2,706,103 St-Corona Plaza,-73.8627,40.749865,3496.3820530072207
12:02:30,2,707,Junction Blvd,-73.869527,40.749145,3326.0487196738873
12:02:30,2,708,90 St-Elmhurst Av,-73.876613,40.748408,3367.4371431543896
12:02:30,2,709,82 St-Jackson Hts,-73.883697,40.747659,3297.36273163788
12:02:30,2,710,74 St-Broadway,-73.891394,40.746848,3155.1144323181525
12:02:30,2,711,69 St,-73.896403,40.746325,3107.70266761227
12:02:30,2,712,61 St-Woodside,-73.902984,40.74563,3035.7942169080447
13:50:30,1,713,52 St,-73.912549,40.744149,2915.8678999695903
13:50:30,1,714,46 St-Bliss St,-73.918435,40.743132,2862.1743066548274
13:50:30,1,715,40 St-Lowery St,-73.924016,40.743781,2810.803833117223
13:50:30,1,716,33 St-Rawson St,-73.930997,40.744587,2742.5235783401527
13:50:30,1,718,Queensboro Plaza,-73.940202,40.750582,2600.048718004957
13:50:30,1,719,Court Sq,-73.945264,40.747023,2488.929059885299
13:50:30,1,720,Hunters Point Av,-73.948916,40.742216,2395.1329166346104
13:50:30,1,721,Vernon Blvd-Jackson Av,-73.953581,40.742626,2333.823667829585
13:50:30,1,723,Grand Central-42 St,-73.976041,40.751431,2117.2122548569946
13:50:30,1,724,5 Av,-73.981963,40.753821,2047.7165598947136
12:02:30,2,725,Times Sq-42 St,-73.987691,40.755477,1955.2165570336908
13:02:30,1,726,34 St-Hudson Yards,-74.00191,40.755882,2127.216559894713
13:02:30,1,901,Grand Central-42 St,-73.979189,40.752769,2041.0096329162357
13:02:30,1,902,Times Sq-42 St,-73.986229,40.755983,1945.1562995829022
12:14:30,1,A02,Inwood-207 St,-73.919899,40.868072,1170.938104689539
12:14:30,1,A03,Dyckman St,-73.927271,40.865491,1080.865111988809
12:14:30,1,A05,190 St,-73.93418,40.859022,957.2727206844611
12:14:30,1,A06,181 St,-73.937969,40.851695,844.037426566814
12:14:30,1,A07,175 St,-73.939704,40.847391,747.3169964592871
12:44:30,1,A09,168 St,-73.939561,40.840719,619.8784937854903
12:14:30,1,A10,163 St-Amsterdam Av,-73.939892,40.836013,685.7246476316441
12:14:30,1,A11,155 St,-73.941514,40.830518,800.7412388835295
12:50:30,1,A12,145 St,-73.944216,40.824783,864.755499133084
12:14:30,1,A14,135 St,-73.947649,40.817894,975.9446883222732
12:14:30,1,A15,125 St,-73.952343,40.811109,1090.3791550470623
12:14:30,1,A16,116 St,-73.954882,40.805085,1214.2147372777642
12:14:30,1,A17,Cathedral Pkwy (110 St),-73.958161,40.800603,1298.8898706069715
12:14:30,1,A18,103 St,-73.961454,40.796092,1383.3634976083426
12:14:30,1,A19,96 St,-73.964696,40.791642,1467.871694329654
12:14:30,1,A20,86 St,-73.968916,40.785868,1567.499793503208
12:14:30,1,A21,81 St-Museum of Natural History,-73.972143,40.781433,1663.2414601698745
12:14:30,1,A22,72 St,-73.97641,40.775594,1756.6414601698746
13:44:30,1,A24,59 St-Columbus Circle,-73.981736,40.768296,1603.150894177497
12:56:30,1,A25,50 St,-73.985984,40.762456,1886.5947419820368
13:44:30,1,A27,42 St-Port Authority Bus Terminal,-73.989735,40.757308,1765.1562995829024
13:44:30,1,A28,34 St-Penn Station,-73.993391,40.752287,1861.4466221635475
12:50:30,1,A30,23 St,-73.998041,40.745906,2185.260404440091
13:44:30,1,A31,14 St,-74.00169,40.740893,2003.5971597979565
13:44:30,1,A32,W 4 St-Wash Sq,-74.000495,40.732338,2127.999333711
12:50:30,1,A33,Spring St,-74.003739,40.726227,2389.8427760164564
13:44:30,1,A34,Canal St,-74.005229,40.720824,2306.423246754478
13:44:30,1,A36,Chambers St,-74.008585,40.714111,2426.7493337109995
13:44:30,1,A38,Fulton St,-74.007691,40.710197,2524.1888941505604
13:44:30,1,A40,High St,-73.990531,40.699337,2721.9416414033076
13:44:30,1,A41,Jay St-MetroTech,-73.987342,40.692338,2860.8378162666954
13:44:30,1,A42,Hoyt-Schermerhorn Sts,-73.985001,40.688484,2975.9791206145214
12:56:30,1,A43,Lafayette Av,-73.973946,40.686113,3125.3644524904025
12:56:30,1,A44,Clinton-Washington Avs,-73.965838,40.683263,3210.028088854039
13:44:30,1,A45,Franklin Av,-73.956848,40.68138,3316.1530888540387
13:44:30,1,A46,Nostrand Av,-73.950426,40.680438,3274.484615120016
12:56:30,1,A47,Kingston-Throop Avs,-73.940858,40.679921,3374.8387817866824
13:44:30,1,A48,Utica Av,-73.930729,40.679364,3445.3048398391174
12:56:30,1,A49,Ralph Av,-73.920786,40.678822,3556.022231143465
12:56:30,1,A50,Rockaway Av,-73.911946,40.67834,3668.617975824316
13:44:30,1,A51,Broadway Junction,-73.905316,40.678334,3648.0533133236468
13:44:30,1,A52,Liberty Av,-73.896548,40.674542,3782.0126629171423
13:44:30,1,A53,Van Siclen Av,-73.890358,40.67271,3877.1915247057605
13:44:30,1,A54,Shepherd Av,-73.88075,40.67413,3981.2646954374677
13:44:30,1,A55,Euclid Av,-73.872106,40.675377,3948.364941230623
13:44:30,1,A57,Grant Av,-73.86505,40.677044,4070.5475138447314
13:44:30,1,A59,80 St,-73.858992,40.679371,4167.899513844732
13:44:30,1,A60,88 St,-73.85147,40.679843,4263.859673207281
13:44:30,1,A61,Rockaway Blvd,-73.843853,40.680429,4354.20491130252
13:44:30,1,A63,104 St,-73.837683,40.681711,4437.876911302519
13:56:30,1,A64,111 St,-73.832163,40.684331,4524.008058843503
13:56:30,1,A65,Ozone Park-Lefferts Blvd,-73.825798,40.685951,4613.071349982743
13:26:30,1,B04,21 St-Queensbridge,-73.942836,40.754203,2719.0380184811274
13:26:30,1,B06,Roosevelt Island,-73.95326,40.759145,2599.0380184811274
13:26:30,1,B08,Lexington Av/63 St,-73.966113,40.764629,2330.799923769433
13:26:30,1,B10,57 St,-73.97745,40.763972,2299.0380184811274
12:56:30,1,B12,9 Av,-73.994324,40.646292,3774.4636910409295
12:56:30,1,B13,Fort Hamilton Pkwy,-73.994304,40.640914,3875.5662551434934
12:56:30,1,B14,50 St,-73.994791,40.63626,3954.5917328504997
12:56:30,1,B15,55 St,-73.995476,40.631435,4054.349694633939
12:56:30,1,B16,62 St,-73.996895,40.626472,4120.321722605967
12:56:30,1,B17,71 St,-73.998864,40.619589,4222.81216846584
12:56:30,1,B18,79 St,-74.00061,40.613501,4329.3726780199795
12:56:30,1,B19,18 Av,-74.001736,40.607954,4410.966226407077
12:56:30,1,B20,20 Av,-73.998168,40.604556,4492.959732900583
12:56:30,1,B21,Bay Pkwy,-73.993728,40.601875,4570.505187446038
13:26:30,1,B22,25 Av,-73.986829,40.597704,4689.6148648653925
13:26:30,1,B23,Bay 50 St,-73.983765,40.588841,4888.186293436821
12:56:30,2,D01,Norwood-205 St,-73.878855,40.874811,2332.9721877110555
12:56:30,2,D03,Bedford Park Blvd,-73.887138,40.873244,2161.485701224569
12:56:30,2,D04,Kingsbridge Rd,-73.893509,40.866978,2044.329451224569
12:56:30,2,D05,Fordham Rd,-73.897749,40.861296,1949.7979826931005
12:56:30,2,D06,182-183 Sts,-73.900741,40.856093,1862.864075891937
12:56:30,2,D07,Tremont Av,-73.905227,40.85041,1784.7490316441495
12:56:30,2,D08,174-175 Sts,-73.910136,40.8459,1705.885949721368
12:56:30,2,D09,170 St,-73.9134,40.839306,1589.9465557819742
12:56:30,2,D10,167 St,-73.91844,40.833771,1482.5223133577317
12:56:30,2,D11,161 St-Yankee Stadium,-73.925651,40.827905,1370.0223133577317
12:56:30,2,D12,155 St,-73.938209,40.830135,1249.0223133577317
12:14:30,1,D13,145 St,-73.944216,40.824783,1093.7798891153075
13:44:30,1,D14,7 Av,-73.981637,40.762862,1759.4541675494502
13:44:30,1,D15,47-50 Sts-Rockefeller Ctr,-73.981329,40.758663,1864.038018481127
13:44:30,1,D16,42 St-Bryant Pk,-73.984569,40.754222,1957.7067684811268
13:44:30,1,D17,34 St-Herald Sq,-73.987823,40.749719,2040.9394728836426
13:44:30,1,D18,23 St,-73.992821,40.742878,2370.224253453265
13:44:30,1,D19,14 St,-73.996209,40.738228,2325.8090398041954
13:44:30,1,D20,W 4 St-Wash Sq,-74.000495,40.732338,2216.493613011031
13:44:30,1,D21,Broadway-Lafayette St,-73.996204,40.725297,2359.124186259439
13:44:30,1,D22,Grand St,-73.993753,40.718267,2495.7342491525205
13:44:30,1,D24,Atlantic Av-Barclays Ctr,-73.97689,40.68446,3163.928640161318
13:44:30,1,D25,7 Av,-73.972367,40.67705,3294.389780057691
13:44:30,1,D26,Prospect Park,-73.962246,40.661614,3475.5296764307477
13:44:30,1,D27,Parkside Av,-73.961495,40.655292,3557.410505446292
13:44:30,1,D28,Church Av,-73.962982,40.650527,3655.1539609436745
13:50:30,1,D29,Beverley Rd,-73.964492,40.644031,3780.70951649923
13:50:30,1,D30,Cortelyou Rd,-73.963891,40.640927,3840.7628498325635
13:44:30,1,D31,Newkirk Plaza,-73.962793,40.635082,3866.852271118553
12:02:30,1,D32,Avenue H,-73.961639,40.62927,3983.6753775955326
12:02:30,1,D33,Avenue J,-73.960803,40.625039,4070.9960195290955
12:02:30,1,D34,Avenue M,-73.959399,40.617618,4175.113968247045
13:44:30,1,D35,Kings Hwy,-73.957734,40.60867,4115.007826674108
13:44:30,1,D37,Avenue U,-73.955929,40.5993,4328.477214429211
13:44:30,1,D38,Neck Rd,-73.955161,40.595246,4428.013296903438
13:44:30,1,D39,Sheepshead Bay,-73.954155,40.586896,4351.374493340775
13:44:30,1,D40,Brighton Beach,-73.961376,40.577621,4487.916160007442
12:32:30,1,D41,Ocean Pkwy,-73.968501,40.576312,4620.927152665986
12:32:30,1,D42,W 8 St-NY Aquarium,-73.975939,40.576127,4735.378765569212
12:32:30,1,D43,Coney Island-Stillwell Av,-73.981233,40.577422,4815.3343211247675
13:44:30,1,E01,World Trade Center,-74.009781,40.712582,2493.567265787346
12:14:30,1,F01,Jamaica-179 St,-73.783817,40.712646,4019.9339500341525
12:50:30,1,F02,169 St,-73.793604,40.71047,4027.648235748438
12:32:30,1,F03,Parsons Blvd,-73.803326,40.707564,3852.791092891295
12:32:30,1,F04,Sutphin Blvd,-73.810708,40.70546,3910.6482357484374
12:32:30,1,F05,Briarwood,-73.820574,40.709179,3753.6676532241654
12:32:30,1,F06,Kew Gardens-Union Tpke,-73.831008,40.714441,3625.6482357484374
12:32:30,1,F07,75 Av,-73.837324,40.718331,3522.378366384763
12:32:30,1,F09,Court Sq-23 St,-73.946,40.747846,2415.590327374581
12:32:30,1,F11,Lexington Av/53 St,-73.969055,40.757552,2195.3214594500528
12:32:30,1,F12,5 Av/53 St,-73.975224,40.760167,2102.6374971859022
12:56:30,1,F14,2 Av,-73.989938,40.723402,2606.759293469551
12:56:30,1,F15,Delancey St-Essex St,-73.988114,40.718611,2703.2474451283188
12:56:30,1,F16,East Broadway,-73.990173,40.713715,2784.9699331665965
12:56:30,1,F18,York St,-73.986751,40.701397,2939.050885547549
12:50:30,1,F20,Bergen St,-73.990862,40.686145,3144.4386838623677
12:50:30,1,F21,Carroll St,-73.995048,40.680303,3245.49711175027
12:50:30,1,F22,Smith-9 Sts,-73.995959,40.67358,3387.9105732887315
12:50:30,1,F23,4 Av-9 St,-73.989779,40.670272,3471.376259563241
12:50:30,1,F24,7 Av,-73.980305,40.666271,3415.8378162666954
12:50:30,1,F25,15 St-Prospect Park,-73.979493,40.660365,3583.7473996710246
12:50:30,1,F26,Fort Hamilton Pkwy,-73.975776,40.650782,3745.40661754812
12:50:30,1,F27,Church Av,-73.979678,40.644041,3655.8378162666954
13:26:30,1,F29,Ditmas Av,-73.978172,40.636119,3775.8378162666954
13:26:30,1,F30,18 Av,-73.976971,40.629755,3895.837816266696
13:26:30,1,F31,Avenue I,-73.976127,40.625322,3955.837816266696
13:26:30,1,F32,Bay Pkwy,-73.975264,40.620769,4015.837816266696
13:26:30,1,F33,Avenue N,-73.974197,40.61514,4135.837816266696
13:26:30,1,F34,Avenue P,-73.973022,40.608944,4225.837816266696
13:26:30,1,F35,Kings Hwy,-73.972361,40.603217,4399.499938254487
13:50:30,1,F36,Avenue U,-73.973357,40.596063,4508.101002084274
13:50:30,1,F38,Avenue X,-73.97425,40.58962,4601.304210640424
13:44:30,1,F39,Neptune Av,-73.974574,40.581011,4715.776120752783
12:32:30,1,G05,Jamaica Center-Parsons/Archer,-73.801109,40.702147,4083.6062707697333
12:32:30,1,G06,Sutphin Blvd-Archer Av-JFK Airport,-73.807969,40.700486,3992.321354568616
12:32:30,1,G07,Jamaica-Van Wyck,-73.816859,40.702566,3872.9695027167636
12:32:30,1,G08,Forest Hills-71 Av,-73.844521,40.721691,3413.940271146668
12:14:30,1,G09,67 Av,-73.852719,40.726523,3562.71001075792
12:14:30,1,G10,63 Dr-Rego Park,-73.861604,40.729846,3469.3737200143905
12:14:30,1,G11,Woodhaven Blvd,-73.869229,40.733106,3365.7435830280892
12:14:30,1,G12,Grand Av-Newtown,-73.877223,40.737015,3242.8685830280892
12:14:30,1,G13,Elmhurst Av,-73.882017,40.742454,3143.334336452747
12:32:30,1,G14,Jackson Hts-Roosevelt Av,-73.891338,40.746644,2985.8420568609536
12:32:30,1,G15,65 St,-73.898453,40.749669,3145.7657557376874
12:32:30,1,G16,Northern Blvd,-73.906006,40.752885,3169.5779180272957
13:44:30,1,G18,46 St,-73.913333,40.756312,3079.5779180272957
13:44:30,1,G19,Steinway St,-73.92074,40.756879,2959.5779180272957
13:44:30,1,G20,36 St,-73.928781,40.752039,2839.5779180272957
12:32:30,1,G21,Queens Plaza,-73.937243,40.748973,2544.39362636768
12:02:30,2,G22,Court Sq,-73.943832,40.746554,2595.590327374581
12:02:30,2,G24,21 St,-73.949724,40.744065,2684.903304473818
12:02:30,2,G26,Greenpoint Av,-73.954449,40.731352,2826.29975417796
12:02:30,2,G28,Nassau Av,-73.951277,40.724635,2933.219294407845
12:02:30,2,G29,Metropolitan Av,-73.951418,40.712792,2869.9276591279818
12:02:30,2,G30,Broadway,-73.950308,40.706092,2970.5091808671123
12:02:30,2,G31,Flushing Av,-73.950234,40.700377,3056.903775461707
12:02:30,2,G32,Myrtle-Willoughby Avs,-73.949046,40.694568,3138.6280997860313
12:02:30,2,G33,Bedford-Nostrand Avs,-73.953522,40.689627,3250.558207312913
13:56:30,1,G34,Classon Av,-73.96007,40.688873,3332.4856684528095
13:56:30,1,G35,Clinton-Washington Avs,-73.966839,40.688089,3402.649082892186
13:56:30,1,G36,Fulton St,-73.975375,40.687119,3310.3649298867217
12:08:30,1,H01,Aqueduct Racetrack,-73.834058,40.668234,4560.236657334265
12:32:30,1,H02,Aqueduct-N Conduit Av,-73.834058,40.668234,4616.326438173222
12:32:30,1,H03,Howard Beach-JFK Airport,-73.830301,40.660476,4731.425546223154
12:32:30,1,H04,Broad Channel,-73.815925,40.608382,5149.37715912638
12:32:30,1,H06,Beach 67 St,-73.796924,40.590927,5460.666632810591
12:32:30,1,H07,Beach 60 St,-73.788522,40.592374,5564.114001231645
12:32:30,1,H08,Beach 44 St,-73.776013,40.592943,5667.596457371995
12:32:30,1,H09,Beach 36 St,-73.768175,40.595398,5764.842071407083
12:32:30,1,H10,Beach 25 St,-73.761353,40.600066,5865.222602380534
12:32:30,1,H11,Far Rockaway-Mott Av,-73.755405,40.603995,5964.3892690472
12:32:30,1,H12,Beach 90 St,-73.813641,40.588034,5400.6771591263805
12:32:30,1,H13,Beach 98 St,-73.820558,40.585307,5479.07715912638
12:32:30,1,H14,Beach 105 St,-73.827559,40.583209,5555.188270237491
12:32:30,1,H15,Rockaway Park-Beach 116 St,-73.835592,40.580903,5659.388270237491
12:02:30,1,J12,121 St,-73.828294,40.700492,4390.821354568616
12:02:30,1,J13,111 St,-73.836345,40.697418,4440.836509407178
12:02:30,1,J14,104 St,-73.84433,40.695178,4458.053313323647
12:02:30,1,J15,Woodhaven Blvd,-73.851576,40.693879,4368.053313323647
12:02:30,1,J16,85 St-Forest Pkwy,-73.86001,40.692435,4372.28445568355
12:02:30,1,J17,75 St-Elderts Ln,-73.867139,40.691324,4188.053313323647
12:02:30,1,J19,Cypress Hills,-73.87255,40.689941,4170.034455683549
12:32:30,1,J20,Crescent St,-73.873785,40.683194,4038.0533133236468
12:32:30,1,J21,Norwood Av,-73.880039,40.68141,3948.0533133236468
12:32:30,1,J22,Cleveland St,-73.884639,40.679947,3953.2328337434656
12:32:30,1,J23,Van Siclen Av,-73.891688,40.678024,3798.0533133236468
12:56:30,2,J24,Alabama Av,-73.898654,40.676992,3738.0533133236468
12:32:30,1,J27,Broadway Junction,-73.904512,40.679498,3634.734926053673
12:56:30,2,J28,Chauncey St,-73.910456,40.682893,3708.0533133236468
12:32:30,1,J29,Halsey St,-73.916559,40.68637,3780.8623388799792
12:32:30,1,J30,Gates Av,-73.92227,40.68963,3634.4239411549215
12:32:30,1,J31,Kosciuszko St,-73.928814,40.693342,3598.7126382811766
13:26:30,1,L01,8 Av,-74.002578,40.739777,2177.4015073130627
12:02:30,2,L02,6 Av,-73.996786,40.737335,2202.6608917443505
13:26:30,1,L03,14 St-Union Sq,-73.99073,40.734789,2278.959028390313
13:26:30,1,L05,3 Av,-73.986122,40.732849,2325.5565026956656
13:26:30,1,L06,1 Av,-73.981628,40.730953,2373.078515274282
13:26:30,1,L08,Bedford Av,-73.956872,40.717304,2582.044564656998
13:26:30,1,L10,Lorimer St,-73.950275,40.714063,2656.713374946387
13:26:30,1,L11,Graham Av,-73.944053,40.714565,2691.4778193908314
13:26:30,1,L12,Grand St,-73.94067,40.711926,2771.223042320768
13:26:30,1,L13,Montrose Av,-73.93985,40.707739,2807.2450548993843
13:26:30,1,L14,Morgan Av,-73.933147,40.706152,2892.524929113221
13:26:30,1,L15,Jefferson St,-73.922913,40.706607,2977.7275263274905
13:26:30,1,L16,DeKalb Av,-73.918425,40.703811,3043.429333556406
13:26:30,1,L17,Myrtle-Wyckoff Avs,-73.911586,40.699814,3114.438397000515
13:26:30,1,L19,Halsey St,-73.904084,40.695602,3158.502370064488
13:26:30,1,L20,Wilson Av,-73.904046,40.688764,3275.4807651262163
13:26:30,1,L21,Bushwick Av-Aberdeen St,-73.905249,40.682829,3359.817570681772
13:26:30,1,L22,Broadway Junction,-73.90324,40.678856,3409.734926053673
13:26:30,1,L24,Atlantic Av,-73.903097,40.675345,3517.8120865475003
13:26:30,1,L25,Sutter Av,-73.901975,40.669367,3588.1843942398077
13:26:30,1,L26,Livonia Av,-73.900571,40.664038,3645.8933725679813
13:26:30,1,L27,New Lots Av,-73.899232,40.658733,3694.993372567981
13:26:30,1,L28,East 105 St,-73.899485,40.650573,3791.719787662321
13:50:30,1,L29,Canarsie-Rockaway Pkwy,-73.90185,40.646654,3916.7839768515096
12:32:30,1,M01,Middle Village-Metropolitan Av,-73.889601,40.711396,3739.8899585613785
12:32:30,1,M04,Fresh Pond Rd,-73.895877,40.706186,3622.6069396934545
12:32:30,1,M05,Forest Av,-73.903077,40.704423,3530.020605958294
12:32:30,1,M06,Seneca Av,-73.90774,40.702762,3435.6563675476978
12:32:30,1,M08,Myrtle-Wyckoff Avs,-73.912385,40.69943,3339.438397000515
12:32:30,1,M09,Knickerbocker Av,-73.919711,40.698664,3434.6372274098717
12:32:30,1,M10,Central Av,-73.927397,40.697857,3545.6254627039893
12:02:30,1,M11,Myrtle Av,-73.935657,40.697207,3467.257274488255
12:02:30,1,M12,Flushing Av,-73.941126,40.70026,3352.6386137375307
12:02:30,1,M13,Lorimer St,-73.947408,40.703869,3249.9563707468765
12:02:30,1,M14,Hewes St,-73.953431,40.70687,3158.863778154284
12:02:30,1,M16,Marcy Av,-73.957757,40.708359,3080.8822966728026
12:02:30,1,M18,Delancey St-Essex St,-73.987437,40.718315,2708.5022966728025
12:02:30,1,M19,Bowery,-73.993915,40.72028,2847.408417772705
13:26:30,1,M20,Canal St,-73.999892,40.718092,2749.420612894656
13:26:30,1,M21,Chambers St,-74.003401,40.713243,2850.74311101803
13:26:30,1,M22,Fulton St,-74.007582,40.710374,2749.1888941505604
12:38:30,1,M23,Broad St,-74.011056,40.706476,2815.3555608172264
12:14:30,1,N02,8 Av,-74.011719,40.635064,4055.8003745529727
12:14:30,1,N03,Fort Hamilton Pkwy,-74.005351,40.631386,4148.823144179012
12:14:30,1,N04,New Utrecht Av,-73.996353,40.624842,4288.823144179012
12:14:30,1,N05,18 Av,-73.990414,40.620671,4378.823144179012
12:14:30,1,N06,20 Av,-73.985026,40.61741,4448.823144179012
12:14:30,1,N07,Bay Pkwy,-73.981848,40.611815,4538.823144179012
12:14:30,1,N08,Kings Hwy,-73.980353,40.603923,4658.823144179012
12:14:30,1,N09,Avenue U,-73.979137,40.597473,4758.823144179012
12:14:30,1,N10,86 St,-73.97823,40.592721,4818.823144179012
12:14:30,1,Q01,Canal St,-74.00046,40.718383,2520.8231441790126
12:38:30,1,Q03,72 St,-73.958424,40.768799,2454.6048772458184
12:38:30,1,Q04,86 St,-73.951787,40.777891,2582.7689959343816
12:38:30,1,Q05,96 St,-73.947152,40.784318,2674.0114201768056
12:38:30,1,R01,Astoria-Ditmars Blvd,-73.912034,40.775036,3281.315384165169
12:38:30,1,R03,Astoria Blvd,-73.917843,40.770258,3180.1371663433865
12:38:30,1,R04,30 Av,-73.921479,40.766779,3080.283833010053
12:38:30,1,R05,Broadway,-73.925508,40.76182,2983.7513654775858
12:38:30,1,R06,36 Av,-73.929575,40.756804,2888.909260214428
12:38:30,1,R08,39 Av-Dutch Kills,-73.932755,40.752882,2783.5892602144277
12:38:30,1,R09,Queensboro Plaza,-73.940202,40.750582,2647.0487196738873
12:38:30,1,R11,Lexington Av/59 St,-73.967258,40.76266,2411.685573622354
12:38:30,1,R13,5 Av/59 St,-73.973347,40.764811,2309.1428906955243
12:38:30,1,R14,57 St-7 Av,-73.980658,40.764664,2152.623757966324
13:02:30,1,R15,49 St,-73.984139,40.759901,2068.5515066574235
12:14:30,1,R16,Times Sq-42 St,-73.986754,40.754672,1979.3515066574234
12:14:30,1,R17,34 St-Herald Sq,-73.98795,40.749567,2072.9452566574237
12:26:30,1,R18,28 St,-73.988691,40.745494,2172.9289714461556
12:26:30,1,R19,23 St,-73.989344,40.741303,2254.112070037705
12:14:30,1,R20,14 St-Union Sq,-73.990568,40.735736,2245.988348762686
12:26:30,1,R21,8 St-NYU,-73.992629,40.730328,2445.2106615870007
12:26:30,1,R22,Prince St,-73.997702,40.724329,2556.859868242434
12:26:30,1,R23,Canal St,-74.001775,40.719527,2656.658317854837
12:26:30,1,R24,City Hall,-74.006978,40.713282,2802.1506255471454
12:26:30,1,R25,Cortlandt St,-74.011029,40.710668,2700.4116716422377
12:02:30,1,R26,Rector St,-74.013342,40.70722,2810.3897738320193
12:02:30,1,R27,Whitehall St-South Ferry,-74.012994,40.703087,2901.1051022991724
12:38:30,1,R28,Court St,-73.991777,40.6941,3070.0998409780073
12:38:30,1,R29,Jay St-MetroTech,-73.985942,40.69218,2995.8378162666954
13:44:30,1,R30,DeKalb Av,-73.981824,40.690635,2986.441566225691
12:14:30,1,R31,Atlantic Av-Barclays Ctr,-73.97881,40.683666,3103.656829797682
12:56:30,1,R32,Union St,-73.98311,40.677316,3214.472619271366
12:56:30,1,R33,4 Av-9 St,-73.988302,40.670847,3323.604198218735
12:56:30,1,R34,Prospect Av,-73.992872,40.665414,3420.886249500786
12:56:30,1,R35,25 St,-73.998091,40.660397,3567.98881360335
12:14:30,1,R36,36 St,-74.003549,40.655144,3549.1409062308026
12:56:30,1,R39,45 St,-74.010006,40.648939,3799.398467034969
12:14:30,1,R40,53 St,-74.014034,40.645069,3888.6229568308872
12:14:30,1,R41,59 St,-74.017881,40.641362,3888.5245124840076
12:56:30,1,R42,Bay Ridge Av,-74.023377,40.634967,4049.3345137802053
12:56:30,1,R43,77 St,-74.02551,40.629742,4129.607241052933
12:56:30,1,R44,86 St,-74.028398,40.622687,4305.958431529123
12:56:30,1,R45,Bay Ridge-95 St,-74.030876,40.616622,4382.97417956062
13:44:30,1,S01,Franklin Av,-73.955827,40.680596,3496.1530888540387
13:44:30,1,S03,Park Pl,-73.957624,40.674772,3619.0280888540387
13:44:30,1,S04,Botanic Garden,-73.959245,40.670343,3687.7631649400537
