start_time,ntransfers,stop_id,stop_name,stop_lon,stop_lat,duration
12:13:00,0,101,Van Cortlandt Park-242 St,-73.898583,40.889248,2196.2189639929043
12:13:00,0,103,238 St,-73.90087,40.884667,2091.4326736703233
12:13:00,0,104,231 St,-73.904834,40.878856,1998.8342180718678
12:13:00,0,106,Marble Hill-225 St,-73.909831,40.874561,1913.107280802495
12:13:00,0,107,215 St,-73.915279,40.869444,1821.3692734224214
12:13:00,0,108,207 St,-73.918822,40.864621,1746.9655697187177
12:13:00,0,109,Dyckman St,-73.925536,40.860531,1657.831740722435
12:13:00,0,110,191 St,-73.929412,40.855225,1572.1625392015226
12:13:00,0,111,181 St,-73.933596,40.849505,1478.9587656166168
12:13:00,0,112,168 St-Washington Hts,-73.940133,40.840556,1358.8754322832833
12:13:00,0,113,157 St,-73.94489,40.834041,1263.8451292529803
12:13:00,0,114,145 St,-73.95036,40.826551,1150.6790915171312
12:13:00,0,115,137 St-City College,-73.953676,40.822008,1066.5206009510935
12:13:00,0,116,125 St,-73.958372,40.815581,943.2475382204661
12:13:00,0,117,116 St-Columbia University,-73.96411,40.807722,818.871625811707
12:13:00,0,118,Cathedral Pkwy (110 St),-73.966847,40.803967,753.5971160077854
12:13:00,0,119,103 St,-73.968379,40.799446,671.8748937855631
12:00:00,0,120,96 St,-73.972323,40.793919,320.07653061224494
12:13:00,0,121,86 St,-73.976218,40.788644,448.2748825256716
12:13:00,0,122,79 St,-73.979917,40.783934,526.348053257379
12:00:00,0,123,72 St,-73.98197,40.778453,487.1275510204082
12:21:00,0,124,66 St-Lincoln Center,-73.982209,40.77344,602.5295068604842
12:21:00,0,125,59 St-Columbus Circle,-73.981929,40.768247,697.8506450718663
12:21:00,0,126,50 St,-73.983849,40.761728,795.4053009423117
12:00:00,0,127,Times Sq-42 St,-73.987495,40.75529,712.5117318113686
12:00:00,0,128,34 St-Penn Station,-73.991057,40.750373,813.8707061703429
12:00:00,0,129,28 St,-73.993365,40.747215,1102.3646706793243
12:00:00,0,130,23 St,-73.995657,40.744081,1171.9389678680793
12:00:00,0,131,18 St,-73.997871,40.74104,1237.3931511350117
12:00:00,0,132,14 St,-74.000201,40.737826,969.186835202601
12:13:00,0,133,Christopher St-Sheridan Sq,-74.002906,40.733422,1270.846557424823
12:13:00,0,134,Houston St,-74.005367,40.728251,1356.7275098057755
12:13:00,0,135,Canal St,-74.006277,40.722854,1450.650864313182
12:13:00,0,136,Franklin St,-74.006886,40.719318,1514.8437776990086
12:00:00,0,137,Chambers St,-74.009266,40.715478,1228.173848189614
12:16:00,0,138,WTC Cortlandt,-74.012188,40.711835,1552.1819978971682
12:16:00,0,139,Rector St,-74.013783,40.707513,1640.3372360285368
12:16:00,0,142,South Ferry,-74.013664,40.702068,1743.428145119446
12:30:30,0,201,Wakefield-241 St,-73.85062,40.903125,2457.249023020954
12:30:30,0,204,Nereid Av,-73.854376,40.898379,2359.687798531158
12:30:30,0,205,233 St,-73.857473,40.893193,2268.444555287915
12:30:30,0,206,225 St,-73.860341,40.888022,2182.0784838593436
12:30:30,0,207,219 St,-73.862633,40.883895,2103.5538201822137
12:30:30,0,208,Gun Hill Rd,-73.866256,40.87785,2011.7385048668982
12:30:30,0,209,Burke Av,-73.867164,40.871356,1917.3556219840154
12:30:30,0,210,Allerton Av,-73.867352,40.865462,1826.7185749467712
12:30:30,0,211,Pelham Pkwy,-73.867615,40.857192,1704.6783450617136
12:30:30,0,212,Bronx Park East,-73.868457,40.848828,1595.4413508420605
12:30:30,0,213,E 180 St,-73.873488,40.841894,1409.5493053875152
12:30:30,0,214,West Farms Sq-E Tremont Av,-73.880049,40.840295,1250.6708523488412
12:30:30,0,215,174 St,-73.887734,40.837288,1126.8961270741158
12:30:30,0,216,Freeman St,-73.891865,40.829993,1011.7609919389806
12:30:30,0,217,Simpson St,-73.893064,40.824073,905.712343290332
12:06:30,0,218,Intervale Av,-73.896736,40.822181,830.3306228602244
12:06:30,0,219,Prospect Av,-73.90177,40.819585,751.8495417791434
12:30:30,0,220,Jackson Av,-73.907807,40.81649,660.8441363737379
12:06:30,0,221,3 Av-149 St,-73.917757,40.816109,537.2819742115757
12:06:30,0,222,149 St-Grand Concourse,-73.926718,40.81841,410.98464668886425
12:04:30,0,224,135 St,-73.94077,40.814229,201.5506844247133
12:04:30,0,225,125 St,-73.945495,40.807754,95.9795918367347
12:08:00,0,226,116 St,-73.949625,40.802098,0.0
12:00:00,0,227,Central Park North (110 St),-73.951822,40.799075,68.37244897959184
12:00:00,0,228,Park Place,-74.008811,40.713051,1325.4026063595486
12:00:00,0,229,Fulton St,-74.006571,40.709416,1448.886050068158
12:00:00,0,230,Wall St,-74.0091,40.706821,1531.5085666244493
12:00:00,0,231,Clark St,-73.993086,40.697466,1729.3069579206697
12:00:00,0,232,Borough Hall,-73.989998,40.693219,1840.7721255216923
12:00:00,0,233,Hoyt St,-73.985065,40.690545,1926.8238424522601
12:00:00,0,234,Nevins St,-73.980492,40.688246,2024.338548334613
12:00:00,0,235,Atlantic Av-Barclays Ctr,-73.977666,40.684359,2104.227437223502
12:00:00,0,236,Bergen St,-73.975098,40.680829,2179.2348446309093
12:00:00,0,237,Grand Army Plaza,-73.971046,40.675235,2290.862581857187
12:00:00,0,238,Eastern Pkwy-Brooklyn Museum,-73.964375,40.671987,2396.1326548498873
12:05:00,0,239,Franklin Av-Medgar Evers College,-73.958131,40.670682,2444.6375674148917
12:05:00,0,241,President St-Medgar Evers College,-73.950683,40.667883,2615.9452597225836
12:05:00,0,242,Sterling St,-73.95085,40.662742,2706.4164135687374
12:05:00,0,243,Winthrop St,-73.9502,40.656652,2791.5687945211184
12:05:00,0,244,Church Av,-73.949575,40.650843,2873.4210672483914
12:05:00,0,245,Beverly Rd,-73.948959,40.645098,2954.855029512542
12:05:00,0,246,Newkirk Av-Little Haiti,-73.948411,40.639967,3040.855029512542
12:05:00,0,247,Flatbush Av-Brooklyn College,-73.947642,40.632836,3158.191871617805
12:05:00,0,248,Nostrand Av,-73.950466,40.669847,2582.410204278111
12:05:00,0,249,Kingston Av,-73.942161,40.669399,2668.0352042781115
12:05:00,0,250,Crown Hts-Utica Av,-73.932942,40.668897,2696.5635360380043
12:05:00,0,251,Sutter Av-Rutland Rd,-73.92261,40.664717,2825.7625674148912
12:05:00,0,252,Saratoga Av,-73.916327,40.661453,2930.0968693713376
12:29:00,2,253,Rockaway Av,-73.908946,40.662549,3017.3468693713376
12:05:00,0,254,Junius St,-73.902447,40.663515,2967.419316026231
12:08:00,2,255,Pennsylvania Av,-73.894895,40.664635,3064.635002300741
12:08:00,2,256,Van Siclen Av,-73.889395,40.665449,3139.14480622231
12:08:00,2,257,New Lots Av,-73.884079,40.666235,3209.919316026231
12:04:30,0,301,Harlem-148 St,-73.93647,40.82388,451.9488023630505
12:04:30,0,302,145 St,-73.936245,40.820421,337.56459183673473
12:06:30,1,401,Woodlawn,-73.878751,40.886037,1983.8412731033536
12:06:30,1,402,Mosholu Pkwy,-73.884655,40.87975,1862.268585878684
12:06:30,1,405,Bedford Park Blvd-Lehman College,-73.890064,40.873412,1724.6263444993738
12:06:30,1,406,Kingsbridge Rd,-73.897174,40.86776,1613.1370741131077
12:06:30,1,407,Fordham Rd,-73.901034,40.862803,1528.6247790311406
12:06:30,1,408,183 St,-73.903879,40.858407,1448.8166157658345
12:06:30,1,409,Burnside Av,-73.907684,40.853453,1353.418275516872
12:06:30,1,410,176 St,-73.911794,40.84848,1264.9327983384485
12:06:30,1,411,Mt Eden Av,-73.914685,40.844434,1187.222054536796
12:06:30,1,412,170 St,-73.917791,40.840075,1107.6807322227462
12:06:30,1,413,167 St,-73.9214,40.835537,1019.7720185298001
12:06:30,1,414,161 St-Yankee Stadium,-73.925831,40.827994,909.2520143570162
12:06:30,1,415,149 St-Grand Concourse,-73.927351,40.818375,679.3070143570161
12:06:30,1,416,138 St-Grand Concourse,-73.929849,40.813224,782.783866208868
12:05:00,2,418,Fulton St,-74.009509,40.710368,1791.8136824000062
12:05:00,1,419,Wall St,-74.011862,40.707557,1869.0251361444996
12:05:00,1,420,Bowling Green,-74.014065,40.704817,1943.0159618325729
12:05:00,0,423,Borough Hall,-73.990151,40.692404,2181.625784436258
13:58:30,0,501,Eastchester-Dyre Av,-73.830834,40.8883,2260.308110725966
12:22:30,0,502,Baychester Av,-73.838591,40.878663,2110.308110725966
12:22:30,0,503,Gun Hill Rd,-73.846384,40.869526,1960.3081107259661
12:22:30,0,504,Pelham Pkwy,-73.855359,40.858985,1810.3081107259661
12:22:30,0,505,Morris Park,-73.860495,40.854364,1720.3081107259661
13:50:30,0,601,Pelham Bay Park,-73.828121,40.852462,2760.657091837143
13:50:30,0,602,Buhre Av,-73.832569,40.84681,2577.2301414825333
13:50:30,0,603,Middletown Rd,-73.836322,40.843863,2468.3968081492003
13:50:30,0,604,Westchester Sq-E Tremont Av,-73.842952,40.839892,2323.6468081492003
13:50:30,0,606,Zerega Av,-73.847036,40.836488,2225.563474815867
13:50:30,0,607,Castle Hill Av,-73.851222,40.834255,2158.2301414825333
12:38:30,0,608,Parkchester,-73.860816,40.833226,2002.2301414825333
12:38:30,0,609,St Lawrence Av,-73.867618,40.831509,2240.1675079666525
12:38:30,0,610,Morrison Av-Soundview,-73.874516,40.829521,2155.0997788829873
12:38:30,0,611,Elder Av,-73.879159,40.828584,2089.935778882987
12:38:30,0,612,Whitlock Av,-73.886283,40.826525,1983.595778882987
12:06:30,1,613,Hunts Point Av,-73.890549,40.820948,1745.845526097918
12:06:30,1,614,Longwood Av,-73.896435,40.816104,1828.1377093346227
12:06:30,1,615,E 149 St,-73.904098,40.812118,1727.0293760012894
12:06:30,1,616,E 143 St-St Mary's St,-73.907657,40.808719,1652.1870523498371
12:06:30,1,617,Cypress Av,-73.914042,40.805368,1553.266550257787
12:06:30,1,618,Brook Av,-73.91924,40.807566,1483.707726728375
12:06:30,1,619,3 Av-138 St,-73.926138,40.810476,1366.7686030209952
12:06:30,1,621,125 St,-73.937594,40.804138,939.9114588014605
12:06:30,1,622,116 St,-73.941617,40.798629,1268.982888735281
12:06:30,1,623,110 St,-73.94425,40.79502,1349.4114601638526
12:06:30,1,624,103 St,-73.947478,40.7906,1426.722639575413
12:06:30,1,625,96 St,-73.95107,40.785672,1513.1928150140095
12:06:30,1,626,86 St,-73.955589,40.779492,1240.9332928625959
12:06:30,1,627,77 St,-73.959874,40.77362,1574.8743629482144
12:06:30,1,628,68 St-Hunter College,-73.96387,40.768141,1544.0150902944492
12:06:30,1,629,59 St,-73.967967,40.762526,1393.4535859593855
12:06:30,1,630,51 St,-73.97192,40.757107,1351.0934460992457
12:06:30,1,631,Grand Central-42 St,-73.976848,40.751776,1243.4535859593855
12:05:00,2,632,33 St,-73.982076,40.746081,1351.4845137944371
12:05:00,2,633,28 St,-73.984264,40.74307,1418.3401838975299
12:05:00,2,634,23 St,-73.986599,40.739864,1481.5927436244924
12:05:00,2,635,14 St-Union Sq,-73.989951,40.734673,1459.1075713713808
12:08:00,2,636,Astor Pl,-73.99107,40.730054,1534.7982930208655
12:08:00,2,637,Bleecker St,-73.994659,40.725915,1625.5150165703533
12:05:00,2,638,Spring St,-73.997141,40.722301,1694.664676434299
12:05:00,2,639,Canal St,-74.000193,40.718803,1753.3615391757598
12:05:00,2,640,Brooklyn Bridge-City Hall,-74.004131,40.713065,1744.348109532232
12:08:00,1,701,Flushing-Main St,-73.83003,40.7596,2726.1774363697023
12:08:00,1,702,Mets-Willets Point,-73.845625,40.754622,2549.8679125601784
12:08:00,1,705,111 St,-73.855334,40.75173,2588.20184516435
12:08:00,1,706,103 St-Corona Plaza,-73.8627,40.749865,2491.3789567862705
12:08:00,1,707,Junction Blvd,-73.869527,40.749145,2324.242503352964
12:08:00,1,708,90 St-Elmhurst Av,-73.876613,40.748408,2368.2689567862703
12:08:00,1,709,82 St-Jackson Hts,-73.883697,40.747659,2288.8886750961296
12:08:00,1,710,74 St-Broadway,-73.891394,40.746848,2146.640375776402
12:08:00,1,711,69 St,-73.896403,40.746325,2099.2286110705195
12:08:00,1,712,61 St-Woodside,-73.902984,40.74563,2027.3201603662942
12:08:00,1,713,52 St,-73.912549,40.744149,1938.1349751811088
12:08:00,1,714,46 St-Bliss St,-73.918435,40.743132,1880.3044667065326
12:08:00,1,715,40 St-Lowery St,-73.924016,40.743781,1824.992602299753
12:08:00,1,716,33 St-Rawson St,-73.930997,40.744587,1760.8253668048724
12:08:00,1,718,Queensboro Plaza,-73.940202,40.750582,1632.9617220839882
12:08:00,1,719,Court Sq,-73.945264,40.747023,1531.4992220839881
12:08:00,1,720,Hunters Point Av,-73.948916,40.742216,1418.1965905050408
12:08:00,1,721,Vernon Blvd-Jackson Av,-73.953581,40.742626,1323.4857471315468
12:08:00,1,723,Grand Central-42 St,-73.976041,40.751431,1108.7381983152445
12:08:00,1,724,5 Av,-73.981963,40.753821,1039.242503352964
12:08:00,1,725,Times Sq-42 St,-73.987691,40.755477,946.7425004919411
12:00:00,1,726,34 St-Hudson Yards,-74.00191,40.755882,1118.7425033529641
12:00:00,1,901,Grand Central-42 St,-73.979189,40.752769,1031.0239431994266
12:00:00,1,902,Times Sq-42 St,-73.986229,40.755983,935.1706098660932
13:25:00,1,A02,Inwood-207 St,-73.919899,40.868072,2156.2177637531277
13:25:00,1,A03,Dyckman St,-73.927271,40.865491,2066.1447710523976
13:25:00,1,A05,190 St,-73.93418,40.859022,1942.55237974805
13:25:00,1,A06,181 St,-73.937969,40.851695,1829.317085630403
13:25:00,1,A07,175 St,-73.939704,40.847391,1732.596655522876
12:13:00,1,A09,168 St,-73.939561,40.840719,1605.1581528490792
12:13:00,1,A10,163 St-Amsterdam Av,-73.939892,40.836013,1671.004306695233
12:13:00,1,A11,155 St,-73.941514,40.830518,1722.0690195454279
12:13:00,1,A12,145 St,-73.944216,40.824783,1569.8037536121094
12:21:00,1,A14,135 St,-73.947649,40.817894,1479.8822816373208
13:33:00,1,A15,125 St,-73.952343,40.811109,1417.5121963894578
12:56:00,1,A16,116 St,-73.954882,40.805085,1541.3477786201597
12:45:00,1,A17,Cathedral Pkwy (110 St),-73.958161,40.800603,1492.6801677771211
12:45:00,1,A18,103 St,-73.961454,40.796092,1418.7671242988602
12:45:00,1,A19,96 St,-73.964696,40.791642,1330.235209405243
12:45:00,1,A20,86 St,-73.968916,40.785868,1235.2569485356778
12:45:00,1,A21,81 St-Museum of Natural History,-73.972143,40.781433,1143.4569485356778
12:45:00,1,A22,72 St,-73.97641,40.775594,1052.8482528835038
12:45:00,1,A24,59 St-Columbus Circle,-73.981736,40.768296,926.561985499265
13:09:00,1,A25,50 St,-73.985984,40.762456,1057.0321143426047
12:45:00,1,A27,42 St-Port Authority Bus Terminal,-73.989735,40.757308,1089.0135859593854
12:05:00,1,A28,34 St-Penn Station,-73.993391,40.752287,1185.3039085400308
12:21:00,1,A30,23 St,-73.998041,40.745906,1285.425904799965
12:05:00,1,A31,14 St,-74.00169,40.740893,1327.4544461744392
12:05:00,1,A32,W 4 St-Wash Sq,-74.000495,40.732338,1451.8566200874827
12:21:00,1,A33,Spring St,-74.003739,40.726227,1616.5974131896207
12:05:00,1,A34,Canal St,-74.005229,40.720824,1630.2805331309607
12:05:00,1,A36,Chambers St,-74.008585,40.714111,1553.6952897225094
13:04:00,1,A38,Fulton St,-74.007691,40.710197,1649.8504621363024
13:04:00,1,A40,High St,-73.990531,40.699337,1835.7987379983715
13:04:00,1,A41,Jay St-MetroTech,-73.987342,40.692338,1961.233520607067
13:04:00,1,A42,Hoyt-Schermerhorn Sts,-73.985001,40.688484,2079.355259737502
13:04:00,1,A43,Lafayette Av,-73.973946,40.686113,2212.0366756667054
13:04:00,1,A44,Clinton-Washington Avs,-73.965838,40.683263,2296.700312030342
13:04:00,1,A45,Franklin Av,-73.956848,40.68138,2402.8253120303416
13:12:00,1,A46,Nostrand Av,-73.950426,40.680438,2413.137887768565
12:05:00,1,A47,Kingston-Throop Avs,-73.940858,40.679921,2513.4920544352317
13:12:00,1,A48,Utica Av,-73.930729,40.679364,2583.9581124876663
12:05:00,1,A49,Ralph Av,-73.920786,40.678822,2694.6755037920143
12:05:00,1,A50,Rockaway Av,-73.911946,40.67834,2723.677617437634
13:12:00,1,A51,Broadway Junction,-73.905316,40.678334,2639.5792567818967
13:20:00,1,A52,Liberty Av,-73.896548,40.674542,2773.538606375392
13:20:00,1,A53,Van Siclen Av,-73.890358,40.67271,2868.71746816401
13:20:00,1,A54,Shepherd Av,-73.88075,40.67413,2972.7906388957176
13:12:00,1,A55,Euclid Av,-73.872106,40.675377,2939.890884688873
13:20:00,1,A57,Grant Av,-73.86505,40.677044,3062.0734573029813
13:20:00,1,A59,80 St,-73.858992,40.679371,3159.425457302981
13:20:00,1,A60,88 St,-73.85147,40.679843,3255.3856166655314
13:20:00,1,A61,Rockaway Blvd,-73.843853,40.680429,3345.7308547607695
12:37:00,1,A63,104 St,-73.837683,40.681711,3429.4028547607695
12:37:00,1,A64,111 St,-73.832163,40.684331,3515.534002301753
12:37:00,1,A65,Ozone Park-Lefferts Blvd,-73.825798,40.685951,3604.5972934409933
12:56:00,1,B04,21 St-Queensbridge,-73.942836,40.754203,1864.242503352964
12:56:00,1,B06,Roosevelt Island,-73.95326,40.759145,1744.242503352964
12:40:00,1,B08,Lexington Av/63 St,-73.966113,40.764629,1320.462003071395
13:44:00,1,B10,57 St,-73.97745,40.763972,1444.242503352964
12:32:00,1,B12,9 Av,-73.994324,40.646292,2970.7925028721875
12:32:00,1,B13,Fort Hamilton Pkwy,-73.994304,40.640914,3071.895066974752
12:32:00,1,B14,50 St,-73.994791,40.63626,3150.920544681758
12:32:00,1,B15,55 St,-73.995476,40.631435,3250.6785064651976
12:32:00,1,B16,62 St,-73.996895,40.626472,3316.650534437226
12:32:00,1,B17,71 St,-73.998864,40.619589,3419.140980297099
12:32:00,1,B18,79 St,-74.00061,40.613501,3525.701489851239
12:32:00,1,B19,18 Av,-74.001736,40.607954,3607.295038238336
12:32:00,1,B20,20 Av,-73.998168,40.604556,3689.288544731842
12:32:00,1,B21,Bay Pkwy,-73.993728,40.601875,3766.8339992772967
13:52:00,1,B22,25 Av,-73.986829,40.597704,3885.9436766966514
13:52:00,1,B23,Bay 50 St,-73.983765,40.588841,4084.51510526808
12:14:30,2,D01,Norwood-205 St,-73.878855,40.874811,2127.3886502940795
12:14:30,2,D03,Bedford Park Blvd,-73.887138,40.873244,1955.9021638075935
12:14:30,2,D04,Kingsbridge Rd,-73.893509,40.866978,1838.7459138075935
12:14:30,2,D05,Fordham Rd,-73.897749,40.861296,1744.2144452761252
12:14:30,2,D06,182-183 Sts,-73.900741,40.856093,1657.2805384749615
12:14:30,2,D07,Tremont Av,-73.905227,40.85041,1579.1654942271741
12:14:30,2,D08,174-175 Sts,-73.910136,40.8459,1484.8723907788983
12:14:30,2,D09,170 St,-73.9134,40.839306,1376.2399157270684
12:14:30,2,D10,167 St,-73.91844,40.833771,1268.8156733028259
13:42:30,2,D11,161 St-Yankee Stadium,-73.925651,40.827905,1136.7762026302184
12:06:30,2,D12,155 St,-73.938209,40.830135,1261.5045976919469
12:06:30,2,D13,145 St,-73.944216,40.824783,1372.720647074663
12:45:00,1,D14,7 Av,-73.981637,40.762862,1028.8686521659317
12:45:00,1,D15,47-50 Sts-Rockefeller Ctr,-73.981329,40.758663,1132.4819854992652
12:45:00,1,D16,42 St-Bryant Pk,-73.984569,40.754222,1221.9144179316975
12:45:00,1,D17,34 St-Herald Sq,-73.987823,40.749719,1282.9879538163648
12:32:00,1,D18,23 St,-73.992821,40.742878,1392.3528186812296
13:17:00,1,D19,14 St,-73.996209,40.738228,1317.334983262446
13:12:00,1,D20,W 4 St-Wash Sq,-74.000495,40.732338,1403.0201685359343
13:17:00,1,D21,Broadway-Lafayette St,-73.996204,40.725297,1566.3535018692676
13:17:00,1,D22,Grand St,-73.993753,40.718267,1737.7827300852427
12:08:00,1,D24,Atlantic Av-Barclays Ctr,-73.97689,40.68446,2165.2057573813704
12:08:00,1,D25,7 Av,-73.972367,40.67705,2295.6668972777434
12:08:00,1,D26,Prospect Park,-73.962246,40.661614,2476.8067936508005
12:08:00,1,D27,Parkside Av,-73.961495,40.655292,2558.6876226663444
12:08:00,1,D28,Church Av,-73.962982,40.650527,2656.431078163727
12:08:00,1,D29,Beverley Rd,-73.964492,40.644031,2776.5495899637467
12:08:00,1,D30,Cortelyou Rd,-73.963891,40.640927,2842.039967052616
12:08:00,1,D31,Newkirk Plaza,-73.962793,40.635082,2887.873935306584
12:08:00,1,D32,Avenue H,-73.961639,40.62927,3004.697041783563
12:08:00,1,D33,Avenue J,-73.960803,40.625039,3092.9228095482526
12:08:00,1,D34,Avenue M,-73.959399,40.617618,3197.040758266201
12:08:00,1,D35,Kings Hwy,-73.957734,40.60867,3126.00628824776
12:08:00,1,D37,Avenue U,-73.955929,40.5993,3341.4859880832455
12:08:00,1,D38,Neck Rd,-73.955161,40.595246,3441.0220705574725
12:08:00,1,D39,Sheepshead Bay,-73.954155,40.586896,3363.991362874626
12:08:00,1,D40,Brighton Beach,-73.961376,40.577621,3513.7186356018983
12:08:00,1,D41,Ocean Pkwy,-73.968501,40.576312,3667.510493690788
12:08:00,1,D42,W 8 St-NY Aquarium,-73.975939,40.576127,3781.9621065940137
12:08:00,1,D43,Coney Island-Stillwell Av,-73.981233,40.577422,3861.917662149569
12:05:00,1,E01,World Trade Center,-74.009781,40.712582,1553.6952897225094
12:29:00,1,F01,Jamaica-179 St,-73.783817,40.712646,3289.348434650634
12:48:00,1,F02,169 St,-73.793604,40.71047,3238.0868429756056
12:56:00,1,F03,Parsons Blvd,-73.803326,40.707564,3122.2055775077765
12:56:00,1,F04,Sutphin Blvd,-73.810708,40.70546,3124.242503352964
12:56:00,1,F05,Briarwood,-73.820574,40.709179,3004.242503352964
12:45:00,1,F06,Kew Gardens-Union Tpke,-73.831008,40.714441,2884.242503352964
12:56:00,1,F07,75 Av,-73.837324,40.718331,2791.7928510012453
12:45:00,1,F09,Court Sq-23 St,-73.946,40.747846,1678.8988919146923
12:45:00,1,F11,Lexington Av/53 St,-73.969055,40.757552,1458.630023990164
12:45:00,1,F12,5 Av/53 St,-73.975224,40.760167,1365.946061726013
13:12:00,1,F14,2 Av,-73.989938,40.723402,1663.3535018692676
13:12:00,1,F15,Delancey St-Essex St,-73.988114,40.718611,1780.127135497846
13:12:00,1,F16,East Broadway,-73.990173,40.713715,1862.3621864916272
13:12:00,1,F18,York St,-73.986751,40.701397,2016.4431388725798
12:13:00,1,F20,Bergen St,-73.990862,40.686145,2233.9480602695467
12:13:00,1,F21,Carroll St,-73.995048,40.680303,2342.5354238283016
12:13:00,1,F22,Smith-9 Sts,-73.995959,40.67358,2484.948885366763
12:13:00,1,F23,4 Av-9 St,-73.989779,40.670272,2568.414571641273
12:13:00,1,F24,7 Av,-73.980305,40.666271,2516.233520607067
12:13:00,1,F25,15 St-Prospect Park,-73.979493,40.660365,2684.143104011396
12:13:00,1,F26,Fort Hamilton Pkwy,-73.975776,40.650782,2845.8023218884914
12:13:00,1,F27,Church Av,-73.979678,40.644041,2756.233520607067
13:20:00,1,F29,Ditmas Av,-73.978172,40.636119,2876.233520607067
13:20:00,1,F30,18 Av,-73.976971,40.629755,2996.233520607067
13:20:00,1,F31,Avenue I,-73.976127,40.625322,3056.233520607067
13:20:00,1,F32,Bay Pkwy,-73.975264,40.620769,3116.233520607067
13:20:00,1,F33,Avenue N,-73.974197,40.61514,3236.233520607067
13:20:00,1,F34,Avenue P,-73.973022,40.608944,3326.233520607067
13:20:00,1,F35,Kings Hwy,-73.972361,40.603217,3499.89564259486
13:20:00,1,F36,Avenue U,-73.973357,40.596063,3608.4967064246475
13:20:00,1,F38,Avenue X,-73.97425,40.58962,3701.699914980797
13:17:00,1,F39,Neptune Av,-73.974574,40.581011,3816.1718250931567
12:45:00,1,G05,Jamaica Center-Parsons/Archer,-73.801109,40.702147,3353.020755386214
12:45:00,1,G06,Sutphin Blvd-Archer Av-JFK Airport,-73.807969,40.700486,3261.735839185097
12:45:00,1,G07,Jamaica-Van Wyck,-73.816859,40.702566,3142.3839873332454
12:45:00,1,G08,Forest Hills-71 Av,-73.844521,40.721691,2674.242503352964
12:56:00,1,G09,67 Av,-73.852719,40.726523,2809.5729381355723
13:04:00,1,G10,63 Dr-Rego Park,-73.861604,40.729846,2732.682284554501
13:04:00,1,G11,Woodhaven Blvd,-73.869229,40.733106,2629.0521475682
13:04:00,1,G12,Grand Av-Newtown,-73.877223,40.737015,2506.1771475682
13:04:00,1,G13,Elmhurst Av,-73.882017,40.742454,2406.642900992858
12:45:00,1,G14,Jackson Hts-Roosevelt Av,-73.891338,40.746644,2254.242503352964
12:45:00,1,G15,65 St,-73.898453,40.749669,2340.2441949457684
12:45:00,1,G16,Northern Blvd,-73.906006,40.752885,2244.32916226603
14:00:00,1,G18,46 St,-73.913333,40.756312,2154.1834669017917
14:00:00,1,G19,Steinway St,-73.92074,40.756879,2048.256314583911
14:00:00,1,G20,36 St,-73.928781,40.752039,1902.069647917244
12:45:00,1,G21,Queens Plaza,-73.937243,40.748973,1744.5363145839106
12:45:00,2,G22,Court Sq,-73.943832,40.746554,1711.4992220839881
12:45:00,2,G24,21 St,-73.949724,40.744065,1800.812199183225
12:45:00,2,G26,Greenpoint Av,-73.954449,40.731352,1942.208648887367
12:08:00,2,G28,Nassau Av,-73.951277,40.724635,1993.535569799348
12:45:00,2,G29,Metropolitan Av,-73.951418,40.712792,1861.453602586233
12:29:00,2,G30,Broadway,-73.950308,40.706092,1962.0351243253638
12:29:00,2,G31,Flushing Av,-73.950234,40.700377,2048.4297189199583
12:29:00,2,G32,Myrtle-Willoughby Avs,-73.949046,40.694568,2130.1540432442825
12:24:00,1,G33,Bedford-Nostrand Avs,-73.953522,40.689627,2242.0841507711643
12:24:00,1,G34,Classon Av,-73.96007,40.688873,2324.0116119110608
12:24:00,1,G35,Clinton-Washington Avs,-73.966839,40.688089,2407.8775912925043
12:24:00,1,G36,Fulton St,-73.975375,40.687119,2412.9455115107703
12:24:00,1,H01,Aqueduct Racetrack,-73.834058,40.668234,3551.7626007925155
13:20:00,1,H02,Aqueduct-N Conduit Av,-73.834058,40.668234,3624.83165373209
13:20:00,1,H03,Howard Beach-JFK Airport,-73.830301,40.660476,3722.951489681405
13:20:00,1,H04,Broad Channel,-73.815925,40.608382,4140.903102584631
13:20:00,1,H06,Beach 67 St,-73.796924,40.590927,4452.192576268842
13:20:00,1,H07,Beach 60 St,-73.788522,40.592374,4555.639944689894
13:20:00,1,H08,Beach 44 St,-73.776013,40.592943,4659.122400830245
13:20:00,1,H09,Beach 36 St,-73.768175,40.595398,4756.368014865333
13:20:00,1,H10,Beach 25 St,-73.761353,40.600066,4856.748545838785
13:20:00,1,H11,Far Rockaway-Mott Av,-73.755405,40.603995,4955.915212505451
13:49:00,1,H12,Beach 90 St,-73.813641,40.588034,4392.203102584631
13:49:00,1,H13,Beach 98 St,-73.820558,40.585307,4470.6031025846305
13:49:00,1,H14,Beach 105 St,-73.827559,40.583209,4546.714213695742
13:49:00,1,H15,Rockaway Park-Beach 116 St,-73.835592,40.580903,4650.914213695742
12:45:00,1,J12,121 St,-73.828294,40.700492,3629.5792567818967
12:45:00,1,J13,111 St,-73.836345,40.697418,3710.250994023659
12:45:00,1,J14,104 St,-73.84433,40.695178,3449.5792567818967
12:45:00,1,J15,Woodhaven Blvd,-73.851576,40.693879,3359.5792567818967
12:45:00,1,J16,85 St-Forest Pkwy,-73.86001,40.692435,3363.8103991417984
12:45:00,1,J17,75 St-Elderts Ln,-73.867139,40.691324,3179.5792567818967
12:00:00,2,J19,Cypress Hills,-73.87255,40.689941,3161.560399141799
13:04:00,2,J20,Crescent St,-73.873785,40.683194,3029.5792567818967
13:04:00,2,J21,Norwood Av,-73.880039,40.68141,2939.5792567818967
13:04:00,2,J22,Cleveland St,-73.884639,40.679947,2944.758777201716
13:04:00,2,J23,Van Siclen Av,-73.891688,40.678024,2789.5792567818967
13:04:00,2,J24,Alabama Av,-73.898654,40.676992,2729.5792567818967
13:17:00,1,J27,Broadway Junction,-73.904512,40.679498,2626.260869511923
13:12:00,2,J28,Chauncey St,-73.910456,40.682893,2699.5792567818967
13:17:00,1,J29,Halsey St,-73.916559,40.68637,2807.6038613233563
13:17:00,1,J30,Gates Av,-73.92227,40.68963,2661.165463598299
13:17:00,1,J31,Kosciuszko St,-73.928814,40.693342,2625.4541607245537
12:24:00,1,L01,8 Av,-74.002578,40.739777,1277.9037026724804
12:24:00,1,L02,6 Av,-73.996786,40.737335,1194.186835202601
12:24:00,1,L03,14 St-Union Sq,-73.99073,40.734789,1270.4849718485636
12:24:00,1,L05,3 Av,-73.986122,40.732849,1317.0824461539166
12:24:00,1,L06,1 Av,-73.981628,40.730953,1364.604458732533
12:24:00,1,L08,Bedford Av,-73.956872,40.717304,1573.5705081152491
12:24:00,1,L10,Lorimer St,-73.950275,40.714063,1648.2393184046382
12:24:00,1,L11,Graham Av,-73.944053,40.714565,1683.0037628490827
12:24:00,1,L12,Grand St,-73.94067,40.711926,1762.748985779019
12:24:00,1,L13,Montrose Av,-73.93985,40.707739,1798.7709983576353
12:24:00,1,L14,Morgan Av,-73.933147,40.706152,1884.0508725714717
12:24:00,1,L15,Jefferson St,-73.922913,40.706607,1969.2534697857404
12:24:00,1,L16,DeKalb Av,-73.918425,40.703811,2034.955277014656
12:24:00,1,L17,Myrtle-Wyckoff Avs,-73.911586,40.699814,2105.964340458765
12:24:00,1,L19,Halsey St,-73.904084,40.695602,2150.0283135227382
12:24:00,1,L20,Wilson Av,-73.904046,40.688764,2267.006708584466
12:24:00,1,L21,Bushwick Av-Aberdeen St,-73.905249,40.682829,2351.343514140022
12:24:00,1,L22,Broadway Junction,-73.90324,40.678856,2401.260869511923
12:24:00,1,L24,Atlantic Av,-73.903097,40.675345,2509.33803000575
12:24:00,1,L25,Sutter Av,-73.901975,40.669367,2579.7103376980576
12:24:00,1,L26,Livonia Av,-73.900571,40.664038,2637.419316026231
12:24:00,1,L27,New Lots Av,-73.899232,40.658733,2686.519316026231
12:24:00,1,L28,East 105 St,-73.899485,40.650573,2783.245731120571
13:49:00,1,L29,Canarsie-Rockaway Pkwy,-73.90185,40.646654,2908.30992030976
12:24:00,2,M01,Middle Village-Metropolitan Av,-73.889601,40.711396,2731.4159020196284
12:24:00,2,M04,Fresh Pond Rd,-73.895877,40.706186,2614.1328831517044
12:24:00,2,M05,Forest Av,-73.903077,40.704423,2521.5465494165437
12:24:00,2,M06,Seneca Av,-73.90774,40.702762,2427.1823110059477
13:17:00,1,M08,Myrtle-Wyckoff Avs,-73.912385,40.69943,2330.964340458765
13:17:00,1,M09,Knickerbocker Av,-73.919711,40.698664,2426.1631708681216
13:17:00,1,M10,Central Av,-73.927397,40.697857,2537.1514061622393
13:17:00,1,M11,Myrtle Av,-73.935657,40.697207,2493.998796931632
13:17:00,1,M12,Flushing Av,-73.941126,40.70026,2429.0987748930647
13:17:00,1,M13,Lorimer St,-73.947408,40.703869,2332.5729626779566
13:17:00,1,M14,Hewes St,-73.953431,40.70687,2235.5841302649656
13:17:00,1,M16,Marcy Av,-73.957757,40.708359,2125.8321302649656
13:17:00,1,M18,Delancey St-Essex St,-73.987437,40.718315,1762.307540101031
12:08:00,2,M19,Bowery,-73.993915,40.72028,1837.0704970746674
12:05:00,3,M20,Canal St,-73.999892,40.718092,1739.0826921966186
12:24:00,1,M21,Chambers St,-74.003401,40.713243,1846.4448713170002
12:05:00,3,M22,Fulton St,-74.007582,40.710374,1783.7898970472993
12:37:00,1,M23,Broad St,-74.011056,40.706476,1850.4846338894044
12:32:00,1,N02,8 Av,-74.011719,40.635064,3045.462453854935
12:32:00,1,N03,Fort Hamilton Pkwy,-74.005351,40.631386,3150.1002613990645
12:32:00,1,N04,New Utrecht Av,-73.996353,40.624842,3290.1002613990645
12:32:00,1,N05,18 Av,-73.990414,40.620671,3380.1002613990645
12:32:00,1,N06,20 Av,-73.985026,40.61741,3450.1002613990645
12:32:00,1,N07,Bay Pkwy,-73.981848,40.611815,3540.1002613990645
12:32:00,1,N08,Kings Hwy,-73.980353,40.603923,3660.1002613990645
12:32:00,1,N09,Avenue U,-73.979137,40.597473,3760.1002613990645
12:32:00,1,N10,86 St,-73.97823,40.592721,3820.1002613990645
12:32:00,1,Q01,Canal St,-74.00046,40.718383,1513.3615391757598
12:40:00,1,Q03,72 St,-73.958424,40.768799,1453.9413845146937
12:40:00,1,Q04,86 St,-73.951787,40.777891,1572.4310752363433
12:40:00,1,Q05,96 St,-73.947152,40.784318,1663.6734994787676
12:56:00,1,R01,Astoria-Ditmars Blvd,-73.912034,40.775036,2328.973151330928
12:56:00,1,R03,Astoria Blvd,-73.917843,40.770258,2227.7949335091457
12:56:00,1,R04,30 Av,-73.921479,40.766779,2127.9416001758127
12:56:00,1,R05,Broadway,-73.925508,40.76182,2031.409132643345
12:56:00,1,R06,36 Av,-73.929575,40.756804,1936.567027380187
12:56:00,1,R08,39 Av-Dutch Kills,-73.932755,40.752882,1831.2470273801869
12:56:00,1,R09,Queensboro Plaza,-73.940202,40.750582,1677.9830800070044
12:56:00,1,R11,Lexington Av/59 St,-73.967258,40.76266,1401.3476529243158
12:56:00,1,R13,5 Av/59 St,-73.973347,40.764811,1298.8049699974863
12:40:00,1,R14,57 St-7 Av,-73.980658,40.764664,1142.285837268286
12:13:00,1,R15,49 St,-73.984139,40.759901,1060.3810558389036
12:05:00,1,R16,Times Sq-42 St,-73.986754,40.754672,969.0135859593854
12:05:00,1,R17,34 St-Herald Sq,-73.98795,40.749567,1069.0504280646487
12:05:00,1,R18,28 St,-73.988691,40.745494,1173.7480746548256
12:05:00,1,R19,23 St,-73.989344,40.741303,1247.7277627886538
12:32:00,1,R20,14 St-Union Sq,-73.990568,40.735736,1235.6504280646486
12:05:00,1,R21,8 St-NYU,-73.992629,40.730328,1446.0297647956706
12:05:00,1,R22,Prince St,-73.997702,40.724329,1564.3914669233302
12:05:00,1,R23,Canal St,-74.001775,40.719527,1669.0771812090445
12:05:00,1,R24,City Hall,-74.006978,40.713282,1817.9697287558145
12:05:00,1,R25,Cortlandt St,-74.011029,40.710668,1733.6952897225094
12:21:00,1,R26,Rector St,-74.013342,40.70722,1843.6733919122905
12:21:00,1,R27,Whitehall St-South Ferry,-74.012994,40.703087,1923.4281451194463
12:16:00,1,R28,Court St,-73.991777,40.6941,2061.625784436258
12:16:00,1,R29,Jay St-MetroTech,-73.985942,40.69218,2096.233520607067
12:08:00,1,R30,DeKalb Av,-73.981824,40.690635,1996.1683242262902
12:32:00,1,R31,Atlantic Av-Barclays Ctr,-73.97881,40.683666,2201.0619127926466
13:44:00,1,R32,Union St,-73.98311,40.677316,2337.4036135638225
13:44:00,1,R33,4 Av-9 St,-73.988302,40.670847,2442.451232611442
13:44:00,1,R34,Prospect Av,-73.992872,40.665414,2549.3012326114417
13:44:00,1,R35,25 St,-73.998091,40.660397,2671.0531715339052
12:32:00,1,R36,36 St,-74.003549,40.655144,2586.130094610828
13:44:00,1,R39,45 St,-74.010006,40.648939,2789.0605463369316
12:32:00,1,R40,53 St,-74.014034,40.645069,2878.2850361328497
12:32:00,1,R41,59 St,-74.017881,40.641362,2878.1865917859695
13:44:00,1,R42,Bay Ridge Av,-74.023377,40.634967,3038.996593082167
13:44:00,1,R43,77 St,-74.02551,40.629742,3119.269320354894
13:44:00,1,R44,86 St,-74.028398,40.622687,3295.620510831084
13:44:00,1,R45,Bay Ridge-95 St,-74.030876,40.616622,3372.6362588625802
12:29:00,1,S01,Franklin Av,-73.955827,40.680596,2582.8253120303416
12:29:00,1,S03,Park Pl,-73.957624,40.674772,2705.7003120303416
12:08:00,1,S04,Botanic Garden,-73.959245,40.670343,2669.6375674148917
