start_time,ntransfers,stop_id,stop_name,stop_lon,stop_lat,duration
12:39:30,0,101,Van Cortlandt Park-242 St,-73.898583,40.889248,4478.421443341749
12:39:30,0,103,238 St,-73.90087,40.884667,4352.610632530938
12:39:30,0,104,231 St,-73.904834,40.878856,4248.978345535423
12:39:30,0,106,Marble Hill-225 St,-73.909831,40.874561,4151.4963635534405
12:39:30,0,107,215 St,-73.915279,40.869444,4062.7035707606474
12:39:30,0,108,207 St,-73.918822,40.864621,3972.980627037704
12:39:30,0,109,Dyckman St,-73.925536,40.860531,3872.6678517073074
12:39:30,0,110,191 St,-73.929412,40.855225,3788.823024121101
12:39:30,0,111,181 St,-73.933596,40.849505,3697.792981202646
12:39:30,0,112,168 St-Washington Hts,-73.940133,40.840556,3578.5912644644486
12:39:30,0,113,157 St,-73.94489,40.834041,3479.272298947207
12:39:30,0,114,145 St,-73.95036,40.826551,3362.019080063087
12:39:30,0,115,137 St-City College,-73.953676,40.822008,3261.1430116870188
12:39:30,0,116,125 St,-73.958372,40.815581,3165.818011687019
12:39:30,0,117,116 St-Columbia University,-73.96411,40.807722,3051.5888450203524
12:39:30,0,118,Cathedral Pkwy (110 St),-73.966847,40.803967,2972.634299565807
12:39:30,0,119,103 St,-73.968379,40.799446,2893.105611041217
12:00:00,0,120,96 St,-73.972323,40.793919,2615.1555221233793
12:31:30,0,121,86 St,-73.976218,40.788644,2682.7039716969543
12:31:30,0,122,79 St,-73.979917,40.783934,2605.8299879571173
12:00:00,0,123,72 St,-73.98197,40.778453,2435.621039364759
12:00:00,0,124,66 St-Lincoln Center,-73.982209,40.77344,2592.7809753156234
12:00:00,0,125,59 St-Columbus Circle,-73.981929,40.768247,2649.236781018271
12:00:00,0,126,50 St,-73.983849,40.761728,2545.56760808594
12:00:00,0,127,Times Sq-42 St,-73.987495,40.75529,2199.684419646449
12:00:00,0,128,34 St-Penn Station,-73.991057,40.750373,2100.3256410204945
12:39:30,0,129,28 St,-73.993365,40.747215,2361.9531185980677
12:39:30,0,130,23 St,-73.995657,40.744081,2292.8048296246834
12:39:30,0,131,18 St,-73.997871,40.74104,2224.626799321653
12:00:00,0,132,14 St,-74.000201,40.737826,1940.0399267347805
12:31:30,0,133,Christopher St-Sheridan Sq,-74.002906,40.733422,2197.972309745261
12:31:30,0,134,Houston St,-74.005367,40.728251,2114.8761558991073
12:31:30,0,135,Canal St,-74.006277,40.722854,2027.8684338913852
12:31:30,0,136,Franklin St,-74.006886,40.719318,1963.6755205055586
12:00:00,0,137,Chambers St,-74.009266,40.715478,1679.6990176438715
12:00:00,0,138,WTC Cortlandt,-74.012188,40.711835,1830.1603353277162
12:00:00,0,139,Rector St,-74.013783,40.707513,1753.6502138702265
12:00:00,0,142,South Ferry,-74.013664,40.702068,1650.5593047793172
12:00:00,0,201,Wakefield-241 St,-73.85062,40.903125,5134.8792280699645
12:00:00,0,204,Nereid Av,-73.854376,40.898379,4837.863414708
12:00:00,0,205,233 St,-73.857473,40.893193,4747.863414708
12:00:00,0,206,225 St,-73.860341,40.888022,4657.863414708
12:00:00,0,207,219 St,-73.862633,40.883895,4567.863414708
12:00:00,0,208,Gun Hill Rd,-73.866256,40.87785,4462.863414708
12:00:00,0,209,Burke Av,-73.867164,40.871356,4518.863414708
12:00:00,0,210,Allerton Av,-73.867352,40.865462,4428.863414708
12:00:00,0,211,Pelham Pkwy,-73.867615,40.857192,4293.863414708
12:00:00,0,212,Bronx Park East,-73.868457,40.848828,4148.863414708
12:00:00,0,213,E 180 St,-73.873488,40.841894,4023.863414708
12:00:00,0,214,West Farms Sq-E Tremont Av,-73.880049,40.840295,3869.2295477873804
12:00:00,0,215,174 St,-73.887734,40.837288,3739.1433408908288
12:00:00,0,216,Freeman St,-73.891865,40.829993,3619.3057340532223
12:00:00,0,217,Simpson St,-73.893064,40.824073,3508.924378121019
12:00:00,0,218,Intervale Av,-73.896736,40.822181,3436.0006493074598
12:00:00,0,219,Prospect Av,-73.90177,40.819585,3350.1192933752563
12:00:00,0,220,Jackson Av,-73.907807,40.81649,3258.0604698458446
12:00:00,0,221,3 Av-149 St,-73.917757,40.816109,3136.3521365125116
12:00:00,0,222,149 St-Grand Concourse,-73.926718,40.81841,3021.292435019974
12:00:00,0,224,135 St,-73.94077,40.814229,3160.7567636165877
12:00:00,0,225,125 St,-73.945495,40.807754,3052.964856102137
12:00:00,0,226,116 St,-73.949625,40.802098,2954.8550295125415
12:00:00,0,227,Central Park North (110 St),-73.951822,40.799075,2878.235981893494
12:00:00,0,228,Park Place,-74.008811,40.713051,1592.5790176438713
12:00:00,0,229,Fulton St,-74.006571,40.709416,1482.36689643175
12:00:00,0,230,Wall St,-74.0091,40.706821,1409.0962197400208
12:00:00,0,231,Clark St,-73.993086,40.697466,1217.483045908328
12:00:00,0,232,Borough Hall,-73.989998,40.693219,1110.1577227078037
12:00:00,0,233,Hoyt St,-73.985065,40.690545,1024.8096901988372
12:00:00,0,234,Nevins St,-73.980492,40.688246,885.3945300747187
12:00:00,0,235,Atlantic Av-Barclays Ctr,-73.977666,40.684359,789.7399846201732
12:26:30,0,236,Bergen St,-73.975098,40.680829,844.790231301233
12:26:30,0,237,Grand Army Plaza,-73.971046,40.675235,732.6819838785526
12:26:30,0,238,Eastern Pkwy-Brooklyn Museum,-73.964375,40.671987,622.6665992631679
12:00:00,0,239,Franklin Av-Medgar Evers College,-73.958131,40.670682,495.1297571579047
12:00:00,0,241,President St-Medgar Evers College,-73.950683,40.667883,336.7301711604547
12:00:00,0,242,Sterling St,-73.95085,40.662742,247.0342948717949
12:00:00,0,243,Winthrop St,-73.9502,40.656652,153.2548076923077
12:00:00,0,244,Church Av,-73.949575,40.650843,77.5625
12:23:30,0,245,Beverly Rd,-73.948959,40.645098,0.0
12:02:30,0,246,Newkirk Av-Little Haiti,-73.948411,40.639967,78.0
12:02:30,0,247,Flatbush Av-Brooklyn College,-73.947642,40.632836,201.15251240517878
12:26:30,0,248,Nostrand Av,-73.950466,40.669847,668.1297571579047
12:26:30,0,249,Kingston Av,-73.942161,40.669399,765.7174620976507
12:00:00,0,250,Crown Hts-Utica Av,-73.932942,40.668897,766.0924620976508
12:26:30,0,251,Sutter Av-Rutland Rd,-73.92261,40.664717,891.3424620976508
12:26:30,0,252,Saratoga Av,-73.916327,40.661453,1003.3424620976508
12:26:30,0,253,Rockaway Av,-73.908946,40.662549,1091.0924620976507
12:26:30,0,254,Junius St,-73.902447,40.663515,1175.0924620976507
12:26:30,0,255,Pennsylvania Av,-73.894895,40.664635,1276.5924620976507
12:26:30,0,256,Van Siclen Av,-73.889395,40.665449,1356.3424620976505
12:26:30,0,257,New Lots Av,-73.884079,40.666235,1435.3424620976505
12:00:00,0,301,Harlem-148 St,-73.93647,40.82388,3416.455372859006
12:00:00,0,302,145 St,-73.936245,40.820421,3297.715827944073
13:46:30,0,401,Woodlawn,-73.878751,40.886037,4405.191574353734
13:46:30,0,402,Mosholu Pkwy,-73.884655,40.87975,4267.317602041455
12:26:30,0,405,Bedford Park Blvd-Lehman College,-73.890064,40.873412,4145.807112530964
12:26:30,0,406,Kingsbridge Rd,-73.897174,40.86776,4011.2580929231217
12:26:30,0,407,Fordham Rd,-73.901034,40.862803,3919.9116876943635
12:26:30,0,408,183 St,-73.903879,40.858407,3839.2123412891347
12:26:30,0,409,Burnside Av,-73.907684,40.853453,3746.040210141594
12:26:30,0,410,176 St,-73.911794,40.84848,3671.6892635324207
12:26:30,0,411,Mt Eden Av,-73.914685,40.844434,3595.944165493205
12:26:30,0,412,170 St,-73.917791,40.840075,3518.4212896762115
12:26:30,0,413,167 St,-73.9214,40.835537,3437.8906774313136
12:26:30,0,414,161 St-Yankee Stadium,-73.925831,40.827994,3292.3761143245174
12:26:30,0,415,149 St-Grand Concourse,-73.927351,40.818375,3062.4311143245177
12:00:00,0,416,138 St-Grand Concourse,-73.929849,40.813224,2864.153748888588
12:00:00,0,418,Fulton St,-74.009509,40.710368,1448.1919231768888
12:00:00,0,419,Wall St,-74.011862,40.707557,1368.803034288
12:00:00,0,420,Bowling Green,-74.014065,40.704817,1293.7133791155861
12:00:00,0,423,Borough Hall,-73.990151,40.692404,1025.6399846201732
13:43:30,0,501,Eastchester-Dyre Av,-73.830834,40.8883,4803.944591220331
12:00:00,0,502,Baychester Av,-73.838591,40.878663,4658.057494446137
12:00:00,0,503,Gun Hill Rd,-73.846384,40.869526,4518.324575191478
12:00:00,0,504,Pelham Pkwy,-73.855359,40.858985,4374.622711837441
12:00:00,0,505,Morris Park,-73.860495,40.854364,4276.857279738676
13:22:30,0,601,Pelham Bay Park,-73.828121,40.852462,4516.518086960242
13:22:30,0,602,Buhre Av,-73.832569,40.84681,4333.091136605632
13:22:30,0,603,Middletown Rd,-73.836322,40.843863,4224.257803272299
13:22:30,0,604,Westchester Sq-E Tremont Av,-73.842952,40.839892,4079.5078032722986
13:22:30,0,606,Zerega Av,-73.847036,40.836488,3981.424469938965
13:22:30,0,607,Castle Hill Av,-73.851222,40.834255,3914.091136605632
12:26:30,0,608,Parkchester,-73.860816,40.833226,3758.091136605632
12:26:30,0,609,St Lawrence Av,-73.867618,40.831509,3996.0285030897508
12:26:30,0,610,Morrison Av-Soundview,-73.874516,40.829521,3910.960774006085
12:26:30,0,611,Elder Av,-73.879159,40.828584,3845.7967740060853
12:26:30,0,612,Whitlock Av,-73.886283,40.826525,3739.4567740060857
12:26:30,0,613,Hunts Point Av,-73.890549,40.820948,3501.706521221017
12:00:00,0,614,Longwood Av,-73.896435,40.816104,3583.998704457721
12:00:00,0,615,E 149 St,-73.904098,40.812118,3482.890371124388
12:00:00,0,616,E 143 St-St Mary's St,-73.907657,40.808719,3408.0480474729357
12:00:00,0,617,Cypress Av,-73.914042,40.805368,3309.1275453808853
12:00:00,0,618,Brook Av,-73.91924,40.807566,3239.568721851474
12:00:00,0,619,3 Av-138 St,-73.926138,40.810476,3122.6295981440935
12:00:00,0,621,125 St,-73.937594,40.804138,2695.772453924559
12:00:00,0,622,116 St,-73.941617,40.798629,3024.8438838583797
12:00:00,0,623,110 St,-73.94425,40.79502,2959.766246414235
12:00:00,0,624,103 St,-73.947478,40.7906,2883.3943165896735
12:00:00,0,625,96 St,-73.95107,40.785672,2796.9241411510766
12:00:00,0,626,86 St,-73.955589,40.779492,2411.376770471322
12:00:00,0,627,77 St,-73.959874,40.77362,2620.3380129921075
12:00:00,0,628,68 St-Hunter College,-73.96387,40.768141,2530.4640634122757
12:00:00,0,629,59 St,-73.967967,40.762526,2214.2278343011094
12:00:00,0,630,51 St,-73.97192,40.757107,2433.472974267495
12:00:00,0,631,Grand Central-42 St,-73.976848,40.751776,2053.8235789819605
12:00:00,0,632,33 St,-73.982076,40.746081,2279.562101463497
12:00:00,0,633,28 St,-73.984264,40.74307,2212.718881124514
12:00:00,0,634,23 St,-73.986599,40.739864,2140.710406548243
12:00:00,0,635,14 St-Union Sq,-73.989951,40.734673,1817.2954099678757
12:00:00,0,636,Astor Pl,-73.99107,40.730054,2054.591144274946
12:00:00,0,637,Bleecker St,-73.994659,40.725915,1963.8744207254579
12:00:00,0,638,Spring St,-73.997141,40.722301,1894.7247608615123
12:00:00,0,639,Canal St,-74.000193,40.718803,1820.9477338344852
12:00:00,0,640,Brooklyn Bridge-City Hall,-74.004131,40.713065,1557.3933120657778
12:23:30,1,701,Flushing-Main St,-73.83003,40.7596,3880.5794155913877
12:23:30,1,702,Mets-Willets Point,-73.845625,40.754622,3671.198863298155
12:23:30,1,705,111 St,-73.855334,40.75173,3688.015347966684
12:23:30,1,706,103 St-Corona Plaza,-73.8627,40.749865,3594.3893394886313
12:23:30,1,707,Junction Blvd,-73.869527,40.749145,3424.056006155298
12:23:30,1,708,90 St-Elmhurst Av,-73.876613,40.748408,3523.782348010188
13:46:30,2,709,82 St-Jackson Hts,-73.883697,40.747659,3444.4020663200467
12:23:30,1,710,74 St-Broadway,-73.891394,40.746848,3302.153767000319
12:23:30,1,711,69 St,-73.896403,40.746325,3254.742002294437
12:23:30,1,712,61 St-Woodside,-73.902984,40.74563,3182.8335515902113
12:23:30,1,713,52 St,-73.912549,40.744149,3056.1828816013767
12:23:30,1,714,46 St-Bliss St,-73.918435,40.743132,3002.4892882866134
12:23:30,1,715,40 St-Lowery St,-73.924016,40.743781,2951.118814749009
12:23:30,1,716,33 St-Rawson St,-73.930997,40.744587,2882.8385599719386
12:23:30,1,718,Queensboro Plaza,-73.940202,40.750582,2740.363699636743
12:23:30,1,719,Court Sq,-73.945264,40.747023,2661.1279799237413
12:23:30,1,720,Hunters Point Av,-73.948916,40.742216,2575.127979923742
12:23:30,1,721,Vernon Blvd-Jackson Av,-73.953581,40.742626,2547.127979923742
12:00:00,1,723,Grand Central-42 St,-73.976041,40.751431,2344.127979923742
12:00:00,1,724,5 Av,-73.981963,40.753821,2416.0347632111298
12:00:00,1,725,Times Sq-42 St,-73.987691,40.755477,2413.527395739741
12:00:00,1,726,34 St-Hudson Yards,-74.00191,40.755882,2599.3166724679136
12:00:00,1,901,Grand Central-42 St,-73.979189,40.752769,2299.127979923742
12:23:30,1,902,Times Sq-42 St,-73.986229,40.755983,2379.684419646449
13:11:30,1,A02,Inwood-207 St,-73.919899,40.868072,4126.492967818886
13:11:30,1,A03,Dyckman St,-73.927271,40.865491,4036.4199751181563
13:11:30,1,A05,190 St,-73.93418,40.859022,3912.8275838138084
13:11:30,1,A06,181 St,-73.937969,40.851695,3799.5922896961615
13:11:30,1,A07,175 St,-73.939704,40.847391,3702.871859588635
13:11:30,1,A09,168 St,-73.939561,40.840719,3575.4333569148375
13:51:30,1,A10,163 St-Amsterdam Av,-73.939892,40.836013,3561.376473685098
13:51:30,1,A11,155 St,-73.941514,40.830518,3479.543140351765
13:11:30,1,A12,145 St,-73.944216,40.824783,3330.5563515672443
12:07:00,1,A14,135 St,-73.947649,40.817894,3241.8606006692253
13:06:30,1,A15,125 St,-73.952343,40.811109,3069.922216584059
12:31:30,1,A16,116 St,-73.954882,40.805085,3193.757798814761
12:31:30,1,A17,Cathedral Pkwy (110 St),-73.958161,40.800603,3151.659515181421
12:31:30,1,A18,103 St,-73.961454,40.796092,3063.8932814151867
12:31:30,1,A19,96 St,-73.964696,40.791642,2979.1400346619403
12:31:30,1,A20,86 St,-73.968916,40.785868,2877.2584557145715
12:31:30,1,A21,81 St-Museum of Natural History,-73.972143,40.781433,2781.2317890479053
12:31:30,1,A22,72 St,-73.97641,40.775594,2692.351789047905
12:31:30,1,A24,59 St-Columbus Circle,-73.981736,40.768296,2552.7070522057998
13:11:30,1,A25,50 St,-73.985984,40.762456,2578.6345976628486
12:31:30,1,A27,42 St-Port Authority Bus Terminal,-73.989735,40.757308,2430.1555511174256
12:31:30,1,A28,34 St-Penn Station,-73.993391,40.752287,2333.8652285367803
12:31:30,1,A30,23 St,-73.998041,40.745906,2255.777874784275
12:31:30,1,A31,14 St,-74.00169,40.740893,2168.200097006497
12:31:30,1,A32,W 4 St-Wash Sq,-74.000495,40.732338,2048.5905731969733
12:23:30,1,A33,Spring St,-74.003739,40.726227,2006.5917047386984
12:31:30,1,A34,Canal St,-74.005229,40.720824,1888.88860394585
12:31:30,1,A36,Chambers St,-74.008585,40.714111,1768.5625169893283
12:00:00,2,A38,Fulton St,-74.007691,40.710197,1671.1229565497679
12:23:30,2,A40,High St,-73.990531,40.699337,1529.2269411419124
13:27:30,2,A41,Jay St-MetroTech,-73.987342,40.692338,1404.7399846201733
13:27:30,2,A42,Hoyt-Schermerhorn Sts,-73.985001,40.688484,1498.6389643943603
13:59:30,2,A43,Lafayette Av,-73.973946,40.686113,1342.8574517893185
13:59:30,2,A44,Clinton-Washington Avs,-73.965838,40.683263,1259.117955990999
13:59:30,2,A45,Franklin Av,-73.956848,40.68138,1159.6010068384567
12:31:30,2,A46,Nostrand Av,-73.950426,40.680438,1237.2535492113382
12:31:30,2,A47,Kingston-Throop Avs,-73.940858,40.679921,1343.261813674148
12:31:30,2,A48,Utica Av,-73.930729,40.679364,1437.8403260708421
12:31:30,2,A49,Ralph Av,-73.920786,40.678822,1544.5486594041756
12:31:30,2,A50,Rockaway Av,-73.911946,40.67834,1642.994940395911
12:31:30,2,A51,Broadway Junction,-73.905316,40.678334,1726.1257765127384
12:31:30,2,A52,Liberty Av,-73.896548,40.674542,1858.2371370750705
12:31:30,2,A53,Van Siclen Av,-73.890358,40.67271,1944.6109688507713
12:31:30,2,A54,Shepherd Av,-73.88075,40.67413,2049.8446137105843
12:31:30,2,A55,Euclid Av,-73.872106,40.675377,2026.4374044197152
12:31:30,2,A57,Grant Av,-73.86505,40.677044,2148.619977033823
12:31:30,2,A59,80 St,-73.858992,40.679371,2245.9719770338234
12:31:30,2,A60,88 St,-73.85147,40.679843,2341.932136396373
12:31:30,2,A61,Rockaway Blvd,-73.843853,40.680429,2432.277374491611
12:31:30,2,A63,104 St,-73.837683,40.681711,2515.9493744916117
13:11:30,2,A64,111 St,-73.832163,40.684331,2602.080522032595
13:11:30,2,A65,Ozone Park-Lefferts Blvd,-73.825798,40.685951,2691.143813171835
12:00:00,1,B04,21 St-Queensbridge,-73.942836,40.754203,2805.9982566686185
12:00:00,1,B06,Roosevelt Island,-73.95326,40.759145,2659.3775670134464
13:11:30,1,B08,Lexington Av/63 St,-73.966113,40.764629,2574.2278343011094
13:11:30,1,B10,57 St,-73.97745,40.763972,2624.294799760878
12:31:30,1,B12,9 Av,-73.994324,40.646292,1789.8977053309516
12:31:30,1,B13,Fort Hamilton Pkwy,-73.994304,40.640914,1891.0002694335158
12:31:30,1,B14,50 St,-73.994791,40.63626,1970.025747140522
12:31:30,1,B15,55 St,-73.995476,40.631435,2069.7837089239615
12:31:30,1,B16,62 St,-73.996895,40.626472,2135.7557368959897
12:31:30,1,B17,71 St,-73.998864,40.619589,2238.2461827558627
12:31:30,1,B18,79 St,-74.00061,40.613501,2344.8066923100027
12:31:30,1,B19,18 Av,-74.001736,40.607954,2426.4002406970994
12:31:30,1,B20,20 Av,-73.998168,40.604556,2508.393747190606
12:31:30,1,B21,Bay Pkwy,-73.993728,40.601875,2585.9392017360606
13:51:30,1,B22,25 Av,-73.986829,40.597704,2705.0488791554153
13:51:30,1,B23,Bay 50 St,-73.983765,40.588841,2702.8107067910855
12:18:00,1,D01,Norwood-205 St,-73.878855,40.874811,4488.206027508721
12:18:00,1,D03,Bedford Park Blvd,-73.887138,40.873244,4316.719541022234
12:18:00,1,D04,Kingsbridge Rd,-73.893509,40.866978,4199.563291022234
12:18:00,1,D05,Fordham Rd,-73.897749,40.861296,4105.031822490766
12:18:00,1,D06,182-183 Sts,-73.900741,40.856093,4018.0979156896024
13:27:30,1,D07,Tremont Av,-73.905227,40.85041,3939.9828714418145
13:27:30,1,D08,174-175 Sts,-73.910136,40.8459,3874.7407794362407
13:27:30,1,D09,170 St,-73.9134,40.839306,3766.1083043844105
13:27:30,1,D10,167 St,-73.91844,40.833771,3658.684061960168
13:27:30,1,D11,161 St-Yankee Stadium,-73.925651,40.827905,3546.184061960168
13:27:30,1,D12,155 St,-73.938209,40.830135,3448.82345115196
12:07:00,1,D13,145 St,-73.944216,40.824783,3305.32345115196
12:31:30,1,D14,7 Av,-73.981637,40.762862,2450.4003855391334
12:31:30,1,D15,47-50 Sts-Rockefeller Ctr,-73.981329,40.758663,2346.7870522058
12:31:30,1,D16,42 St-Bryant Pk,-73.984569,40.754222,2257.3546197733676
12:31:30,1,D17,34 St-Herald Sq,-73.987823,40.749719,2168.9627278814755
12:31:30,1,D18,23 St,-73.992821,40.742878,2298.6460129444395
12:31:30,1,D19,14 St,-73.996209,40.738228,2195.239921573881
12:31:30,1,D20,W 4 St-Wash Sq,-74.000495,40.732338,1964.9328001404137
12:31:30,1,D21,Broadway-Lafayette St,-73.996204,40.725297,1826.3328001404136
12:31:30,1,D22,Grand St,-73.993753,40.718267,1697.9210354345312
12:31:30,1,D24,Atlantic Av-Barclays Ctr,-73.97689,40.68446,1017.0018879061535
12:55:30,1,D25,7 Av,-73.972367,40.67705,1153.1247929340866
12:42:30,1,D26,Prospect Park,-73.962246,40.661614,797.6610071579048
12:42:30,1,D27,Parkside Av,-73.961495,40.655292,1129.0656451295952
12:42:30,1,D28,Church Av,-73.962982,40.650527,1187.3921488483627
12:42:30,1,D29,Beverley Rd,-73.964492,40.644031,1294.2638764579972
12:42:30,1,D30,Cortelyou Rd,-73.963891,40.640927,1372.459407184254
12:42:30,1,D31,Newkirk Plaza,-73.962793,40.635082,1366.9477044039184
12:42:30,1,D32,Avenue H,-73.961639,40.62927,1483.7708108808974
12:42:30,1,D33,Avenue J,-73.960803,40.625039,1571.091452814461
12:42:30,1,D34,Avenue M,-73.959399,40.617618,1675.2094015324096
12:42:30,1,D35,Kings Hwy,-73.957734,40.60867,1615.103259959474
12:31:30,1,D37,Avenue U,-73.955929,40.5993,1828.572647714576
12:31:30,1,D38,Neck Rd,-73.955161,40.595246,1928.108730188803
12:42:30,1,D39,Sheepshead Bay,-73.954155,40.586896,1851.4699266261407
12:31:30,1,D40,Brighton Beach,-73.961376,40.577621,1988.0115932928072
12:31:30,1,D41,Ocean Pkwy,-73.968501,40.576312,2121.0225859513516
12:31:30,1,D42,W 8 St-NY Aquarium,-73.975939,40.576127,2235.4741988545775
12:31:30,1,D43,Coney Island-Stillwell Av,-73.981233,40.577422,2315.429754410133
13:19:30,1,E01,World Trade Center,-74.009781,40.712582,1825.033756808802
13:54:30,1,F01,Jamaica-179 St,-73.783817,40.712646,4203.475150224343
12:26:30,1,F02,169 St,-73.793604,40.71047,4113.475150224343
12:55:30,1,F03,Parsons Blvd,-73.803326,40.707564,4023.4751502243435
12:55:30,1,F04,Sutphin Blvd,-73.810708,40.70546,3933.4751502243435
12:55:30,1,F05,Briarwood,-73.820574,40.709179,3713.167925180728
12:55:30,1,F06,Kew Gardens-Union Tpke,-73.831008,40.714441,3833.766419871826
12:55:30,1,F07,75 Av,-73.837324,40.718331,3744.304466952258
12:55:30,1,F09,Court Sq-23 St,-73.946,40.747846,2859.8582550283463
12:31:30,1,F11,Lexington Av/53 St,-73.969055,40.757552,2668.949164119256
12:31:30,1,F12,5 Av/53 St,-73.975224,40.760167,2673.916765683397
12:07:00,2,F14,2 Av,-73.989938,40.723402,1839.7352080133296
13:27:30,2,F15,Delancey St-Essex St,-73.988114,40.718611,1742.8933712786359
13:43:30,2,F16,East Broadway,-73.990173,40.713715,1654.7207824461486
13:43:30,2,F18,York St,-73.986751,40.701397,1494.7399846201733
12:07:00,2,F20,Bergen St,-73.990862,40.686145,1537.5799846201733
13:03:30,2,F21,Carroll St,-73.995048,40.680303,1638.6384125080747
13:03:30,2,F22,Smith-9 Sts,-73.995959,40.67358,1598.2056708946832
12:23:30,2,F23,4 Av-9 St,-73.989779,40.670272,1514.7399846201733
12:23:30,2,F24,7 Av,-73.980305,40.666271,1632.6733179535067
12:23:30,2,F25,15 St-Prospect Park,-73.979493,40.660365,1752.413752505706
12:23:30,2,F26,Fort Hamilton Pkwy,-73.975776,40.650782,1897.8819605981917
12:23:30,2,F27,Church Av,-73.979678,40.644041,1920.1717902467246
12:23:30,2,F29,Ditmas Av,-73.978172,40.636119,2040.8384569133914
12:23:30,2,F30,18 Av,-73.976971,40.629755,2160.8384569133914
12:23:30,2,F31,Avenue I,-73.976127,40.625322,2220.8384569133914
12:23:30,2,F32,Bay Pkwy,-73.975264,40.620769,2280.8384569133914
12:23:30,2,F33,Avenue N,-73.974197,40.61514,2400.8384569133914
12:23:30,2,F34,Avenue P,-73.973022,40.608944,2490.8384569133914
12:50:30,1,F35,Kings Hwy,-73.972361,40.603217,2643.505123580058
12:50:30,1,F36,Avenue U,-73.973357,40.596063,2746.807532187911
12:50:30,1,F38,Avenue X,-73.97425,40.58962,2671.1146482927797
12:50:30,1,F39,Neptune Av,-73.974574,40.581011,2545.1408655212445
12:00:00,3,G05,Jamaica Center-Parsons/Archer,-73.801109,40.702147,3227.0933010516487
12:00:00,3,G06,Sutphin Blvd-Archer Av-JFK Airport,-73.807969,40.700486,3167.0933010516487
12:55:30,1,G07,Jamaica-Van Wyck,-73.816859,40.702566,3586.4451529035005
12:55:30,1,G08,Forest Hills-71 Av,-73.844521,40.721691,3644.7997940550617
12:55:30,1,G09,67 Av,-73.852719,40.726523,3780.1302288376705
12:55:30,1,G10,63 Dr-Rego Park,-73.861604,40.729846,3839.1252081937337
12:55:30,1,G11,Woodhaven Blvd,-73.869229,40.733106,3748.1832727098626
12:55:30,1,G12,Grand Av-Newtown,-73.877223,40.737015,3646.7201696404354
12:55:30,1,G13,Elmhurst Av,-73.882017,40.742454,3546.970169640435
12:55:30,1,G14,Jackson Hts-Roosevelt Av,-73.891338,40.746644,3201.86767868916
12:39:30,1,G15,65 St,-73.898453,40.749669,3388.956933269734
13:19:30,1,G16,Northern Blvd,-73.906006,40.752885,3296.6834289962294
13:19:30,1,G18,46 St,-73.913333,40.756312,3205.2304375432377
13:19:30,1,G19,Steinway St,-73.92074,40.756879,3107.322874518028
13:19:30,1,G20,36 St,-73.928781,40.752039,2985.7478745180283
12:55:30,1,G21,Queens Plaza,-73.937243,40.748973,2877.0619241048053
13:11:30,2,G22,Court Sq,-73.943832,40.746554,2841.1279799237413
13:11:30,2,G24,21 St,-73.949724,40.744065,2835.979936331818
13:11:30,2,G26,Greenpoint Av,-73.954449,40.731352,2694.583486627676
13:11:30,2,G28,Nassau Av,-73.951277,40.724635,2587.663946397791
13:11:30,2,G29,Metropolitan Av,-73.951418,40.712792,2449.002929448638
13:11:30,2,G30,Broadway,-73.950308,40.706092,2363.224520357729
13:11:30,2,G31,Flushing Av,-73.950234,40.700377,2270.7756567213655
13:11:30,2,G32,Myrtle-Willoughby Avs,-73.949046,40.694568,2184.605202175911
13:11:30,2,G33,Bedford-Nostrand Avs,-73.953522,40.689627,2082.980202175911
13:11:30,2,G34,Classon Av,-73.96007,40.688873,2005.9857270377893
13:11:30,2,G35,Clinton-Washington Avs,-73.966839,40.688089,1924.8928308629256
13:11:30,2,G36,Fulton St,-73.975375,40.687119,1832.608677857461
12:39:30,2,H01,Aqueduct Racetrack,-73.834058,40.668234,2638.3091205233577
13:51:30,2,H02,Aqueduct-N Conduit Av,-73.834058,40.668234,2681.379908318368
13:51:30,2,H03,Howard Beach-JFK Airport,-73.830301,40.660476,2809.498009412246
13:51:30,2,H04,Broad Channel,-73.815925,40.608382,3227.449622315472
13:51:30,2,H06,Beach 67 St,-73.796924,40.590927,3538.7390959996824
13:51:30,2,H07,Beach 60 St,-73.788522,40.592374,3642.1864644207353
13:51:30,2,H08,Beach 44 St,-73.776013,40.592943,3745.668920561086
13:51:30,2,H09,Beach 36 St,-73.768175,40.595398,3842.9145345961742
13:51:30,2,H10,Beach 25 St,-73.761353,40.600066,3943.295065569625
13:51:30,2,H11,Far Rockaway-Mott Av,-73.755405,40.603995,4042.4617322362915
12:00:00,2,H12,Beach 90 St,-73.813641,40.588034,3478.749622315472
12:00:00,2,H13,Beach 98 St,-73.820558,40.585307,3557.1496223154722
12:00:00,2,H14,Beach 105 St,-73.827559,40.583209,3633.260733426583
12:00:00,2,H15,Rockaway Park-Beach 116 St,-73.835592,40.580903,3737.460733426583
13:38:30,2,J12,121 St,-73.828294,40.700492,2927.0933010516487
13:38:30,2,J13,111 St,-73.836345,40.697418,3089.422780820435
13:38:30,2,J14,104 St,-73.84433,40.695178,2747.0933010516487
13:38:30,2,J15,Woodhaven Blvd,-73.851576,40.693879,2657.0933010516487
13:38:30,2,J16,85 St-Forest Pkwy,-73.86001,40.692435,2663.117629346414
13:38:30,2,J17,75 St-Elderts Ln,-73.867139,40.691324,2477.0933010516487
13:38:30,2,J19,Cypress Hills,-73.87255,40.689941,2460.867629346414
13:38:30,2,J20,Crescent St,-73.873785,40.683194,2327.0933010516487
13:38:30,2,J21,Norwood Av,-73.880039,40.68141,2237.0933010516487
13:38:30,2,J22,Cleveland St,-73.884639,40.679947,2232.1902194329277
13:38:30,2,J23,Van Siclen Av,-73.891688,40.678024,2087.0933010516487
13:38:30,2,J24,Alabama Av,-73.898654,40.676992,2027.0933010516487
12:10:00,3,J27,Broadway Junction,-73.904512,40.679498,1937.0933010516487
12:10:00,3,J28,Chauncey St,-73.910456,40.682893,1997.0933010516487
12:10:00,3,J29,Halsey St,-73.916559,40.68637,2121.23172508175
12:10:00,3,J30,Gates Av,-73.92227,40.68963,2147.0933010516487
12:10:00,3,J31,Kosciuszko St,-73.928814,40.693342,2303.3814256805526
12:47:30,1,L01,8 Av,-74.002578,40.739777,2237.3231049139276
12:47:30,1,L02,6 Av,-73.996786,40.737335,2107.554586395409
12:47:30,1,L03,14 St-Union Sq,-73.99073,40.734789,2031.2564497494461
12:55:30,1,L05,3 Av,-73.986122,40.732849,2108.4117292525516
12:55:30,1,L06,1 Av,-73.981628,40.730953,2136.645062585885
12:55:30,1,L08,Bedford Av,-73.956872,40.717304,2334.5569166892287
12:55:30,1,L10,Lorimer St,-73.950275,40.714063,2422.417099060049
12:55:30,1,L11,Graham Av,-73.944053,40.714565,2459.787919728742
12:55:30,1,L12,Grand St,-73.94067,40.711926,2392.972948236321
12:55:30,1,L13,Montrose Av,-73.93985,40.707739,2354.5494606918364
12:55:30,1,L14,Morgan Av,-73.933147,40.706152,2287.139965142875
12:00:00,3,L15,Jefferson St,-73.922913,40.706607,2201.3457792570425
12:00:00,3,L16,DeKalb Av,-73.918425,40.703811,2137.5565011092253
12:00:00,3,L17,Myrtle-Wyckoff Avs,-73.911586,40.699814,2066.5474376651164
12:00:00,3,L19,Halsey St,-73.904084,40.695602,2009.3583540092336
12:00:00,3,L20,Wilson Av,-73.904046,40.688764,1879.1472813448738
12:00:00,3,L21,Bushwick Av-Aberdeen St,-73.905249,40.682829,1818.2607565221788
12:34:30,1,L22,Broadway Junction,-73.90324,40.678856,1721.247598627442
12:34:30,1,L24,Atlantic Av,-73.903097,40.675345,1650.029605547857
12:34:30,1,L25,Sutter Av,-73.901975,40.669367,1572.7977873660388
12:34:30,1,L26,Livonia Av,-73.900571,40.664038,1513.8424609055578
12:34:30,1,L27,New Lots Av,-73.899232,40.658733,1584.1924620976506
12:34:30,1,L28,East 105 St,-73.899485,40.650573,1680.91887719199
12:34:30,1,L29,Canarsie-Rockaway Pkwy,-73.90185,40.646654,1785.0057528139857
13:11:30,1,M01,Middle Village-Metropolitan Av,-73.889601,40.711396,2691.9989992259802
13:11:30,1,M04,Fresh Pond Rd,-73.895877,40.706186,2574.7159803580557
13:11:30,1,M05,Forest Av,-73.903077,40.704423,2482.129646622895
12:34:30,2,M06,Seneca Av,-73.90774,40.702762,2387.7654082122995
13:11:30,1,M08,Myrtle-Wyckoff Avs,-73.912385,40.69943,2291.5474376651164
12:34:30,2,M09,Knickerbocker Av,-73.919711,40.698664,2386.746268074473
13:11:30,1,M10,Central Av,-73.927397,40.697857,2497.734503368591
12:31:30,1,M11,Myrtle Av,-73.935657,40.697207,2327.0933010516487
12:31:30,1,M12,Flushing Av,-73.941126,40.70026,2498.7093135940463
12:31:30,1,M13,Lorimer St,-73.947408,40.703869,2521.5947414662687
12:31:30,1,M14,Hewes St,-73.953431,40.70687,2432.057241466269
12:31:30,1,M16,Marcy Av,-73.957757,40.708359,2347.1331908333577
12:31:30,1,M18,Delancey St-Essex St,-73.987437,40.718315,1981.1626025980634
12:23:30,1,M19,Bowery,-73.993915,40.72028,1980.4766453991112
12:23:30,1,M20,Canal St,-73.999892,40.718092,1877.976645399111
12:23:30,1,M21,Chambers St,-74.003401,40.713243,1782.3933120657778
12:23:30,1,M22,Fulton St,-74.007582,40.710374,1791.1229565497679
12:55:30,1,M23,Broad St,-74.011056,40.706476,1857.2896232164346
12:00:00,1,N02,8 Av,-74.011719,40.635064,1855.235297069592
12:00:00,1,N03,Fort Hamilton Pkwy,-74.005351,40.631386,1925.2352970695918
12:00:00,1,N04,New Utrecht Av,-73.996353,40.624842,2065.235297069592
12:00:00,1,N05,18 Av,-73.990414,40.620671,2155.235297069592
12:00:00,1,N06,20 Av,-73.985026,40.61741,2225.235297069592
12:00:00,1,N07,Bay Pkwy,-73.981848,40.611815,2315.235297069592
12:00:00,1,N08,Kings Hwy,-73.980353,40.603923,2435.235297069592
12:00:00,1,N09,Avenue U,-73.979137,40.597473,2535.2352970695915
12:00:00,1,N10,86 St,-73.97823,40.592721,2595.2352970695915
12:00:00,1,Q01,Canal St,-74.00046,40.718383,1681.4169122392889
12:42:30,1,Q03,72 St,-73.958424,40.768799,2694.2278343011094
12:42:30,1,Q04,86 St,-73.951787,40.777891,2826.196906466058
12:42:30,1,Q05,96 St,-73.947152,40.784318,2907.227834301109
12:55:30,1,R01,Astoria-Ditmars Blvd,-73.912034,40.775036,3407.4175977191044
12:55:30,1,R03,Astoria Blvd,-73.917843,40.770258,3306.239379897322
12:55:30,1,R04,30 Av,-73.921479,40.766779,3206.386046563989
12:55:30,1,R05,Broadway,-73.925508,40.76182,3101.6302188433588
12:55:30,1,R06,36 Av,-73.929575,40.756804,2978.913351373479
12:55:30,1,R08,39 Av-Dutch Kills,-73.932755,40.752882,2886.6791741582897
12:55:30,1,R09,Queensboro Plaza,-73.940202,40.750582,2693.363697967813
12:00:00,1,R11,Lexington Av/59 St,-73.967258,40.76266,2443.742396192665
12:00:00,1,R13,5 Av/59 St,-73.973347,40.764811,2532.1947753444747
12:47:30,1,R14,57 St-7 Av,-73.980658,40.764664,2407.029911017423
12:00:00,1,R15,49 St,-73.984139,40.759901,2491.2025126368662
12:00:00,1,R16,Times Sq-42 St,-73.986754,40.754672,2222.888549760878
12:00:00,1,R17,34 St-Herald Sq,-73.98795,40.749567,2129.294799760878
12:55:30,1,R18,28 St,-73.988691,40.745494,2223.2719980088855
12:55:30,1,R19,23 St,-73.989344,40.741303,2142.0888994173365
12:00:00,1,R20,14 St-Union Sq,-73.990568,40.735736,1938.8492039059556
13:51:30,1,R21,8 St-NYU,-73.992629,40.730328,2143.2067819699128
13:51:30,1,R22,Prince St,-73.997702,40.724329,2036.9240873042343
13:51:30,1,R23,Canal St,-74.001775,40.719527,1932.2383730185202
13:51:30,1,R24,City Hall,-74.006978,40.713282,1805.7938611626084
13:51:30,1,R25,Cortlandt St,-74.011029,40.710668,1671.1176021698025
13:51:30,1,R26,Rector St,-74.013342,40.70722,1541.6344207231175
13:51:30,1,R27,Whitehall St-South Ferry,-74.012994,40.703087,1470.4241715128683
13:27:30,1,R28,Court St,-73.991777,40.6941,1264.904690993388
12:23:30,1,R29,Jay St-MetroTech,-73.985942,40.69218,1269.7399846201733
12:31:30,1,R30,DeKalb Av,-73.981824,40.690635,1172.2399846201733
13:43:30,1,R31,Atlantic Av-Barclays Ctr,-73.97881,40.683666,1029.7399846201733
12:23:30,1,R32,Union St,-73.98311,40.677316,1152.2399846201733
12:23:30,1,R33,4 Av-9 St,-73.988302,40.670847,1274.7399846201733
12:23:30,1,R34,Prospect Av,-73.992872,40.665414,1341.7399846201733
12:23:30,1,R35,25 St,-73.998091,40.660397,1419.7399846201736
12:00:00,1,R36,36 St,-74.003549,40.655144,1405.235297069592
12:23:30,1,R39,45 St,-74.010006,40.648939,1615.235297069592
12:23:30,1,R40,53 St,-74.014034,40.645069,1725.235297069592
12:00:00,1,R41,59 St,-74.017881,40.641362,1675.235297069592
12:23:30,1,R42,Bay Ridge Av,-74.023377,40.634967,1836.0452983657894
12:23:30,1,R43,77 St,-74.02551,40.629742,1916.3180256385167
12:23:30,1,R44,86 St,-74.028398,40.622687,2092.669216114707
13:03:30,1,R45,Bay Ridge-95 St,-74.030876,40.616622,2169.684964146203
12:31:30,1,S01,Franklin Av,-73.955827,40.680596,949.6010068384568
12:31:30,1,S03,Park Pl,-73.957624,40.674772,849.6242626524102
12:42:30,1,S04,Botanic Garden,-73.959245,40.670343,720.1297571579047
