start_time,ntransfers,stop_id,stop_name,stop_lon,stop_lat,duration
12:00:00,2,101,Van Cortlandt Park-242 St,-73.898583,40.889248,2887.631956157821
12:00:00,2,103,238 St,-73.90087,40.884667,2782.84566583524
12:00:00,2,104,231 St,-73.904834,40.878856,2690.247210236784
12:00:00,2,106,Marble Hill-225 St,-73.909831,40.874561,2602.39993418363
12:00:00,2,107,215 St,-73.915279,40.869444,2512.782265587338
12:00:00,2,108,207 St,-73.918822,40.864621,2423.8841976678937
12:00:00,2,109,Dyckman St,-73.925536,40.860531,2323.571422337497
12:00:00,2,110,191 St,-73.929412,40.855225,2239.7265947512906
12:32:00,2,111,181 St,-73.933596,40.849505,2148.6965518328357
12:00:00,3,112,168 St-Washington Hts,-73.940133,40.840556,2029.4948350946383
13:12:00,2,113,157 St,-73.94489,40.834041,2128.8138006118797
12:00:00,3,114,145 St,-73.95036,40.826551,2246.067019496
12:00:00,3,115,137 St-City College,-73.953676,40.822008,2342.6432557803896
12:00:00,3,116,125 St,-73.958372,40.815581,2442.268087872068
13:54:00,1,117,116 St-Columbia University,-73.96411,40.807722,2556.4972545387345
13:54:00,1,118,Cathedral Pkwy (110 St),-73.966847,40.803967,2513.8510115275676
13:54:00,1,119,103 St,-73.968379,40.799446,2432.1287893053454
13:54:00,1,120,96 St,-73.972323,40.793919,2049.923514310695
13:54:00,1,121,86 St,-73.976218,40.788644,2186.854501044772
13:54:00,1,122,79 St,-73.979917,40.783934,2264.9276717764797
13:54:00,1,123,72 St,-73.98197,40.778453,2245.2725709144684
13:12:00,2,124,66 St-Lincoln Center,-73.982209,40.77344,2272.412839570648
12:00:00,1,125,59 St-Columbus Circle,-73.981929,40.768247,2195.0645249639065
12:32:00,2,126,50 St,-73.983849,40.761728,2298.7336978962376
12:00:00,2,127,Times Sq-42 St,-73.987495,40.75529,2412.346479851125
12:00:00,1,128,34 St-Penn Station,-73.991057,40.750373,2516.3276828586436
12:00:00,1,129,28 St,-73.993365,40.747215,2592.648437575625
12:00:00,1,130,23 St,-73.995657,40.744081,2661.796726549009
12:00:00,1,131,18 St,-73.997871,40.74104,2729.974756852039
12:00:00,1,132,14 St,-74.000201,40.737826,2729.4407307223833
12:00:00,1,133,Christopher St-Sheridan Sq,-74.002906,40.733422,2879.8578996780325
12:00:00,1,134,Houston St,-74.005367,40.728251,2965.7388520589843
12:00:00,1,135,Canal St,-74.006277,40.722854,3060.5997065663905
12:00:00,1,136,Franklin St,-74.006886,40.719318,3124.7695233732916
12:00:00,1,137,Chambers St,-74.009266,40.715478,2988.427743709396
12:08:00,1,138,WTC Cortlandt,-74.012188,40.711835,3274.6823257412025
12:08:00,1,139,Rector St,-74.013783,40.707513,3351.192447198692
12:08:00,1,142,South Ferry,-74.013664,40.702068,3454.2833562896017
12:00:00,1,201,Wakefield-241 St,-73.85062,40.903125,3359.9060741425997
12:00:00,1,204,Nereid Av,-73.854376,40.898379,3117.939947624878
12:00:00,1,205,233 St,-73.857473,40.893193,3027.939947624878
12:00:00,1,206,225 St,-73.860341,40.888022,2937.939947624878
12:00:00,1,207,219 St,-73.862633,40.883895,2847.939947624878
12:00:00,1,208,Gun Hill Rd,-73.866256,40.87785,2742.939947624878
12:00:00,1,209,Burke Av,-73.867164,40.871356,2736.591628641378
12:00:00,1,210,Allerton Av,-73.867352,40.865462,2644.4611938587695
12:00:00,1,211,Pelham Pkwy,-73.867615,40.857192,2540.113367771813
12:00:00,1,212,Bronx Park East,-73.868457,40.848828,2415.287280815291
12:00:00,1,213,E 180 St,-73.873488,40.841894,2150.1189688905265
12:00:00,1,214,West Farms Sq-E Tremont Av,-73.880049,40.840295,2149.30608070426
12:00:00,1,215,174 St,-73.887734,40.837288,2019.2198738077077
12:00:00,1,216,Freeman St,-73.891865,40.829993,1899.382266970101
12:00:00,1,217,Simpson St,-73.893064,40.824073,1789.0009110378976
12:00:00,1,218,Intervale Av,-73.896736,40.822181,1716.0771822243382
12:00:00,1,219,Prospect Av,-73.90177,40.819585,1630.195826292135
12:00:00,1,220,Jackson Av,-73.907807,40.81649,1538.1370027627231
12:00:00,1,221,3 Av-149 St,-73.917757,40.816109,1416.4286694293899
13:54:00,0,222,149 St-Grand Concourse,-73.926718,40.81841,1301.3689679368524
13:54:00,1,224,135 St,-73.94077,40.814229,1523.0756600746606
13:54:00,1,225,125 St,-73.945495,40.807754,1626.1687973295627
13:54:00,1,226,116 St,-73.949625,40.802098,1724.626344499374
13:54:00,1,227,Central Park North (110 St),-73.951822,40.799075,1798.626344499374
13:54:00,1,228,Park Place,-74.008811,40.713051,3085.656501879331
12:00:00,1,229,Fulton St,-74.006571,40.709416,2975.7122740500486
12:00:00,1,230,Wall St,-74.0091,40.706821,3048.982950741778
12:00:00,1,231,Clark St,-73.993086,40.697466,3232.531098889926
12:00:00,1,232,Borough Hall,-73.989998,40.693219,3344.827395186222
13:54:00,0,233,Hoyt St,-73.985065,40.690545,3339.338293079328
12:00:00,0,234,Nevins St,-73.980492,40.688246,3214.8243454090516
12:00:00,0,235,Atlantic Av-Barclays Ctr,-73.977666,40.684359,3305.002123186829
12:00:00,0,236,Bergen St,-73.975098,40.680829,3413.50932197332
12:00:00,0,237,Grand Army Plaza,-73.971046,40.675235,3509.7250082478295
12:00:00,0,238,Eastern Pkwy-Brooklyn Museum,-73.964375,40.671987,3612.705400404692
12:00:00,0,239,Franklin Av-Medgar Evers College,-73.958131,40.670682,3615.900958273858
13:54:00,0,241,President St-Medgar Evers College,-73.950683,40.667883,3806.8973427410074
13:54:00,0,242,Sterling St,-73.95085,40.662742,3897.3684965871607
13:54:00,0,243,Winthrop St,-73.9502,40.656652,3982.5208775395417
13:54:00,0,244,Church Av,-73.949575,40.650843,4064.3731502668143
13:54:00,0,245,Beverly Rd,-73.948959,40.645098,4145.807112530965
13:54:00,0,246,Newkirk Av-Little Haiti,-73.948411,40.639967,4231.807112530966
13:54:00,0,247,Flatbush Av-Brooklyn College,-73.947642,40.632836,4349.143954636229
13:54:00,0,248,Nostrand Av,-73.950466,40.669847,3733.2229419002797
13:54:00,0,249,Kingston Av,-73.942161,40.669399,3818.8479419002797
12:00:00,0,250,Crown Hts-Utica Av,-73.932942,40.668897,3847.376273660173
13:54:00,0,251,Sutter Av-Rutland Rd,-73.92261,40.664717,3984.376273660173
13:54:00,0,252,Saratoga Av,-73.916327,40.661453,4080.909606993506
13:54:00,0,253,Rockaway Av,-73.908946,40.662549,4168.159606993506
13:54:00,0,254,Junius St,-73.902447,40.663515,4199.771884987515
13:54:00,0,255,Pennsylvania Av,-73.894895,40.664635,4296.987571262025
13:54:00,0,256,Van Siclen Av,-73.889395,40.665449,4371.497375183593
13:54:00,0,257,New Lots Av,-73.884079,40.666235,4442.271884987515
13:54:00,1,301,Harlem-148 St,-73.93647,40.82388,1955.3444543688593
13:54:00,1,302,145 St,-73.936245,40.820421,1840.9602438425436
12:03:30,0,401,Woodlawn,-73.878751,40.886037,259.21492860397996
12:03:30,0,402,Mosholu Pkwy,-73.884655,40.87975,121.5104895104895
12:03:30,0,405,Bedford Park Blvd-Lehman College,-73.890064,40.873412,0.0
12:00:00,0,406,Kingsbridge Rd,-73.897174,40.86776,111.4892703862661
12:00:00,0,407,Fordham Rd,-73.901034,40.862803,196.0015654682333
12:00:00,0,408,183 St,-73.903879,40.858407,275.80972873353943
12:00:00,0,409,Burnside Av,-73.907684,40.853453,371.208068982502
12:00:00,0,410,176 St,-73.911794,40.84848,459.6935461609253
12:00:00,0,411,Mt Eden Av,-73.914685,40.844434,537.4042899625781
12:00:00,0,412,170 St,-73.917791,40.840075,616.9456122766278
12:00:00,0,413,167 St,-73.9214,40.835537,704.8543259695739
12:00:00,0,414,161 St-Yankee Stadium,-73.925831,40.827994,812.8501418691554
12:00:00,0,415,149 St-Grand Concourse,-73.927351,40.818375,1021.3689703210382
12:00:00,0,416,138 St-Grand Concourse,-73.929849,40.813224,1145.0392405913085
12:00:00,0,418,Fulton St,-74.009509,40.710368,2638.4581753962552
12:00:00,0,419,Wall St,-74.011862,40.707557,2723.1688136941275
12:00:00,0,420,Bowling Green,-74.014065,40.704817,2814.483707311149
12:00:00,0,423,Borough Hall,-73.990151,40.692404,3076.5894341833955
13:44:00,0,501,Eastchester-Dyre Av,-73.830834,40.8883,2900.1189688905265
13:54:00,0,502,Baychester Av,-73.838591,40.878663,2750.1189688905265
13:54:00,0,503,Gun Hill Rd,-73.846384,40.869526,2600.1189688905265
13:54:00,0,504,Pelham Pkwy,-73.855359,40.858985,2450.1189688905265
13:54:00,0,505,Morris Park,-73.860495,40.854364,2360.1189688905265
13:54:00,0,601,Pelham Bay Park,-73.828121,40.852462,3099.1346004029474
13:54:00,0,602,Buhre Av,-73.832569,40.84681,2915.707650048338
13:54:00,0,603,Middletown Rd,-73.836322,40.843863,2806.8743167150046
13:54:00,0,604,Westchester Sq-E Tremont Av,-73.842952,40.839892,2662.124316715004
13:54:00,0,606,Zerega Av,-73.847036,40.836488,2564.040983381671
13:54:00,0,607,Castle Hill Av,-73.851222,40.834255,2496.7076500483377
13:54:00,0,608,Parkchester,-73.860816,40.833226,2340.7076500483377
13:54:00,0,609,St Lawrence Av,-73.867618,40.831509,2578.645016532457
13:54:00,0,610,Morrison Av-Soundview,-73.874516,40.829521,2493.5772874487916
13:54:00,0,611,Elder Av,-73.879159,40.828584,2428.4132874487914
13:54:00,0,612,Whitlock Av,-73.886283,40.826525,2322.0732874487912
13:54:00,0,613,Hunts Point Av,-73.890549,40.820948,2084.3230346637224
12:00:00,0,614,Longwood Av,-73.896435,40.816104,2166.6152179004266
12:00:00,0,615,E 149 St,-73.904098,40.812118,2065.5068845670935
12:00:00,0,616,E 143 St-St Mary's St,-73.907657,40.808719,1990.6645609156412
12:00:00,0,617,Cypress Av,-73.914042,40.805368,1891.7440588235913
12:00:00,0,618,Brook Av,-73.91924,40.807566,1822.1852352941794
12:00:00,0,619,3 Av-138 St,-73.926138,40.810476,1705.2461115867995
12:00:00,0,621,125 St,-73.937594,40.804138,1278.3889673672647
13:54:00,0,622,116 St,-73.941617,40.798629,1607.4603973010853
13:54:00,0,623,110 St,-73.94425,40.79502,1687.8889687296569
13:54:00,0,624,103 St,-73.947478,40.7906,1765.2001481412174
13:54:00,0,625,96 St,-73.95107,40.785672,1851.6703235798138
12:00:00,0,626,86 St,-73.955589,40.779492,1570.2341556517836
13:54:00,0,627,77 St,-73.959874,40.77362,1904.1752257374021
13:54:00,0,628,68 St-Hunter College,-73.96387,40.768141,1993.8002257374023
12:00:00,0,629,59 St,-73.967967,40.762526,1765.750962374473
12:00:00,0,630,51 St,-73.97192,40.757107,2089.2818055337902
12:00:00,0,631,Grand Central-42 St,-73.976848,40.751776,1950.572996272778
12:00:00,0,632,33 St,-73.982076,40.746081,2325.3473432782093
12:00:00,0,633,28 St,-73.984264,40.74307,2392.203013381302
12:00:00,0,634,23 St,-73.986599,40.739864,2455.455573108264
12:00:00,0,635,14 St-Union Sq,-73.989951,40.734673,2206.8581026557567
13:54:00,0,636,Astor Pl,-73.99107,40.730054,2588.024365984493
13:54:00,0,637,Bleecker St,-73.994659,40.725915,2678.7410895339813
13:54:00,0,638,Spring St,-73.997141,40.722301,2747.890749397927
12:00:00,0,639,Canal St,-74.000193,40.718803,2821.667776424954
12:00:00,0,640,Brooklyn Bridge-City Hall,-74.004131,40.713065,2525.441081379161
12:00:00,2,701,Flushing-Main St,-73.83003,40.7596,3442.54666809165
12:00:00,2,702,Mets-Willets Point,-73.845625,40.754622,3266.2371442821263
12:00:00,2,705,111 St,-73.855334,40.75173,3292.2902956173225
12:00:00,2,706,103 St-Corona Plaza,-73.8627,40.749865,3198.6642871392696
12:00:00,2,707,Junction Blvd,-73.869527,40.749145,3028.330953805936
12:00:00,2,708,90 St-Elmhurst Av,-73.876613,40.748408,3121.2854438827953
13:52:00,2,709,82 St-Jackson Hts,-73.883697,40.747659,3041.9051621926546
12:00:00,1,710,74 St-Broadway,-73.891394,40.746848,2899.656862872927
12:08:00,2,711,69 St,-73.896403,40.746325,2844.0069013418965
12:00:00,1,712,61 St-Woodside,-73.902984,40.74563,2774.0442845194666
12:00:00,1,713,52 St,-73.912549,40.744149,2618.150134101639
12:00:00,1,714,46 St-Bliss St,-73.918435,40.743132,2564.4565407868763
12:00:00,1,715,40 St-Lowery St,-73.924016,40.743781,2513.0860672492718
12:00:00,1,716,33 St-Rawson St,-73.930997,40.744587,2444.8058124722015
12:00:00,1,718,Queensboro Plaza,-73.940202,40.750582,2302.330952137006
12:00:00,1,719,Court Sq,-73.945264,40.747023,2413.4506102566643
12:00:00,1,720,Hunters Point Av,-73.948916,40.742216,2448.316415443158
12:00:00,1,721,Vernon Blvd-Jackson Av,-73.953581,40.742626,2420.3164154431574
12:16:00,1,723,Grand Central-42 St,-73.976041,40.751431,2217.3164154431574
12:16:00,1,724,5 Av,-73.981963,40.753821,2272.744986871729
12:16:00,1,725,Times Sq-42 St,-73.987691,40.755477,2357.044986871729
12:16:00,1,726,34 St-Hudson Yards,-74.00191,40.755882,2536.3637089525637
12:16:00,1,901,Grand Central-42 St,-73.979189,40.752769,2206.679132607224
12:16:00,1,902,Times Sq-42 St,-73.986229,40.755983,2301.119132607224
12:00:00,2,A02,Inwood-207 St,-73.919899,40.868072,2356.6736511812696
12:00:00,2,A03,Dyckman St,-73.927271,40.865491,2266.60065848054
12:00:00,2,A05,190 St,-73.93418,40.859022,2143.008267176192
12:00:00,2,A06,181 St,-73.937969,40.851695,2029.772973058545
12:00:00,2,A07,175 St,-73.939704,40.847391,1933.052542951018
12:00:00,2,A09,168 St,-73.939561,40.840719,1804.0057038824039
12:00:00,2,A10,163 St-Amsterdam Av,-73.939892,40.836013,1704.9762921176978
12:00:00,2,A11,155 St,-73.941514,40.830518,1623.1429587843645
12:32:00,1,A12,145 St,-73.944216,40.824783,1470.8776928510463
12:32:00,1,A14,135 St,-73.947649,40.817894,1380.9562208762577
12:32:00,1,A15,125 St,-73.952343,40.811109,1477.9663654547041
12:32:00,1,A16,116 St,-73.954882,40.805085,1601.801947685406
12:32:00,1,A17,Cathedral Pkwy (110 St),-73.958161,40.800603,1686.4770810146133
12:32:00,1,A18,103 St,-73.961454,40.796092,1770.9507080159844
12:32:00,1,A19,96 St,-73.964696,40.791642,1855.4589047372958
12:32:00,1,A20,86 St,-73.968916,40.785868,1955.0870039108497
12:32:00,1,A21,81 St-Museum of Natural History,-73.972143,40.781433,2050.8286705775167
12:32:00,1,A22,72 St,-73.97641,40.775594,2144.2286705775164
12:32:00,1,A24,59 St-Columbus Circle,-73.981736,40.768296,1970.0645249639065
12:32:00,1,A25,50 St,-73.985984,40.762456,2316.5515889173384
12:32:00,1,A27,42 St-Port Authority Bus Terminal,-73.989735,40.757308,2243.059302551122
12:32:00,1,A28,34 St-Penn Station,-73.993391,40.752287,2339.349625131767
12:32:00,1,A30,23 St,-73.998041,40.745906,2613.501722883969
12:32:00,1,A31,14 St,-74.00169,40.740893,2481.5001627661754
12:32:00,1,A32,W 4 St-Wash Sq,-74.000495,40.732338,2605.902336679219
12:32:00,1,A33,Spring St,-74.003739,40.726227,2867.745778984676
12:32:00,1,A34,Canal St,-74.005229,40.720824,2784.3262497226974
12:32:00,1,A36,Chambers St,-74.008585,40.714111,2904.652336679219
12:32:00,1,A38,Fulton St,-74.007691,40.710197,2878.4581753962552
12:48:00,1,A40,High St,-73.990531,40.699337,3064.406451258324
12:48:00,1,A41,Jay St-MetroTech,-73.987342,40.692338,3189.84123386702
12:48:00,1,A42,Hoyt-Schermerhorn Sts,-73.985001,40.688484,3307.962972997455
13:28:00,1,A43,Lafayette Av,-73.973946,40.686113,3440.6443889266584
13:28:00,1,A44,Clinton-Washington Avs,-73.965838,40.683263,3525.308025290295
13:28:00,1,A45,Franklin Av,-73.956848,40.68138,3631.4330252902946
12:48:00,1,A46,Nostrand Av,-73.950426,40.680438,3628.753896365711
12:08:00,1,A47,Kingston-Throop Avs,-73.940858,40.679921,3729.1080630323777
12:08:00,1,A48,Utica Av,-73.930729,40.679364,3799.5741210848123
12:08:00,1,A49,Ralph Av,-73.920786,40.678822,3910.29151238916
12:08:00,1,A50,Rockaway Av,-73.911946,40.67834,3956.0301863989175
12:48:00,1,A51,Broadway Junction,-73.905316,40.678334,3871.93182574318
14:00:00,1,A52,Liberty Av,-73.896548,40.674542,4005.8911753366765
14:00:00,1,A53,Van Siclen Av,-73.890358,40.67271,4101.070037125294
14:00:00,1,A54,Shepherd Av,-73.88075,40.67413,4205.1432078570015
12:48:00,1,A55,Euclid Av,-73.872106,40.675377,4172.243453650157
12:48:00,1,A57,Grant Av,-73.86505,40.677044,4294.426026264265
12:48:00,1,A59,80 St,-73.858992,40.679371,4391.778026264265
12:48:00,1,A60,88 St,-73.85147,40.679843,4487.738185626815
12:48:00,1,A61,Rockaway Blvd,-73.843853,40.680429,4578.083423722053
13:52:00,1,A63,104 St,-73.837683,40.681711,4661.755423722053
13:52:00,1,A64,111 St,-73.832163,40.684331,4747.886571263036
13:52:00,1,A65,Ozone Park-Lefferts Blvd,-73.825798,40.685951,4836.949862402277
13:20:00,1,B04,21 St-Queensbridge,-73.942836,40.754203,2413.678794886788
13:20:00,1,B06,Roosevelt Island,-73.95326,40.759145,2267.0581052316156
12:00:00,1,B08,Lexington Av/63 St,-73.966113,40.764629,2125.7509623744727
12:40:00,1,B10,57 St,-73.97745,40.763972,2347.0009623744727
12:32:00,1,B12,9 Av,-73.994324,40.646292,4148.259590542953
12:32:00,1,B13,Fort Hamilton Pkwy,-73.994304,40.640914,4249.362154645517
12:32:00,1,B14,50 St,-73.994791,40.63626,4328.387632352524
12:32:00,1,B15,55 St,-73.995476,40.631435,4428.145594135963
12:32:00,1,B16,62 St,-73.996895,40.626472,4494.117622107991
12:32:00,1,B17,71 St,-73.998864,40.619589,4596.6080679678635
12:32:00,1,B18,79 St,-74.00061,40.613501,4703.168577522004
12:32:00,1,B19,18 Av,-74.001736,40.607954,4784.7621259091
12:32:00,1,B20,20 Av,-73.998168,40.604556,4866.755632402607
12:32:00,1,B21,Bay Pkwy,-73.993728,40.601875,4944.301086948061
13:12:00,1,B22,25 Av,-73.986829,40.597704,5063.410764367416
13:12:00,1,B23,Bay 50 St,-73.983765,40.588841,5261.982192938845
12:08:00,1,D01,Norwood-205 St,-73.878855,40.874811,2028.462589533017
12:08:00,1,D03,Bedford Park Blvd,-73.887138,40.873244,1856.9761030465304
12:08:00,1,D04,Kingsbridge Rd,-73.893509,40.866978,1739.8198530465304
12:08:00,1,D05,Fordham Rd,-73.897749,40.861296,1645.288384515062
12:08:00,1,D06,182-183 Sts,-73.900741,40.856093,1558.3544777138984
12:08:00,1,D07,Tremont Av,-73.905227,40.85041,1480.239433466111
12:08:00,1,D08,174-175 Sts,-73.910136,40.8459,1385.9463300178352
12:08:00,1,D09,170 St,-73.9134,40.839306,1277.3138549660052
12:08:00,1,D10,167 St,-73.91844,40.833771,1169.8896125417627
13:52:00,1,D11,161 St-Yankee Stadium,-73.925651,40.827905,1037.8501418691553
12:32:00,1,D12,155 St,-73.938209,40.830135,1162.5785369308837
12:32:00,1,D13,145 St,-73.944216,40.824783,1273.7945863135997
12:32:00,1,D14,7 Av,-73.981637,40.762862,2133.250067051474
12:32:00,1,D15,47-50 Sts-Rockefeller Ctr,-73.981329,40.758663,2237.833917983151
12:32:00,1,D16,42 St-Bryant Pk,-73.984569,40.754222,2331.5026679831512
12:32:00,1,D17,34 St-Herald Sq,-73.987823,40.749719,2414.735372385667
13:12:00,1,D18,23 St,-73.992821,40.742878,2685.2624718438674
13:12:00,1,D19,14 St,-73.996209,40.738228,2761.8785855879432
12:32:00,1,D20,W 4 St-Wash Sq,-74.000495,40.732338,2590.2895125130553
12:32:00,1,D21,Broadway-Lafayette St,-73.996204,40.725297,2732.9200857614633
12:32:00,1,D22,Grand St,-73.993753,40.718267,2869.530148654545
12:24:00,1,D24,Atlantic Av-Barclays Ctr,-73.97689,40.68446,3420.239022323772
12:24:00,1,D25,7 Av,-73.972367,40.67705,3550.700162220145
12:24:00,1,D26,Prospect Park,-73.962246,40.661614,3731.840058593202
12:24:00,1,D27,Parkside Av,-73.961495,40.655292,3813.720887608746
12:24:00,1,D28,Church Av,-73.962982,40.650527,3911.4643431061277
12:24:00,1,D29,Beverley Rd,-73.964492,40.644031,4037.019898661684
12:24:00,1,D30,Cortelyou Rd,-73.963891,40.640927,4097.0732319950175
12:16:00,1,D31,Newkirk Plaza,-73.962793,40.635082,4142.907200248985
12:24:00,1,D32,Avenue H,-73.961639,40.62927,4259.7303067259645
12:24:00,1,D33,Avenue J,-73.960803,40.625039,4347.956074490655
12:24:00,1,D34,Avenue M,-73.959399,40.617618,4452.074023208604
12:16:00,1,D35,Kings Hwy,-73.957734,40.60867,4381.039553190161
12:16:00,1,D37,Avenue U,-73.955929,40.5993,4596.519253025646
12:16:00,1,D38,Neck Rd,-73.955161,40.595246,4696.055335499874
12:16:00,1,D39,Sheepshead Bay,-73.954155,40.586896,4619.024627817027
12:16:00,1,D40,Brighton Beach,-73.961376,40.577621,4768.7519005443
12:16:00,1,D41,Ocean Pkwy,-73.968501,40.576312,4922.543758633189
12:16:00,1,D42,W 8 St-NY Aquarium,-73.975939,40.576127,5036.9953715364145
12:16:00,1,D43,Coney Island-Stillwell Av,-73.981233,40.577422,5116.95092709197
13:12:00,1,E01,World Trade Center,-74.009781,40.712582,2971.470268755565
12:16:00,1,F01,Jamaica-179 St,-73.783817,40.712646,3918.4740111607152
13:04:00,1,F02,169 St,-73.793604,40.71047,3840.845301997115
13:20:00,1,F03,Parsons Blvd,-73.803326,40.707564,3750.8453019971143
13:20:00,1,F04,Sutphin Blvd,-73.810708,40.70546,3727.0009623744727
13:20:00,1,F05,Briarwood,-73.820574,40.709179,3607.0009623744727
12:08:00,1,F06,Kew Gardens-Union Tpke,-73.831008,40.714441,3487.0009623744727
13:20:00,1,F07,75 Av,-73.837324,40.718331,3351.9850051704275
12:08:00,1,F09,Court Sq-23 St,-73.946,40.747846,2515.667086294642
13:12:00,1,F11,Lexington Av/53 St,-73.969055,40.757552,2324.757995385551
13:12:00,1,F12,5 Av/53 St,-73.975224,40.760167,2417.441957649702
13:52:00,1,F14,2 Av,-73.989938,40.723402,2988.3982333311747
13:52:00,1,F15,Delancey St-Essex St,-73.988114,40.718611,3085.2400700658686
13:52:00,1,F16,East Broadway,-73.990173,40.713715,3173.412658898356
13:52:00,1,F18,York St,-73.986751,40.701397,3324.6106284415027
12:48:00,1,F20,Bergen St,-73.990862,40.686145,3473.6286043961945
12:48:00,1,F21,Carroll St,-73.995048,40.680303,3574.687032284097
12:48:00,1,F22,Smith-9 Sts,-73.995959,40.67358,3717.1004938225583
12:48:00,1,F23,4 Av-9 St,-73.989779,40.670272,3800.566180097068
12:48:00,1,F24,7 Av,-73.980305,40.666271,3744.84123386702
12:48:00,1,F25,15 St-Prospect Park,-73.979493,40.660365,3912.7508172713488
12:48:00,1,F26,Fort Hamilton Pkwy,-73.975776,40.650782,4074.4100351484435
12:48:00,1,F27,Church Av,-73.979678,40.644041,3984.8412338670205
12:48:00,1,F29,Ditmas Av,-73.978172,40.636119,4104.8412338670205
12:48:00,1,F30,18 Av,-73.976971,40.629755,4224.8412338670205
12:48:00,1,F31,Avenue I,-73.976127,40.625322,4284.8412338670205
12:48:00,1,F32,Bay Pkwy,-73.975264,40.620769,4344.8412338670205
12:48:00,1,F33,Avenue N,-73.974197,40.61514,4464.8412338670205
12:48:00,1,F34,Avenue P,-73.973022,40.608944,4554.8412338670205
12:48:00,1,F35,Kings Hwy,-73.972361,40.603217,4728.503355854811
12:48:00,1,F36,Avenue U,-73.973357,40.596063,4837.104419684599
12:48:00,1,F38,Avenue X,-73.97425,40.58962,4930.307628240748
12:56:00,1,F39,Neptune Av,-73.974574,40.581011,5044.7795383531075
13:52:00,1,G05,Jamaica Center-Parsons/Archer,-73.801109,40.702147,3982.146331896296
12:08:00,1,G06,Sutphin Blvd-Archer Av-JFK Airport,-73.807969,40.700486,3890.8614156951785
12:08:00,1,G07,Jamaica-Van Wyck,-73.816859,40.702566,3771.5095638433268
12:08:00,1,G08,Forest Hills-71 Av,-73.844521,40.721691,3252.4803322732314
12:08:00,1,G09,67 Av,-73.852719,40.726523,3387.8107670558397
13:28:00,1,G10,63 Dr-Rego Park,-73.861604,40.729846,3439.761620563487
13:28:00,1,G11,Woodhaven Blvd,-73.869229,40.733106,3345.187707520009
13:28:00,1,G12,Grand Av-Newtown,-73.877223,40.737015,3243.10075099827
13:28:00,1,G13,Elmhurst Av,-73.882017,40.742454,3143.35075099827
12:08:00,1,G14,Jackson Hts-Roosevelt Av,-73.891338,40.746644,2810.0321088712885
13:20:00,1,G15,65 St,-73.898453,40.749669,2940.4800613430975
13:20:00,1,G16,Northern Blvd,-73.906006,40.752885,2848.206557069593
13:20:00,1,G18,46 St,-73.913333,40.756312,2756.7535656166015
13:20:00,1,G19,Steinway St,-73.92074,40.756879,2658.8460025913914
13:20:00,1,G20,36 St,-73.928781,40.752039,2537.2710025913916
12:40:00,1,G21,Queens Plaza,-73.937243,40.748973,2428.5850521781686
12:24:00,2,G22,Court Sq,-73.943832,40.746554,2593.4506102566643
12:24:00,2,G24,21 St,-73.949724,40.744065,2682.7635873559007
12:24:00,2,G26,Greenpoint Av,-73.954449,40.731352,2824.1600370600427
12:24:00,2,G28,Nassau Av,-73.951277,40.724635,2931.0795772899282
12:24:00,2,G29,Metropolitan Av,-73.951418,40.712792,3069.7405942390806
12:24:00,2,G30,Broadway,-73.950308,40.706092,3155.51900332999
12:24:00,2,G31,Flushing Av,-73.950234,40.700377,3247.9678669663535
12:24:00,2,G32,Myrtle-Willoughby Avs,-73.949046,40.694568,3334.138321511808
13:28:00,1,G33,Bedford-Nostrand Avs,-73.953522,40.689627,3435.763321511808
13:28:00,1,G34,Classon Av,-73.96007,40.688873,3512.75779664993
13:28:00,1,G35,Clinton-Washington Avs,-73.966839,40.688089,3593.8506928247934
13:28:00,1,G36,Fulton St,-73.975375,40.687119,3641.553224770723
12:08:00,1,H01,Aqueduct Racetrack,-73.834058,40.668234,4784.115169753799
12:48:00,1,H02,Aqueduct-N Conduit Av,-73.834058,40.668234,4857.184222693376
12:48:00,1,H03,Howard Beach-JFK Airport,-73.830301,40.660476,4955.304058642688
12:48:00,1,H04,Broad Channel,-73.815925,40.608382,5373.255671545914
12:48:00,1,H06,Beach 67 St,-73.796924,40.590927,5684.545145230124
12:48:00,1,H07,Beach 60 St,-73.788522,40.592374,5787.992513651177
12:48:00,1,H08,Beach 44 St,-73.776013,40.592943,5891.474969791529
12:48:00,1,H09,Beach 36 St,-73.768175,40.595398,5988.720583826616
12:48:00,1,H10,Beach 25 St,-73.761353,40.600066,6089.101114800067
12:48:00,1,H11,Far Rockaway-Mott Av,-73.755405,40.603995,6188.267781466734
12:08:00,1,H12,Beach 90 St,-73.813641,40.588034,5624.555671545913
12:08:00,1,H13,Beach 98 St,-73.820558,40.585307,5702.955671545914
12:08:00,1,H14,Beach 105 St,-73.827559,40.583209,5779.066782657025
12:08:00,1,H15,Rockaway Park-Beach 116 St,-73.835592,40.580903,5883.266782657025
13:52:00,1,J12,121 St,-73.828294,40.700492,4289.361415695178
13:52:00,1,J13,111 St,-73.836345,40.697418,4339.376570533741
13:52:00,1,J14,104 St,-73.84433,40.695178,4459.376570533741
13:52:00,1,J15,Woodhaven Blvd,-73.851576,40.693879,4549.376570533741
13:52:00,1,J16,85 St-Forest Pkwy,-73.86001,40.692435,4596.162968103083
13:52:00,1,J17,75 St-Elderts Ln,-73.867139,40.691324,4411.93182574318
13:52:00,1,J19,Cypress Hills,-73.87255,40.689941,4393.912968103083
13:52:00,1,J20,Crescent St,-73.873785,40.683194,4261.93182574318
12:40:00,1,J21,Norwood Av,-73.880039,40.68141,4171.93182574318
12:40:00,1,J22,Cleveland St,-73.884639,40.679947,4177.111346163
12:40:00,1,J23,Van Siclen Av,-73.891688,40.678024,4021.93182574318
12:24:00,2,J24,Alabama Av,-73.898654,40.676992,3961.93182574318
12:40:00,1,J27,Broadway Junction,-73.904512,40.679498,3858.613438473207
12:40:00,1,J28,Chauncey St,-73.910456,40.682893,3931.93182574318
12:40:00,1,J29,Halsey St,-73.916559,40.68637,4000.897512164253
12:40:00,1,J30,Gates Av,-73.92227,40.68963,3822.524414712495
12:40:00,1,J31,Kosciuszko St,-73.928814,40.693342,3826.657746082381
12:32:00,1,L01,8 Av,-74.002578,40.739777,2655.3045102812816
12:32:00,1,L02,6 Av,-73.996786,40.737335,2579.13567745581
12:32:00,1,L03,14 St-Union Sq,-73.99073,40.734789,2502.8375408098473
12:00:00,1,L05,3 Av,-73.986122,40.732849,2562.590496419766
12:00:00,1,L06,1 Av,-73.981628,40.730953,2608.226153646286
12:00:00,1,L08,Bedford Av,-73.956872,40.717304,2806.1380077496297
12:00:00,1,L10,Lorimer St,-73.950275,40.714063,2893.7473686704875
12:00:00,1,L11,Graham Av,-73.944053,40.714565,2928.511813114932
12:00:00,1,L12,Grand St,-73.94067,40.711926,3008.257036044868
12:00:00,1,L13,Montrose Av,-73.93985,40.707739,3044.279048623485
12:00:00,1,L14,Morgan Av,-73.933147,40.706152,3117.72438194229
12:00:00,1,L15,Jefferson St,-73.922913,40.706607,3201.6060387470243
12:00:00,1,L16,DeKalb Av,-73.918425,40.703811,3267.30784597594
12:00:00,1,L17,Myrtle-Wyckoff Avs,-73.911586,40.699814,3338.316909420049
12:00:00,1,L19,Halsey St,-73.904084,40.695602,3382.380882484022
12:00:00,1,L20,Wilson Av,-73.904046,40.688764,3499.35927754575
12:00:00,1,L21,Bushwick Av-Aberdeen St,-73.905249,40.682829,3583.6960831013057
12:00:00,1,L22,Broadway Junction,-73.90324,40.678856,3633.6134384732068
12:00:00,1,L24,Atlantic Av,-73.903097,40.675345,3741.690598967034
12:00:00,1,L25,Sutter Av,-73.901975,40.669367,3812.062906659342
12:00:00,1,L26,Livonia Av,-73.900571,40.664038,3869.771884987515
12:00:00,1,L27,New Lots Av,-73.899232,40.658733,3918.871884987515
12:00:00,1,L28,East 105 St,-73.899485,40.650573,4015.598300081854
14:00:00,1,L29,Canarsie-Rockaway Pkwy,-73.90185,40.646654,4140.662489271043
12:00:00,2,M01,Middle Village-Metropolitan Av,-73.889601,40.711396,3963.7684709809123
12:00:00,2,M04,Fresh Pond Rd,-73.895877,40.706186,3846.485452112988
12:00:00,2,M05,Forest Av,-73.903077,40.704423,3753.8991183778276
12:40:00,2,M06,Seneca Av,-73.90774,40.702762,3659.5348799672315
13:04:00,1,M08,Myrtle-Wyckoff Avs,-73.912385,40.69943,3563.316909420049
13:20:00,2,M09,Knickerbocker Av,-73.919711,40.698664,3658.5157398294054
13:04:00,1,M10,Central Av,-73.927397,40.697857,3769.503975123523
12:40:00,1,M11,Myrtle Av,-73.935657,40.697207,3655.357748045828
13:04:00,1,M12,Flushing Av,-73.941126,40.70026,3717.2748101361626
13:04:00,1,M13,Lorimer St,-73.947408,40.703869,3614.592567145508
13:04:00,1,M14,Hewes St,-73.953431,40.70687,3523.4999745529153
13:04:00,1,M16,Marcy Av,-73.957757,40.708359,3407.1910813791615
13:04:00,1,M18,Delancey St-Essex St,-73.987437,40.718315,3025.607748045828
12:00:00,1,M19,Bowery,-73.993915,40.72028,2948.5244147124945
12:00:00,1,M20,Canal St,-73.999892,40.718092,2846.0244147124945
12:56:00,1,M21,Chambers St,-74.003401,40.713243,2750.441081379161
12:00:00,1,M22,Fulton St,-74.007582,40.710374,2862.3577480458275
12:00:00,1,M23,Broad St,-74.011056,40.706476,2928.5244147124945
12:32:00,1,N02,8 Av,-74.011719,40.635064,4254.155916523838
12:32:00,1,N03,Fort Hamilton Pkwy,-74.005351,40.631386,4397.60100322904
12:32:00,1,N04,New Utrecht Av,-73.996353,40.624842,4533.89002057008
12:32:00,1,N05,18 Av,-73.990414,40.620671,4626.1616968706585
12:32:00,1,N06,20 Av,-73.985026,40.61741,4705.133526341467
12:32:00,1,N07,Bay Pkwy,-73.981848,40.611815,4795.133526341467
12:32:00,1,N08,Kings Hwy,-73.980353,40.603923,4910.958661995436
12:32:00,1,N09,Avenue U,-73.979137,40.597473,5003.685406181482
12:32:00,1,N10,86 St,-73.97823,40.592721,5075.133526341468
12:24:00,1,Q01,Canal St,-74.00046,40.718383,2777.1335263414667
13:54:00,1,Q03,72 St,-73.958424,40.768799,2258.417629041139
13:54:00,1,Q04,86 St,-73.951787,40.777891,2377.7200345394217
13:54:00,1,Q05,96 St,-73.947152,40.784318,2467.7509623744727
12:32:00,1,R01,Astoria-Ditmars Blvd,-73.912034,40.775036,2975.0919511900784
12:32:00,1,R03,Astoria Blvd,-73.917843,40.770258,2873.9137333682966
12:32:00,1,R04,30 Av,-73.921479,40.766779,2774.060400034963
12:32:00,1,R05,Broadway,-73.925508,40.76182,2677.5279325024953
12:32:00,1,R06,36 Av,-73.929575,40.756804,2571.1142838014093
12:32:00,1,R08,39 Av-Dutch Kills,-73.932755,40.752882,2458.447617134743
12:32:00,1,R09,Queensboro Plaza,-73.940202,40.750582,2255.330950468076
12:00:00,1,R11,Lexington Av/59 St,-73.967258,40.76266,1995.6600521781686
12:00:00,1,R13,5 Av/59 St,-73.973347,40.764811,2083.717903417838
12:00:00,1,R14,57 St-7 Av,-73.980658,40.764664,2209.013490150616
12:00:00,1,R15,49 St,-73.984139,40.759901,2322.3309504680765
12:00:00,1,R16,Times Sq-42 St,-73.986754,40.754672,2445.2528254680765
12:00:00,1,R17,34 St-Herald Sq,-73.98795,40.749567,2548.208145416277
12:00:00,1,R18,28 St,-73.988691,40.745494,2655.0191690383244
12:00:00,1,R19,23 St,-73.989344,40.741303,2605.4406712945183
12:16:00,1,R20,14 St-Union Sq,-73.990568,40.735736,2513.876501028277
12:08:00,1,R21,8 St-NYU,-73.992629,40.730328,2614.860876028277
12:08:00,1,R22,Prince St,-73.997702,40.724329,2700.548376028277
12:08:00,1,R23,Canal St,-74.001775,40.719527,2800.34682564068
12:16:00,1,R24,City Hall,-74.006978,40.713282,2945.839133332988
12:16:00,1,R25,Cortlandt St,-74.011029,40.710668,3060.2818814245907
12:16:00,1,R26,Rector St,-74.013342,40.70722,3160.373484478026
12:16:00,1,R27,Whitehall St-South Ferry,-74.012994,40.703087,3244.4568178113595
12:16:00,1,R28,Court St,-73.991777,40.6941,3316.5894341833955
13:04:00,1,R29,Jay St-MetroTech,-73.985942,40.69218,3324.84123386702
12:24:00,1,R30,DeKalb Av,-73.981824,40.690635,3251.2015891686915
12:32:00,1,R31,Atlantic Av-Barclays Ctr,-73.97881,40.683666,3409.7553754615496
12:24:00,1,R32,Union St,-73.98311,40.677316,3572.1086357402487
12:24:00,1,R33,4 Av-9 St,-73.988302,40.670847,3677.156254787868
12:24:00,1,R34,Prospect Av,-73.992872,40.665414,3784.006254787868
12:24:00,1,R35,25 St,-73.998091,40.660397,3879.7466342028083
12:32:00,1,R36,36 St,-74.003549,40.655144,3794.8235572797316
12:24:00,1,R39,45 St,-74.010006,40.648939,4004.8235572797316
13:52:00,1,R40,53 St,-74.014034,40.645069,4112.990058309277
12:32:00,1,R41,59 St,-74.017881,40.641362,4086.8800544548726
12:24:00,1,R42,Bay Ridge Av,-74.023377,40.634967,4247.690055751071
12:24:00,1,R43,77 St,-74.02551,40.629742,4327.962783023798
12:24:00,1,R44,86 St,-74.028398,40.622687,4504.313973499989
12:24:00,1,R45,Bay Ridge-95 St,-74.030876,40.616622,4581.329721531485
12:32:00,1,S01,Franklin Av,-73.955827,40.680596,3811.4330252902946
12:32:00,1,S03,Park Pl,-73.957624,40.674772,3934.308025290295
12:16:00,1,S04,Botanic Garden,-73.959245,40.670343,3840.900958273858
