start_time,ntransfers,stop_id,stop_name,stop_lon,stop_lat,duration
12:03:30,3,101,Van Cortlandt Park-242 St,-73.898583,40.889248,3758.639322467848
12:03:30,3,103,238 St,-73.90087,40.884667,3653.853032145267
12:03:30,3,104,231 St,-73.904834,40.878856,3561.2545765468117
12:03:30,3,106,Marble Hill-225 St,-73.909831,40.874561,3473.407300493657
12:03:30,3,107,215 St,-73.915279,40.869444,3383.7896318973653
12:03:30,3,108,207 St,-73.918822,40.864621,3294.8915639779207
12:03:30,3,109,Dyckman St,-73.925536,40.860531,3194.578788647524
12:03:30,3,110,191 St,-73.929412,40.855225,3110.7339610613176
12:03:30,3,111,181 St,-73.933596,40.849505,3019.7039181428627
12:11:30,0,112,168 St-Washington Hts,-73.940133,40.840556,2900.5022014046654
12:11:30,0,113,157 St,-73.94489,40.834041,2999.8211669219068
12:11:30,0,114,145 St,-73.95036,40.826551,3117.074385806027
12:11:30,0,115,137 St-City College,-73.953676,40.822008,3213.6506220904166
12:11:30,0,116,125 St,-73.958372,40.815581,3134.6110651378203
12:11:30,0,117,116 St-Columbia University,-73.96411,40.807722,3010.235152729061
12:11:30,0,118,Cathedral Pkwy (110 St),-73.966847,40.803967,2944.9606429251394
12:11:30,0,119,103 St,-73.968379,40.799446,2863.238420702917
12:03:30,0,120,96 St,-73.972323,40.793919,2483.5273112938544
12:11:30,0,121,86 St,-73.976218,40.788644,2614.488838017404
12:11:30,0,122,79 St,-73.979917,40.783934,2692.5620087491116
12:03:30,2,123,72 St,-73.98197,40.778453,2591.343960707612
12:03:30,2,124,66 St-Lincoln Center,-73.982209,40.77344,2668.4650408745733
12:03:30,2,125,59 St-Columbus Circle,-73.981929,40.768247,2591.116726267832
12:03:30,2,126,50 St,-73.983849,40.761728,2487.447553335501
12:03:30,2,127,Times Sq-42 St,-73.987495,40.75529,2355.256672368239
12:03:30,2,128,34 St-Penn Station,-73.991057,40.750373,2452.1833739389194
12:03:30,2,129,28 St,-73.993365,40.747215,2536.7959120523774
12:03:30,2,130,23 St,-73.995657,40.744081,2606.370209241132
12:03:30,2,131,18 St,-73.997871,40.74104,2671.641775652163
12:03:30,2,132,14 St,-74.000201,40.737826,2597.05490306529
12:03:30,2,133,Christopher St-Sheridan Sq,-74.002906,40.733422,2687.7771252875127
12:03:30,2,134,Houston St,-74.005367,40.728251,2773.6580776684646
12:03:30,2,135,Canal St,-74.006277,40.722854,2868.5189321758708
12:03:30,2,136,Franklin St,-74.006886,40.719318,2932.688748982772
12:03:30,2,137,Chambers St,-74.009266,40.715478,2871.041916052303
12:03:30,1,138,WTC Cortlandt,-74.012188,40.711835,3082.6015513506827
12:03:30,1,139,Rector St,-74.013783,40.707513,3159.1116728081724
12:03:30,1,142,South Ferry,-74.013664,40.702068,3262.202581899082
12:11:30,0,201,Wakefield-241 St,-73.85062,40.903125,3657.425456826479
12:11:30,0,204,Nereid Av,-73.854376,40.898379,3360.409643464515
12:11:30,0,205,233 St,-73.857473,40.893193,3270.409643464515
12:11:30,0,206,225 St,-73.860341,40.888022,3180.409643464515
12:11:30,0,207,219 St,-73.862633,40.883895,3090.409643464515
12:11:30,0,208,Gun Hill Rd,-73.866256,40.87785,2985.409643464515
12:11:30,0,209,Burke Av,-73.867164,40.871356,2958.728617481984
12:11:30,0,210,Allerton Av,-73.867352,40.865462,2866.5981826993757
12:11:30,0,211,Pelham Pkwy,-73.867615,40.857192,2762.250356612419
12:11:30,0,212,Bronx Park East,-73.868457,40.848828,2637.424269655897
12:11:30,0,213,E 180 St,-73.873488,40.841894,2427.11992182981
12:11:30,0,214,West Farms Sq-E Tremont Av,-73.880049,40.840295,2389.6300486985656
12:11:30,0,215,174 St,-73.887734,40.837288,2261.689569647344
12:11:30,0,216,Freeman St,-73.891865,40.829993,2141.851962809737
12:11:30,0,217,Simpson St,-73.893064,40.824073,2031.470606877534
12:03:30,0,218,Intervale Av,-73.896736,40.822181,1958.5468780639749
12:03:30,0,219,Prospect Av,-73.90177,40.819585,1872.6655221317715
12:11:30,0,220,Jackson Av,-73.907807,40.81649,1780.6066986023598
12:03:30,0,221,3 Av-149 St,-73.917757,40.816109,1649.0029627654826
12:03:30,0,222,149 St-Grand Concourse,-73.926718,40.81841,1523.5059567774586
12:03:30,0,224,135 St,-73.94077,40.814229,1955.089580815175
12:03:30,0,225,125 St,-73.945495,40.807754,2059.772594312722
12:03:30,0,226,116 St,-73.949625,40.802098,2158.2301414825333
12:03:30,0,227,Central Park North (110 St),-73.951822,40.799075,2232.2301414825333
12:03:30,2,228,Park Place,-74.008811,40.713051,2916.427105440366
12:03:30,2,229,Fulton St,-74.006571,40.709416,2808.8302468016227
12:03:30,1,230,Wall St,-74.0091,40.706821,2881.9401944456017
12:03:30,1,231,Clark St,-73.993086,40.697466,3065.6490716415
12:03:30,1,232,Borough Hall,-73.989998,40.693219,3177.945367937796
12:03:30,1,233,Hoyt St,-73.985065,40.690545,3168.111766655032
12:03:30,0,234,Nevins St,-73.980492,40.688246,3028.6966065309134
12:03:30,0,235,Atlantic Av-Barclays Ctr,-73.977666,40.684359,3124.351151985459
12:03:30,0,236,Bergen St,-73.975098,40.680829,3228.7148539304203
12:03:30,0,237,Grand Army Plaza,-73.971046,40.675235,3340.342591156698
12:03:30,0,238,Eastern Pkwy-Brooklyn Museum,-73.964375,40.671987,3445.6126641493984
12:03:30,0,239,Franklin Av-Medgar Evers College,-73.958131,40.670682,3403.8736745079814
12:03:30,0,241,President St-Medgar Evers College,-73.950683,40.667883,3575.1813668156738
12:03:30,0,242,Sterling St,-73.95085,40.662742,3665.6525206618276
12:03:30,0,243,Winthrop St,-73.9502,40.656652,3750.8049016142086
12:03:30,0,244,Church Av,-73.949575,40.650843,3832.657174341481
12:03:30,0,245,Beverly Rd,-73.948959,40.645098,3914.091136605632
12:03:30,0,246,Newkirk Av-Little Haiti,-73.948411,40.639967,4000.0911366056325
12:03:30,0,247,Flatbush Av-Brooklyn College,-73.947642,40.632836,4117.427978710895
12:03:30,0,248,Nostrand Av,-73.950466,40.669847,3563.3736745079814
12:03:30,0,249,Kingston Av,-73.942161,40.669399,3659.3736745079814
12:03:30,0,250,Crown Hts-Utica Av,-73.932942,40.668897,3659.7486745079814
12:03:30,0,251,Sutter Av-Rutland Rd,-73.92261,40.664717,3784.9986745079814
12:03:30,0,252,Saratoga Av,-73.916327,40.661453,3896.998674507981
12:03:30,2,253,Rockaway Av,-73.908946,40.662549,3984.7486745079814
12:03:30,0,254,Junius St,-73.902447,40.663515,4007.6911105969953
12:03:30,0,255,Pennsylvania Av,-73.894895,40.664635,4104.906796871505
12:03:30,0,256,Van Siclen Av,-73.889395,40.665449,4179.4166007930735
12:03:30,0,257,New Lots Av,-73.884079,40.666235,4250.191110596995
12:03:30,0,301,Harlem-148 St,-73.93647,40.82388,2382.9787913414907
12:03:30,0,302,145 St,-73.936245,40.820421,2268.594580815175
12:03:30,0,401,Woodlawn,-73.878751,40.886037,2755.922578652318
12:03:30,0,402,Mosholu Pkwy,-73.884655,40.87975,2634.3498914276483
12:03:30,0,405,Bedford Park Blvd-Lehman College,-73.890064,40.873412,2496.707650048338
12:03:30,0,406,Kingsbridge Rd,-73.897174,40.86776,2385.218379662072
12:03:30,0,407,Fordham Rd,-73.901034,40.862803,2300.706084580105
12:03:30,0,408,183 St,-73.903879,40.858407,2220.8979213147986
12:03:30,0,409,Burnside Av,-73.907684,40.853453,2125.499581065836
12:03:30,0,410,176 St,-73.911794,40.84848,2037.0141038874128
12:03:30,0,411,Mt Eden Av,-73.914685,40.844434,1959.3033600857598
12:03:30,0,412,170 St,-73.917791,40.840075,1879.7620377717103
12:03:30,0,413,167 St,-73.9214,40.835537,1791.8533240787642
12:03:30,0,414,161 St-Yankee Stadium,-73.925831,40.827994,1683.8575081791828
12:03:30,0,415,149 St-Grand Concourse,-73.927351,40.818375,1475.3386797272997
12:03:30,0,416,138 St-Grand Concourse,-73.929849,40.813224,1351.6684094570296
12:03:30,0,418,Fulton St,-74.009509,40.710368,2465.8992134287437
12:03:30,0,419,Wall St,-74.011862,40.707557,2545.2881023176324
12:03:30,0,420,Bowling Green,-74.014065,40.704817,2620.3777574900464
12:03:30,0,423,Borough Hall,-73.990151,40.692404,2888.451151985459
12:11:30,0,501,Eastchester-Dyre Av,-73.830834,40.8883,3202.7199621588125
12:11:30,0,502,Baychester Av,-73.838591,40.878663,3063.3186826810734
12:11:30,0,503,Gun Hill Rd,-73.846384,40.869526,2913.3186826810734
12:11:30,0,504,Pelham Pkwy,-73.855359,40.858985,2756.2298119397005
12:11:30,0,505,Morris Park,-73.860495,40.854364,2668.5484932583818
12:06:00,0,601,Pelham Bay Park,-73.828121,40.852462,455.95531914893616
12:06:00,0,602,Buhre Av,-73.832569,40.84681,327.02645502645504
12:06:00,0,603,Middletown Rd,-73.836322,40.843863,254.91534391534395
12:06:00,0,604,Westchester Sq-E Tremont Av,-73.842952,40.839892,146.30851063829786
12:06:00,0,606,Zerega Av,-73.847036,40.836488,63.80952380952381
12:19:30,0,607,Castle Hill Av,-73.851222,40.834255,0.0
12:24:00,0,608,Parkchester,-73.860816,40.833226,99.84117647058824
12:24:00,0,609,St Lawrence Av,-73.867618,40.831509,194.3351523742027
12:24:00,0,610,Morrison Av-Soundview,-73.874516,40.829521,279.40288145786803
12:24:00,0,611,Elder Av,-73.879159,40.828584,344.566881457868
12:24:00,0,612,Whitlock Av,-73.886283,40.826525,450.906881457868
12:03:30,0,613,Hunts Point Av,-73.890549,40.820948,412.38461538461536
12:24:00,0,614,Longwood Av,-73.896435,40.816104,618.3343821210794
12:24:00,0,615,E 149 St,-73.904098,40.812118,714.0071093938067
12:24:00,0,616,E 143 St-St Mary's St,-73.907657,40.808719,788.6099974804494
12:24:00,0,617,Cypress Av,-73.914042,40.805368,905.1731743757562
12:24:00,0,618,Brook Av,-73.91924,40.807566,930.7214939959525
12:03:30,0,619,3 Av-138 St,-73.926138,40.810476,791.4615384615385
12:03:30,0,621,125 St,-73.937594,40.804138,986.1758241758242
12:03:30,0,622,116 St,-73.941617,40.798629,1083.1043956043957
12:03:30,0,623,110 St,-73.94425,40.79502,1163.5329670329672
12:03:30,0,624,103 St,-73.947478,40.7906,1244.6758241758241
12:03:30,0,625,96 St,-73.95107,40.785672,1339.4615384615386
12:03:30,0,626,86 St,-73.955589,40.779492,1437.247252747253
12:03:30,0,627,77 St,-73.959874,40.77362,1542.8472527472532
12:03:30,0,628,68 St-Hunter College,-73.96387,40.768141,1631.5139194139197
12:03:30,0,629,59 St,-73.967967,40.762526,1684.7439967978507
12:03:30,0,630,51 St,-73.97192,40.757107,1829.1139194139196
12:03:30,0,631,Grand Central-42 St,-73.976848,40.751776,1860.2675576236725
12:03:30,0,632,33 St,-73.982076,40.746081,2084.1764194139196
12:03:30,0,633,28 St,-73.984264,40.74307,2152.9264194139196
12:03:30,0,634,23 St,-73.986599,40.739864,2216.8014194139196
12:03:30,0,635,14 St-Union Sq,-73.989951,40.734673,2096.795726637757
12:03:30,0,636,Astor Pl,-73.99107,40.730054,2395.9435915939735
12:03:30,0,637,Bleecker St,-73.994659,40.725915,2486.6603151434615
12:03:30,0,638,Spring St,-73.997141,40.722301,2555.809975007407
12:03:30,0,639,Canal St,-74.000193,40.718803,2620.2522463085625
12:03:30,0,640,Brooklyn Bridge-City Hall,-74.004131,40.713065,2356.697824539855
12:03:30,2,701,Flushing-Main St,-73.83003,40.7596,3366.214883594802
12:03:30,2,702,Mets-Willets Point,-73.845625,40.754622,3156.83433130157
12:03:30,2,705,111 St,-73.855334,40.75173,3173.650815970099
12:03:30,2,706,103 St-Corona Plaza,-73.8627,40.749865,3080.024807492046
12:03:30,2,707,Junction Blvd,-73.869527,40.749145,2909.6914741587125
12:03:30,2,708,90 St-Elmhurst Av,-73.876613,40.748408,3009.417816013602
12:03:30,2,709,82 St-Jackson Hts,-73.883697,40.747659,2930.0375343234614
12:03:30,1,710,74 St-Broadway,-73.891394,40.746848,2787.7892350037337
12:11:30,2,711,69 St,-73.896403,40.746325,2740.3774702978512
12:03:30,1,712,61 St-Woodside,-73.902984,40.74563,2668.469019593626
12:03:30,1,713,52 St,-73.912549,40.744149,2541.818349604791
12:03:30,1,714,46 St-Bliss St,-73.918435,40.743132,2488.124756290028
12:03:30,1,715,40 St-Lowery St,-73.924016,40.743781,2436.754282752423
12:03:30,1,716,33 St-Rawson St,-73.930997,40.744587,2368.4740279753532
12:03:30,1,718,Queensboro Plaza,-73.940202,40.750582,2225.999167640158
12:03:30,1,719,Court Sq,-73.945264,40.747023,2319.6914741587125
12:03:30,1,720,Hunters Point Av,-73.948916,40.742216,2323.1243648960103
12:03:30,1,721,Vernon Blvd-Jackson Av,-73.953581,40.742626,2295.12436489601
12:19:30,1,723,Grand Central-42 St,-73.976041,40.751431,2092.12436489601
12:19:30,1,724,5 Av,-73.981963,40.753821,2189.7955825419276
12:19:30,1,725,Times Sq-42 St,-73.987691,40.755477,2274.095582541928
12:19:30,1,726,34 St-Hudson Yards,-74.00191,40.755882,2453.414304622762
12:19:30,1,901,Grand Central-42 St,-73.979189,40.752769,2047.12436489601
12:19:30,1,902,Times Sq-42 St,-73.986229,40.755983,2141.56436489601
12:32:00,1,A02,Inwood-207 St,-73.919899,40.868072,3227.6810174912966
12:03:30,2,A03,Dyckman St,-73.927271,40.865491,3137.608024790567
12:03:30,2,A05,190 St,-73.93418,40.859022,3014.0156334862195
12:03:30,2,A06,181 St,-73.937969,40.851695,2900.780339368572
12:03:30,2,A07,175 St,-73.939704,40.847391,2804.059909261045
12:03:30,2,A09,168 St,-73.939561,40.840719,2675.013070192431
12:03:30,2,A10,163 St-Amsterdam Av,-73.939892,40.836013,2575.9836584277255
12:03:30,2,A11,155 St,-73.941514,40.830518,2494.150325094392
12:03:30,2,A12,145 St,-73.944216,40.824783,2341.885059161073
12:03:30,1,A14,135 St,-73.947649,40.817894,2251.9635871862847
12:03:30,1,A15,125 St,-73.952343,40.811109,2348.9737317647314
12:03:30,1,A16,116 St,-73.954882,40.805085,2472.8093139954335
12:03:30,1,A17,Cathedral Pkwy (110 St),-73.958161,40.800603,2557.4844473246408
12:11:30,1,A18,103 St,-73.961454,40.796092,2641.958074326012
12:11:30,1,A19,96 St,-73.964696,40.791642,2726.4662710473235
12:11:30,1,A20,86 St,-73.968916,40.785868,2826.0943702208774
12:11:30,1,A21,81 St-Museum of Natural History,-73.972143,40.781433,2818.6540624150757
12:11:30,1,A22,72 St,-73.97641,40.775594,2729.774062415076
12:11:30,1,A24,59 St-Columbus Circle,-73.981736,40.768296,2572.2257498520953
13:20:00,1,A25,50 St,-73.985984,40.762456,2348.4798912133424
13:12:00,1,A27,42 St-Port Authority Bus Terminal,-73.989735,40.757308,2410.2203444466895
12:19:30,2,A28,34 St-Penn Station,-73.993391,40.752287,2506.510667027335
12:03:30,2,A30,23 St,-73.998041,40.745906,2606.6326632872697
12:03:30,2,A31,14 St,-74.00169,40.740893,2648.6612046617433
12:03:30,2,A32,W 4 St-Wash Sq,-74.000495,40.732338,2773.063378574787
12:03:30,2,A33,Spring St,-74.003739,40.726227,2890.5115184567744
12:03:30,2,A34,Canal St,-74.005229,40.720824,2906.5958941977046
14:00:00,1,A36,Chambers St,-74.008585,40.714111,2786.269807241183
12:11:30,1,A38,Fulton St,-74.007691,40.710197,2688.8302468016227
12:11:30,1,A40,High St,-73.990531,40.699337,2872.404159845101
12:11:30,1,A41,Jay St-MetroTech,-73.987342,40.692338,2996.89111636684
12:11:30,1,A42,Hoyt-Schermerhorn Sts,-73.985001,40.688484,3112.857218061755
13:28:00,1,A43,Lafayette Av,-73.973946,40.686113,3268.085426959147
13:28:00,1,A44,Clinton-Washington Avs,-73.965838,40.683263,3352.3782264651163
12:11:30,1,A45,Franklin Av,-73.956848,40.68138,3451.895175617659
12:11:30,1,A46,Nostrand Av,-73.950426,40.680438,3439.1259677710786
12:11:30,1,A47,Kingston-Throop Avs,-73.940858,40.679921,3539.480134437745
12:11:30,1,A48,Utica Av,-73.930729,40.679364,3609.94619249018
12:11:30,1,A49,Ralph Av,-73.920786,40.678822,3720.6635837945278
12:11:30,1,A50,Rockaway Av,-73.911946,40.67834,3763.949412008398
12:11:30,1,A51,Broadway Junction,-73.905316,40.678334,3679.8510513526608
12:11:30,1,A52,Liberty Av,-73.896548,40.674542,3813.8104009461567
12:11:30,1,A53,Van Siclen Av,-73.890358,40.67271,3908.9892627347745
12:11:30,1,A54,Shepherd Av,-73.88075,40.67413,4013.0624334664817
12:11:30,1,A55,Euclid Av,-73.872106,40.675377,3980.1626792596376
12:11:30,1,A57,Grant Av,-73.86505,40.677044,4102.345251873746
12:11:30,1,A59,80 St,-73.858992,40.679371,4199.697251873746
12:11:30,1,A60,88 St,-73.85147,40.679843,4295.657411236296
12:11:30,1,A61,Rockaway Blvd,-73.843853,40.680429,4386.002649331534
12:19:30,1,A63,104 St,-73.837683,40.681711,4469.674649331534
13:52:00,1,A64,111 St,-73.832163,40.684331,4555.805796872517
13:52:00,1,A65,Ozone Park-Lefferts Blvd,-73.825798,40.685951,4644.869088011757
12:19:30,1,B04,21 St-Queensbridge,-73.942836,40.754203,2291.6337246720327
12:19:30,1,B06,Roosevelt Island,-73.95326,40.759145,2145.01303501686
12:03:30,1,B08,Lexington Av/63 St,-73.966113,40.764629,2059.863302304523
12:19:30,1,B10,57 St,-73.97745,40.763972,2224.863302304523
12:03:30,1,B12,9 Av,-73.994324,40.646292,4049.737629419028
12:03:30,1,B13,Fort Hamilton Pkwy,-73.994304,40.640914,4150.840193521592
12:03:30,1,B14,50 St,-73.994791,40.63626,4229.865671228597
12:03:30,1,B15,55 St,-73.995476,40.631435,4329.623633012037
12:03:30,1,B16,62 St,-73.996895,40.626472,4395.595660984065
12:03:30,1,B17,71 St,-73.998864,40.619589,4498.086106843938
12:03:30,1,B18,79 St,-74.00061,40.613501,4604.646616398079
12:03:30,1,B19,18 Av,-74.001736,40.607954,4686.240164785175
12:03:30,1,B20,20 Av,-73.998168,40.604556,4768.233671278681
12:03:30,1,B21,Bay Pkwy,-73.993728,40.601875,4845.779125824136
12:03:30,1,B22,25 Av,-73.986829,40.597704,4964.888803243491
12:03:30,1,B23,Bay 50 St,-73.983765,40.588841,5163.460231814919
12:03:30,1,D01,Norwood-205 St,-73.878855,40.874811,2899.4699558430443
12:03:30,1,D03,Bedford Park Blvd,-73.887138,40.873244,2727.983469356558
12:03:30,1,D04,Kingsbridge Rd,-73.893509,40.866978,2610.8272193565576
12:03:30,1,D05,Fordham Rd,-73.897749,40.861296,2516.2957508250893
12:03:30,1,D06,182-183 Sts,-73.900741,40.856093,2429.361844023926
12:03:30,1,D07,Tremont Av,-73.905227,40.85041,2351.2467997761387
12:03:30,1,D08,174-175 Sts,-73.910136,40.8459,2256.9536963278624
12:03:30,1,D09,170 St,-73.9134,40.839306,2148.3212212760322
12:03:30,1,D10,167 St,-73.91844,40.833771,2040.89697885179
13:28:00,1,D11,161 St-Yankee Stadium,-73.925651,40.827905,1908.8575081791828
12:03:30,1,D12,155 St,-73.938209,40.830135,2033.585903240911
12:03:30,1,D13,145 St,-73.944216,40.824783,2144.801952623627
12:11:30,1,D14,7 Av,-73.981637,40.762862,2254.489325175606
12:03:30,1,D15,47-50 Sts-Rockefeller Ctr,-73.981329,40.758663,2314.863302304523
12:03:30,1,D16,42 St-Bryant Pk,-73.984569,40.754222,2404.863302304523
12:03:30,1,D17,34 St-Herald Sq,-73.987823,40.749719,2491.5712834765072
12:03:30,1,D18,23 St,-73.992821,40.742878,2602.3130675140656
12:03:30,1,D19,14 St,-73.996209,40.738228,2612.05490306529
12:19:30,1,D20,W 4 St-Wash Sq,-74.000495,40.732338,2673.582427071832
12:19:30,1,D21,Broadway-Lafayette St,-73.996204,40.725297,2698.8888875120833
12:11:30,1,D22,Grand St,-73.993753,40.718267,2827.3006522179658
12:24:00,1,D24,Atlantic Av-Barclays Ctr,-73.97689,40.68446,3328.383635414243
12:19:30,1,D25,7 Av,-73.972367,40.67705,3458.844775310616
12:19:30,1,D26,Prospect Park,-73.962246,40.661614,3639.9846716836732
12:24:00,1,D27,Parkside Av,-73.961495,40.655292,3721.865500699217
12:19:30,1,D28,Church Av,-73.962982,40.650527,3819.6089561965996
12:24:00,1,D29,Beverley Rd,-73.964492,40.644031,3924.984190229249
12:24:00,1,D30,Cortelyou Rd,-73.963891,40.640927,4003.1797209555057
12:19:30,1,D31,Newkirk Plaza,-73.962793,40.635082,4002.1168140275568
12:24:00,1,D32,Avenue H,-73.961639,40.62927,4118.9399205045365
12:24:00,1,D33,Avenue J,-73.960803,40.625039,4206.260562438099
12:24:00,1,D34,Avenue M,-73.959399,40.617618,4310.378511156048
12:19:30,1,D35,Kings Hwy,-73.957734,40.60867,4250.272369583113
12:19:30,1,D37,Avenue U,-73.955929,40.5993,4463.7417573382145
12:19:30,1,D38,Neck Rd,-73.955161,40.595246,4563.277839812442
12:19:30,1,D39,Sheepshead Bay,-73.954155,40.586896,4486.63903624978
12:19:30,1,D40,Brighton Beach,-73.961376,40.577621,4623.180702916446
12:19:30,1,D41,Ocean Pkwy,-73.968501,40.576312,4756.19169557499
12:19:30,1,D42,W 8 St-NY Aquarium,-73.975939,40.576127,4870.643308478216
12:19:30,1,D43,Coney Island-Stillwell Av,-73.981233,40.577422,4950.598864033771
12:03:30,2,E01,World Trade Center,-74.009781,40.712582,3091.0318304544526
12:19:30,1,F01,Jamaica-179 St,-73.783817,40.712646,3796.4289409459598
12:11:30,1,F02,169 St,-73.793604,40.71047,3718.707641927165
12:11:30,1,F03,Parsons Blvd,-73.803326,40.707564,3628.707641927165
12:11:30,1,F04,Sutphin Blvd,-73.810708,40.70546,3604.863302304523
12:11:30,1,F05,Briarwood,-73.820574,40.709179,3484.863302304523
12:11:30,1,F06,Kew Gardens-Union Tpke,-73.831008,40.714441,3364.863302304523
12:11:30,1,F07,75 Av,-73.837324,40.718331,3229.939934955672
12:11:30,1,F09,Court Sq-23 St,-73.946,40.747846,2260.0230103230106
12:11:30,1,F11,Lexington Av/53 St,-73.969055,40.757552,2058.0612870820714
12:03:30,1,F12,5 Av/53 St,-73.975224,40.760167,2150.7452493462224
13:44:00,1,F14,2 Av,-73.989938,40.723402,2796.317458940655
13:44:00,1,F15,Delancey St-Essex St,-73.988114,40.718611,2893.159295675349
13:44:00,1,F16,East Broadway,-73.990173,40.713715,2981.331884507836
12:11:30,1,F18,York St,-73.986751,40.701397,3132.529854050983
12:11:30,1,F20,Bergen St,-73.990862,40.686145,3267.3873651747467
12:11:30,1,F21,Carroll St,-73.995048,40.680303,3375.9747287335013
12:11:30,1,F22,Smith-9 Sts,-73.995959,40.67358,3518.388190271963
12:11:30,1,F23,4 Av-9 St,-73.989779,40.670272,3601.8538765464727
12:11:30,1,F24,7 Av,-73.980305,40.666271,3551.89111636684
12:11:30,1,F25,15 St-Prospect Park,-73.979493,40.660365,3719.800699771169
12:11:30,1,F26,Fort Hamilton Pkwy,-73.975776,40.650782,3881.4599176482634
12:11:30,1,F27,Church Av,-73.979678,40.644041,3791.89111636684
12:11:30,1,F29,Ditmas Av,-73.978172,40.636119,3911.89111636684
12:11:30,1,F30,18 Av,-73.976971,40.629755,4031.89111636684
12:11:30,1,F31,Avenue I,-73.976127,40.625322,4091.89111636684
12:11:30,1,F32,Bay Pkwy,-73.975264,40.620769,4151.89111636684
12:11:30,1,F33,Avenue N,-73.974197,40.61514,4271.89111636684
12:11:30,1,F34,Avenue P,-73.973022,40.608944,4361.89111636684
12:11:30,1,F35,Kings Hwy,-73.972361,40.603217,4535.553238354631
12:11:30,1,F36,Avenue U,-73.973357,40.596063,4644.154302184418
12:11:30,1,F38,Avenue X,-73.97425,40.58962,4737.357510740568
12:56:00,1,F39,Neptune Av,-73.974574,40.581011,4851.829420852927
12:11:30,1,G05,Jamaica Center-Parsons/Archer,-73.801109,40.702147,3860.1012616815397
12:11:30,1,G06,Sutphin Blvd-Archer Av-JFK Airport,-73.807969,40.700486,3768.816345480423
12:11:30,1,G07,Jamaica-Van Wyck,-73.816859,40.702566,3649.4644936285713
12:11:30,1,G08,Forest Hills-71 Av,-73.844521,40.721691,3130.435262058476
12:11:30,1,G09,67 Av,-73.852719,40.726523,3265.7656968410843
12:11:30,1,G10,63 Dr-Rego Park,-73.861604,40.729846,3324.7606761971474
12:03:30,1,G11,Woodhaven Blvd,-73.869229,40.733106,3228.4834106601074
12:03:30,1,G12,Grand Av-Newtown,-73.877223,40.737015,3105.6084106601074
12:03:30,1,G13,Elmhurst Av,-73.882017,40.742454,3006.0741640847655
12:11:30,1,G14,Jackson Hts-Roosevelt Av,-73.891338,40.746644,2687.5031466925743
12:11:30,1,G15,65 St,-73.898453,40.749669,2874.592401273148
12:11:30,1,G16,Northern Blvd,-73.906006,40.752885,2782.3188969996436
12:11:30,1,G18,46 St,-73.913333,40.756312,2690.865905546652
12:11:30,1,G19,Steinway St,-73.92074,40.756879,2592.958342521442
12:11:30,1,G20,36 St,-73.928781,40.752039,2471.383342521442
12:11:30,1,G21,Queens Plaza,-73.937243,40.748973,2324.9117647658272
12:03:30,2,G22,Court Sq,-73.943832,40.746554,2458.3301550066
12:24:00,2,G24,21 St,-73.949724,40.744065,2547.6431321058367
12:24:00,2,G26,Greenpoint Av,-73.954449,40.731352,2689.0395818099787
12:24:00,2,G28,Nassau Av,-73.951277,40.724635,2795.959122039864
12:24:00,2,G29,Metropolitan Av,-73.951418,40.712792,2915.131699911525
12:24:00,2,G30,Broadway,-73.950308,40.706092,3015.7132216506557
12:24:00,2,G31,Flushing Av,-73.950234,40.700377,3102.1078162452504
12:24:00,2,G32,Myrtle-Willoughby Avs,-73.949046,40.694568,3183.8321405695747
12:03:30,2,G33,Bedford-Nostrand Avs,-73.953522,40.689627,3295.7622480964565
13:28:00,1,G34,Classon Av,-73.96007,40.688873,3377.6373413998654
13:28:00,1,G35,Clinton-Washington Avs,-73.966839,40.688089,3458.730237574729
13:28:00,1,G36,Fulton St,-73.975375,40.687119,3455.1349174833686
12:11:30,1,H01,Aqueduct Racetrack,-73.834058,40.668234,4592.03439536328
12:11:30,1,H02,Aqueduct-N Conduit Av,-73.834058,40.668234,4665.103448302855
12:11:30,1,H03,Howard Beach-JFK Airport,-73.830301,40.660476,4763.223284252169
12:11:30,1,H04,Broad Channel,-73.815925,40.608382,5181.174897155395
12:11:30,1,H06,Beach 67 St,-73.796924,40.590927,5492.464370839605
12:11:30,1,H07,Beach 60 St,-73.788522,40.592374,5595.911739260658
12:11:30,1,H08,Beach 44 St,-73.776013,40.592943,5699.394195401009
12:11:30,1,H09,Beach 36 St,-73.768175,40.595398,5796.639809436097
12:11:30,1,H10,Beach 25 St,-73.761353,40.600066,5897.020340409547
12:11:30,1,H11,Far Rockaway-Mott Av,-73.755405,40.603995,5996.187007076214
12:11:30,1,H12,Beach 90 St,-73.813641,40.588034,5432.4748971553945
12:11:30,1,H13,Beach 98 St,-73.820558,40.585307,5510.874897155395
12:11:30,1,H14,Beach 105 St,-73.827559,40.583209,5586.986008266506
12:11:30,1,H15,Rockaway Park-Beach 116 St,-73.835592,40.580903,5691.186008266506
12:03:30,1,J12,121 St,-73.828294,40.700492,4167.316345480423
12:03:30,1,J13,111 St,-73.836345,40.697418,4217.331500318985
12:03:30,1,J14,104 St,-73.84433,40.695178,4337.331500318985
12:03:30,1,J15,Woodhaven Blvd,-73.851576,40.693879,4399.851051352661
12:03:30,1,J16,85 St-Forest Pkwy,-73.86001,40.692435,4404.082193712563
12:03:30,1,J17,75 St-Elderts Ln,-73.867139,40.691324,4219.851051352661
12:03:30,1,J19,Cypress Hills,-73.87255,40.689941,4201.832193712563
12:03:30,1,J20,Crescent St,-73.873785,40.683194,4069.851051352661
12:03:30,1,J21,Norwood Av,-73.880039,40.68141,3979.851051352661
12:03:30,1,J22,Cleveland St,-73.884639,40.679947,3985.0305717724805
12:03:30,1,J23,Van Siclen Av,-73.891688,40.678024,3829.8510513526608
12:24:00,2,J24,Alabama Av,-73.898654,40.676992,3769.8510513526608
12:03:30,1,J27,Broadway Junction,-73.904512,40.679498,3666.532664082687
12:03:30,1,J28,Chauncey St,-73.910456,40.682893,3739.8510513526608
12:03:30,1,J29,Halsey St,-73.916559,40.68637,3832.154255324946
12:03:30,1,J30,Gates Av,-73.92227,40.68963,3653.781157873189
12:03:30,1,J31,Kosciuszko St,-73.928814,40.693342,3657.914489243075
12:19:30,1,L01,8 Av,-74.002578,40.739777,2513.6767740877244
12:19:30,1,L02,6 Av,-73.996786,40.737335,2387.05490306529
12:19:30,1,L03,14 St-Union Sq,-73.99073,40.734789,2310.7567664193275
12:03:30,1,L05,3 Av,-73.986122,40.732849,2387.9120459224328
12:03:30,1,L06,1 Av,-73.981628,40.730953,2416.1453792557663
12:03:30,1,L08,Bedford Av,-73.956872,40.717304,2614.05723335911
12:03:30,1,L10,Lorimer St,-73.950275,40.714063,2701.9174157299303
12:03:30,1,L11,Graham Av,-73.944053,40.714565,2739.2882363986237
12:03:30,1,L12,Grand St,-73.94067,40.711926,2819.810624458325
12:03:30,1,L13,Montrose Av,-73.93985,40.707739,2858.234112002809
12:03:30,1,L14,Morgan Av,-73.933147,40.706152,2925.6436075517704
12:03:30,1,L15,Jefferson St,-73.922913,40.706607,3009.5252643565045
12:03:30,1,L16,DeKalb Av,-73.918425,40.703811,3075.22707158542
12:03:30,1,L17,Myrtle-Wyckoff Avs,-73.911586,40.699814,3146.236135029529
12:03:30,1,L19,Halsey St,-73.904084,40.695602,3190.3001080935023
12:03:30,1,L20,Wilson Av,-73.904046,40.688764,3307.2785031552303
12:03:30,1,L21,Bushwick Av-Aberdeen St,-73.905249,40.682829,3391.615308710786
12:03:30,1,L22,Broadway Junction,-73.90324,40.678856,3441.532664082687
12:03:30,1,L24,Atlantic Av,-73.903097,40.675345,3549.6098245765143
12:03:30,1,L25,Sutter Av,-73.901975,40.669367,3619.982132268822
12:03:30,1,L26,Livonia Av,-73.900571,40.664038,3677.6911105969953
12:03:30,1,L27,New Lots Av,-73.899232,40.658733,3726.791110596995
12:03:30,1,L28,East 105 St,-73.899485,40.650573,3823.517525691335
12:03:30,1,L29,Canarsie-Rockaway Pkwy,-73.90185,40.646654,3948.581714880524
12:03:30,2,M01,Middle Village-Metropolitan Av,-73.889601,40.711396,3771.6876965903925
12:03:30,2,M04,Fresh Pond Rd,-73.895877,40.706186,3654.4046777224685
12:03:30,2,M05,Forest Av,-73.903077,40.704423,3561.818343987308
12:03:30,2,M06,Seneca Av,-73.90774,40.702762,3467.4541055767118
13:04:00,1,M08,Myrtle-Wyckoff Avs,-73.912385,40.69943,3371.236135029529
12:03:30,2,M09,Knickerbocker Av,-73.919711,40.698664,3466.4349654388857
12:03:30,2,M10,Central Av,-73.927397,40.697857,3577.4232007330033
12:03:30,1,M11,Myrtle Av,-73.935657,40.697207,3486.614491206522
12:03:30,1,M12,Flushing Av,-73.941126,40.70026,3525.194035745643
12:03:30,1,M13,Lorimer St,-73.947408,40.703869,3422.511792754988
12:03:30,1,M14,Hewes St,-73.953431,40.70687,3331.4192001623956
12:03:30,1,M16,Marcy Av,-73.957757,40.708359,3238.4478245398554
12:03:30,1,M18,Delancey St-Essex St,-73.987437,40.718315,2856.864491206522
12:03:30,1,M19,Bowery,-73.993915,40.72028,2779.7811578731885
12:03:30,1,M20,Canal St,-73.999892,40.718092,2677.2811578731885
12:19:30,1,M21,Chambers St,-74.003401,40.713243,2581.697824539855
12:03:30,1,M22,Fulton St,-74.007582,40.710374,2683.769285746314
12:03:30,1,M23,Broad St,-74.011056,40.706476,2750.464022588419
12:03:30,1,N02,8 Av,-74.011719,40.635064,4144.502838448953
12:03:30,1,N03,Fort Hamilton Pkwy,-74.005351,40.631386,4238.93076817578
12:03:30,1,N04,New Utrecht Av,-73.996353,40.624842,4378.93076817578
12:03:30,1,N05,18 Av,-73.990414,40.620671,4468.93076817578
12:03:30,1,N06,20 Av,-73.985026,40.61741,4538.93076817578
12:03:30,1,N07,Bay Pkwy,-73.981848,40.611815,4628.93076817578
12:03:30,1,N08,Kings Hwy,-73.980353,40.603923,4748.93076817578
12:03:30,1,N09,Avenue U,-73.979137,40.597473,4848.93076817578
12:03:30,1,N10,86 St,-73.97823,40.592721,4908.93076817578
12:03:30,1,Q01,Canal St,-74.00046,40.718383,2661.7961394412623
12:19:30,1,Q03,72 St,-73.958424,40.768799,2179.863302304523
12:19:30,1,Q04,86 St,-73.951787,40.777891,2311.832374469472
12:19:30,1,Q05,96 St,-73.947152,40.784318,2392.863302304523
12:03:30,1,R01,Astoria-Ditmars Blvd,-73.912034,40.775036,2856.5382415628583
12:03:30,1,R03,Astoria Blvd,-73.917843,40.770258,2755.3600237410765
12:03:30,1,R04,30 Av,-73.921479,40.766779,2655.506690407743
12:03:30,1,R05,Broadway,-73.925508,40.76182,2558.9742228752757
12:03:30,1,R06,36 Av,-73.929575,40.756804,2464.132117612118
12:03:30,1,R08,39 Av-Dutch Kills,-73.932755,40.752882,2358.8121176121176
12:03:30,1,R09,Queensboro Plaza,-73.940202,40.750582,2178.9991659712277
12:03:30,1,R11,Lexington Av/59 St,-73.967258,40.76266,1929.3778641960794
12:03:30,1,R13,5 Av/59 St,-73.973347,40.764811,2017.8302433478884
12:03:30,1,R14,57 St-7 Av,-73.980658,40.764664,2143.125830080666
12:03:30,1,R15,49 St,-73.984139,40.759901,2256.443290398127
12:03:30,1,R16,Times Sq-42 St,-73.986754,40.754672,2366.56436489601
12:03:30,1,R17,34 St-Herald Sq,-73.98795,40.749567,2460.616128907393
12:03:30,1,R18,28 St,-73.988691,40.745494,2502.772314678767
12:03:30,1,R19,23 St,-73.989344,40.741303,2421.5892160872177
12:19:30,1,R20,14 St-Union Sq,-73.990568,40.735736,2321.795726637757
12:11:30,1,R21,8 St-NYU,-73.992629,40.730328,2422.780101637757
12:11:30,1,R22,Prince St,-73.997702,40.724329,2508.467601637757
12:11:30,1,R23,Canal St,-74.001775,40.719527,2608.26605125016
12:19:30,1,R24,City Hall,-74.006978,40.713282,2753.758358942468
12:19:30,1,R25,Cortlandt St,-74.011029,40.710668,2868.201107034071
12:19:30,1,R26,Rector St,-74.013342,40.70722,2968.2927100875063
12:19:30,1,R27,Whitehall St-South Ferry,-74.012994,40.703087,3052.37604342084
12:19:30,1,R28,Court St,-73.991777,40.6941,3127.715858358674
12:11:30,1,R29,Jay St-MetroTech,-73.985942,40.69218,3131.89111636684
12:24:00,1,R30,DeKalb Av,-73.981824,40.690635,3159.346202259163
12:03:30,1,R31,Atlantic Av-Barclays Ctr,-73.97881,40.683666,3300.1022973866648
12:24:00,1,R32,Union St,-73.98311,40.677316,3418.9227546067395
12:24:00,1,R33,4 Av-9 St,-73.988302,40.670847,3523.970373654359
12:24:00,1,R34,Prospect Av,-73.992872,40.665414,3630.8203736543587
12:24:00,1,R35,25 St,-73.998091,40.660397,3754.3511519854587
12:03:30,1,R36,36 St,-74.003549,40.655144,3685.1704792048467
12:24:00,1,R39,45 St,-74.010006,40.648939,3870.579687379849
12:03:30,1,R40,53 St,-74.014034,40.645069,3959.804177175767
12:03:30,1,R41,59 St,-74.017881,40.641362,3977.2269763799877
12:24:00,1,R42,Bay Ridge Av,-74.023377,40.634967,4138.036977676185
12:24:00,1,R43,77 St,-74.02551,40.629742,4218.309704948913
12:24:00,1,R44,86 St,-74.028398,40.622687,4394.660895425104
12:24:00,1,R45,Bay Ridge-95 St,-74.030876,40.616622,4471.6766434566
12:03:30,1,S01,Franklin Av,-73.955827,40.680596,3631.895175617659
12:03:30,1,S03,Park Pl,-73.957624,40.674772,3754.7701756176584
12:19:30,1,S04,Botanic Garden,-73.959245,40.670343,3628.8736745079814
