start_time,ntransfers,stop_id,stop_name,stop_lon,stop_lat,duration
12:09:00,2,101,Van Cortlandt Park-242 St,-73.898583,40.889248,3327.438556986604
12:09:00,2,103,238 St,-73.90087,40.884667,3222.652266664023
12:09:00,2,104,231 St,-73.904834,40.878856,3130.053811065567
12:09:00,2,106,Marble Hill-225 St,-73.909831,40.874561,3042.206535012413
12:09:00,2,107,215 St,-73.915279,40.869444,2952.5888664161207
12:09:00,2,108,207 St,-73.918822,40.864621,2863.6907984966765
12:09:00,2,109,Dyckman St,-73.925536,40.860531,2763.37802316628
12:09:00,2,110,191 St,-73.929412,40.855225,2679.5331955800734
12:09:00,2,111,181 St,-73.933596,40.849505,2588.5031526616185
12:45:00,0,112,168 St-Washington Hts,-73.940133,40.840556,2469.301435923421
12:09:00,2,113,157 St,-73.94489,40.834041,2568.6204014406626
12:09:00,2,114,145 St,-73.95036,40.826551,2685.8736203247827
12:45:00,0,115,137 St-City College,-73.953676,40.822008,2782.4498566091725
12:45:00,0,116,125 St,-73.958372,40.815581,2703.4102996565753
12:45:00,0,117,116 St-Columbia University,-73.96411,40.807722,2579.034387247816
12:45:00,0,118,Cathedral Pkwy (110 St),-73.966847,40.803967,2513.7598774438948
12:45:00,0,119,103 St,-73.968379,40.799446,2432.0376552216726
12:37:00,0,120,96 St,-73.972323,40.793919,2052.3265458126107
12:45:00,0,121,86 St,-73.976218,40.788644,2183.2880725361592
12:45:00,0,122,79 St,-73.979917,40.783934,2261.3612432678665
12:09:00,2,123,72 St,-73.98197,40.778453,2158.3019195343823
12:09:00,2,124,66 St-Lincoln Center,-73.982209,40.77344,2235.4229997013435
12:09:00,2,125,59 St-Columbus Circle,-73.981929,40.768247,2158.074685094602
12:09:00,2,126,50 St,-73.983849,40.761728,2054.405512162271
12:49:00,2,127,Times Sq-42 St,-73.987495,40.75529,1922.214631195009
12:09:00,2,128,34 St-Penn Station,-73.991057,40.750373,2019.1413327656894
12:09:00,2,129,28 St,-73.993365,40.747215,2103.7538708791476
12:09:00,2,130,23 St,-73.995657,40.744081,2173.3281680679024
12:09:00,2,131,18 St,-73.997871,40.74104,2238.782351334835
12:09:00,2,132,14 St,-74.000201,40.737826,2165.854137584046
12:09:00,2,133,Christopher St-Sheridan Sq,-74.002906,40.733422,2256.576359806268
12:09:00,2,134,Houston St,-74.005367,40.728251,2342.4573121872204
12:09:00,2,135,Canal St,-74.006277,40.722854,2437.3181666946266
12:09:00,1,136,Franklin St,-74.006886,40.719318,2501.4879835015277
12:09:00,2,137,Chambers St,-74.009266,40.715478,2439.8411505710587
12:01:00,1,138,WTC Cortlandt,-74.012188,40.711835,2651.400785869438
12:01:00,1,139,Rector St,-74.013783,40.707513,2727.9109073269283
12:01:00,1,142,South Ferry,-74.013664,40.702068,2831.0018164178373
12:37:00,0,201,Wakefield-241 St,-73.85062,40.903125,3226.2246913452345
12:37:00,0,204,Nereid Av,-73.854376,40.898379,2929.20887798327
12:37:00,0,205,233 St,-73.857473,40.893193,2839.20887798327
12:37:00,0,206,225 St,-73.860341,40.888022,2749.20887798327
12:37:00,0,207,219 St,-73.862633,40.883895,2659.20887798327
12:37:00,0,208,Gun Hill Rd,-73.866256,40.87785,2554.20887798327
12:37:00,0,209,Burke Av,-73.867164,40.871356,2525.686576308754
12:37:00,0,210,Allerton Av,-73.867352,40.865462,2433.5561415261454
12:37:00,0,211,Pelham Pkwy,-73.867615,40.857192,2329.2083154391885
12:37:00,0,212,Bronx Park East,-73.868457,40.848828,2204.382228482667
12:37:00,0,213,E 180 St,-73.873488,40.841894,1994.0778806565797
12:37:00,0,214,West Farms Sq-E Tremont Av,-73.880049,40.840295,1956.5880075253353
12:37:00,0,215,174 St,-73.887734,40.837288,1830.4888041661002
12:37:00,0,216,Freeman St,-73.891865,40.829993,1710.6511973284933
12:37:00,0,217,Simpson St,-73.893064,40.824073,1600.2698413962898
12:37:00,0,218,Intervale Av,-73.896736,40.822181,1527.0589426188446
12:37:00,0,219,Prospect Av,-73.90177,40.819585,1441.4647566505273
12:37:00,0,220,Jackson Av,-73.907807,40.81649,1349.4059331211154
12:37:00,0,221,3 Av-149 St,-73.917757,40.816109,1215.9609215922521
12:37:00,0,222,149 St-Grand Concourse,-73.926718,40.81841,1090.4639156042283
12:37:00,0,224,135 St,-73.94077,40.814229,1523.8888153339308
12:37:00,0,225,125 St,-73.945495,40.807754,1628.5718288314783
12:37:00,0,226,116 St,-73.949625,40.802098,1727.0293760012896
12:37:00,0,227,Central Park North (110 St),-73.951822,40.799075,1801.0293760012896
12:01:00,1,228,Park Place,-74.008811,40.713051,2485.226339959122
12:01:00,1,229,Fulton St,-74.006571,40.709416,2377.6294813203785
12:37:00,1,230,Wall St,-74.0091,40.706821,2450.7394289643576
12:37:00,1,231,Clark St,-73.993086,40.697466,2634.448306160256
12:37:00,1,232,Borough Hall,-73.989998,40.693219,2746.744602456552
13:49:00,1,233,Hoyt St,-73.985065,40.690545,2736.911001173788
12:01:00,0,234,Nevins St,-73.980492,40.688246,2597.4958410496693
12:01:00,0,235,Atlantic Av-Barclays Ctr,-73.977666,40.684359,2693.1503865042146
12:01:00,0,236,Bergen St,-73.975098,40.680829,2797.5140884491757
12:01:00,0,237,Grand Army Plaza,-73.971046,40.675235,2909.141825675453
12:01:00,0,238,Eastern Pkwy-Brooklyn Museum,-73.964375,40.671987,3014.4118986681538
12:01:00,0,239,Franklin Av-Medgar Evers College,-73.958131,40.670682,2972.672909026737
12:01:00,0,241,President St-Medgar Evers College,-73.950683,40.667883,3143.9806013344296
12:01:00,0,242,Sterling St,-73.95085,40.662742,3234.4517551805834
12:01:00,0,243,Winthrop St,-73.9502,40.656652,3319.604136132964
12:01:00,0,244,Church Av,-73.949575,40.650843,3401.456408860237
12:01:00,0,245,Beverly Rd,-73.948959,40.645098,3482.890371124388
12:01:00,0,246,Newkirk Av-Little Haiti,-73.948411,40.639967,3568.8903711243875
12:01:00,0,247,Flatbush Av-Brooklyn College,-73.947642,40.632836,3686.2272132296507
12:01:00,0,248,Nostrand Av,-73.950466,40.669847,3132.172909026737
12:01:00,0,249,Kingston Av,-73.942161,40.669399,3228.172909026737
12:37:00,0,250,Crown Hts-Utica Av,-73.932942,40.668897,3228.547909026737
12:01:00,0,251,Sutter Av-Rutland Rd,-73.92261,40.664717,3353.797909026737
12:01:00,0,252,Saratoga Av,-73.916327,40.661453,3465.797909026737
12:01:00,0,253,Rockaway Av,-73.908946,40.662549,3553.547909026737
12:01:00,0,254,Junius St,-73.902447,40.663515,3576.490345115751
12:01:00,0,255,Pennsylvania Av,-73.894895,40.664635,3673.7060313902607
12:01:00,0,256,Van Siclen Av,-73.889395,40.665449,3748.2158353118293
12:01:00,0,257,New Lots Av,-73.884079,40.666235,3818.990345115751
12:37:00,0,301,Harlem-148 St,-73.93647,40.82388,1951.7780258602463
12:37:00,0,302,145 St,-73.936245,40.820421,1837.393815333931
12:01:00,0,401,Woodlawn,-73.878751,40.886037,2324.721813171074
12:01:00,0,402,Mosholu Pkwy,-73.884655,40.87975,2203.149125946404
12:01:00,0,405,Bedford Park Blvd-Lehman College,-73.890064,40.873412,2065.506884567094
12:01:00,0,406,Kingsbridge Rd,-73.897174,40.86776,1954.0176141808276
12:01:00,0,407,Fordham Rd,-73.901034,40.862803,1869.5053190988604
12:01:00,0,408,183 St,-73.903879,40.858407,1789.6971558335545
12:01:00,0,409,Burnside Av,-73.907684,40.853453,1694.2988155845917
12:01:00,0,410,176 St,-73.911794,40.84848,1605.8133384061684
12:01:00,0,411,Mt Eden Av,-73.914685,40.844434,1528.1025946045156
12:01:00,0,412,170 St,-73.917791,40.840075,1448.5612722904661
12:01:00,0,413,167 St,-73.9214,40.835537,1360.65255859752
12:01:00,0,414,161 St-Yankee Stadium,-73.925831,40.827994,1252.6567426979384
12:01:00,0,415,149 St-Grand Concourse,-73.927351,40.818375,1044.1379142460555
12:37:00,0,416,138 St-Grand Concourse,-73.929849,40.813224,920.4676439757852
12:01:00,0,418,Fulton St,-74.009509,40.710368,2034.6984479474993
12:01:00,0,419,Wall St,-74.011862,40.707557,2114.087336836388
12:01:00,0,420,Bowling Green,-74.014065,40.704817,2189.1769920088022
12:01:00,0,423,Borough Hall,-73.990151,40.692404,2457.250386504215
13:57:00,0,501,Eastchester-Dyre Av,-73.830834,40.8883,2769.677920985582
12:37:00,0,502,Baychester Av,-73.838591,40.878663,2639.3152836229447
12:37:00,0,503,Gun Hill Rd,-73.846384,40.869526,2480.546466418644
12:37:00,0,504,Pelham Pkwy,-73.855359,40.858985,2323.1877707664703
12:37:00,0,505,Morris Park,-73.860495,40.854364,2235.5064520851515
12:04:00,0,601,Pelham Bay Park,-73.828121,40.852462,1219.4465930423207
12:04:00,0,602,Buhre Av,-73.832569,40.84681,1081.9939614633731
12:04:00,0,603,Middletown Rd,-73.836322,40.843863,1009.882850352262
12:04:00,0,604,Westchester Sq-E Tremont Av,-73.842952,40.839892,879.4237760604734
12:04:00,0,606,Zerega Av,-73.847036,40.836488,781.34044272714
12:04:00,0,607,Castle Hill Av,-73.851222,40.834255,714.0071093938067
13:04:00,0,608,Parkchester,-73.860816,40.833226,558.0071093938067
13:04:00,0,609,St Lawrence Av,-73.867618,40.831509,590.2558514959067
13:04:00,0,610,Morrison Av-Soundview,-73.874516,40.829521,505.1881224122412
13:04:00,0,611,Elder Av,-73.879159,40.828584,432.69151149366166
13:04:00,0,612,Whitlock Av,-73.886283,40.826525,325.1791147994468
12:00:00,0,613,Hunts Point Av,-73.890549,40.820948,198.77818181818182
12:00:00,0,614,Longwood Av,-73.896435,40.816104,95.67272727272727
12:01:00,0,615,E 149 St,-73.904098,40.812118,0.0
12:01:00,0,616,E 143 St-St Mary's St,-73.907657,40.808719,74.6028880866426
12:01:00,0,617,Cypress Av,-73.914042,40.805368,173.7628257435025
12:01:00,0,618,Brook Av,-73.91924,40.807566,243.32164927291424
12:01:00,0,619,3 Av-138 St,-73.926138,40.810476,334.97290977711594
12:01:00,0,621,125 St,-73.937594,40.804138,516.1655327279356
12:01:00,0,622,116 St,-73.941617,40.798629,647.9589211576877
12:01:00,0,623,110 St,-73.94425,40.79502,734.7819664251774
12:01:00,0,624,103 St,-73.947478,40.7906,810.0027997585108
12:01:00,0,625,96 St,-73.95107,40.785672,904.3596462315398
12:01:00,0,626,86 St,-73.955589,40.779492,1015.1936711278054
12:01:00,0,627,77 St,-73.959874,40.77362,1111.7123433269755
12:01:00,0,628,68 St-Hunter College,-73.96387,40.768141,1201.5862929068076
12:01:00,0,629,59 St,-73.967967,40.762526,1251.7019556246205
12:01:00,0,630,51 St,-73.97192,40.757107,1384.527965778488
12:01:00,0,631,Grand Central-42 St,-73.976848,40.751776,1429.066792142428
12:01:00,0,632,33 St,-73.982076,40.746081,1643.6604583341286
12:01:00,0,633,28 St,-73.984264,40.74307,1710.5161284372211
12:01:00,0,634,23 St,-73.986599,40.739864,1773.7686881641837
12:01:00,0,635,14 St-Union Sq,-73.989951,40.734673,1665.5949611565125
12:01:00,0,636,Astor Pl,-73.99107,40.730054,1964.742826112729
12:01:00,0,637,Bleecker St,-73.994659,40.725915,2055.4595496622173
12:01:00,0,638,Spring St,-73.997141,40.722301,2124.609209526163
12:01:00,0,639,Canal St,-74.000193,40.718803,2189.0514808273183
12:01:00,0,640,Brooklyn Bridge-City Hall,-74.004131,40.713065,1925.4970590586106
12:09:00,2,701,Flushing-Main St,-73.83003,40.7596,2935.0141181135573
12:09:00,2,702,Mets-Willets Point,-73.845625,40.754622,2725.633565820325
12:09:00,2,705,111 St,-73.855334,40.75173,2742.4500504888542
12:09:00,2,706,103 St-Corona Plaza,-73.8627,40.749865,2648.824042010801
12:09:00,2,707,Junction Blvd,-73.869527,40.749145,2478.490708677468
12:09:00,2,708,90 St-Elmhurst Av,-73.876613,40.748408,2578.2170505323575
13:05:00,2,709,82 St-Jackson Hts,-73.883697,40.747659,2498.8367688422168
12:33:00,1,710,74 St-Broadway,-73.891394,40.746848,2356.5884695224886
13:21:00,2,711,69 St,-73.896403,40.746325,2309.1767048166066
12:33:00,1,712,61 St-Woodside,-73.902984,40.74563,2237.2682541123813
12:33:00,1,713,52 St,-73.912549,40.744149,2110.6175841235463
12:33:00,1,714,46 St-Bliss St,-73.918435,40.743132,2056.923990808783
12:33:00,1,715,40 St-Lowery St,-73.924016,40.743781,2005.5535172711784
12:33:00,1,716,33 St-Rawson St,-73.930997,40.744587,1937.2732624941084
12:33:00,1,718,Queensboro Plaza,-73.940202,40.750582,1794.798402158913
12:33:00,1,719,Court Sq,-73.945264,40.747023,1888.4907086774676
12:33:00,1,720,Hunters Point Av,-73.948916,40.742216,1890.0823237227796
12:33:00,1,721,Vernon Blvd-Jackson Av,-73.953581,40.742626,1862.0823237227798
12:09:00,1,723,Grand Central-42 St,-73.976041,40.751431,1659.0823237227798
12:09:00,1,724,5 Av,-73.981963,40.753821,1756.7535413686976
12:09:00,1,725,Times Sq-42 St,-73.987691,40.755477,1841.0535413686976
12:09:00,1,726,34 St-Hudson Yards,-74.00191,40.755882,2020.3722634495316
12:09:00,1,901,Grand Central-42 St,-73.979189,40.752769,1614.0823237227798
12:09:00,1,902,Times Sq-42 St,-73.986229,40.755983,1708.52232372278
12:49:00,1,A02,Inwood-207 St,-73.919899,40.868072,2796.4802520100525
12:49:00,1,A03,Dyckman St,-73.927271,40.865491,2706.407259309323
12:49:00,1,A05,190 St,-73.93418,40.859022,2582.814868004975
12:49:00,1,A06,181 St,-73.937969,40.851695,2469.5795738873276
12:49:00,1,A07,175 St,-73.939704,40.847391,2372.859143779801
12:09:00,2,A09,168 St,-73.939561,40.840719,2243.8123047111867
12:09:00,2,A10,163 St-Amsterdam Av,-73.939892,40.836013,2144.782892946481
12:09:00,2,A11,155 St,-73.941514,40.830518,2062.949559613148
12:09:00,1,A12,145 St,-73.944216,40.824783,1910.6842936798294
12:09:00,1,A14,135 St,-73.947649,40.817894,1820.7628217050408
12:09:00,1,A15,125 St,-73.952343,40.811109,1917.7729662834872
12:09:00,1,A16,116 St,-73.954882,40.805085,2041.6085485141891
12:09:00,1,A17,Cathedral Pkwy (110 St),-73.958161,40.800603,2126.2836818433966
12:09:00,1,A18,103 St,-73.961454,40.796092,2210.7573088447675
12:09:00,1,A19,96 St,-73.964696,40.791642,2295.2655055660794
12:33:00,1,A20,86 St,-73.968916,40.785868,2394.893604739633
12:33:00,1,A21,81 St-Museum of Natural History,-73.972143,40.781433,2380.596930963253
12:33:00,1,A22,72 St,-73.97641,40.775594,2291.7169309632527
12:33:00,1,A24,59 St-Columbus Circle,-73.981736,40.768296,2139.183708678865
12:49:00,1,A25,50 St,-73.985984,40.762456,1910.4227597615193
13:25:00,1,A27,42 St-Port Authority Bus Terminal,-73.989735,40.757308,1977.1783032734593
12:09:00,2,A28,34 St-Penn Station,-73.993391,40.752287,2073.468625854104
12:41:00,1,A30,23 St,-73.998041,40.745906,2173.590622114039
12:41:00,1,A31,14 St,-74.00169,40.740893,2215.619163488513
12:41:00,1,A32,W 4 St-Wash Sq,-74.000495,40.732338,2340.0213374015566
12:17:00,1,A33,Spring St,-74.003739,40.726227,2459.31075297553
13:13:00,1,A34,Canal St,-74.005229,40.720824,2475.3951287164605
13:13:00,1,A36,Chambers St,-74.008585,40.714111,2355.069041759939
12:17:00,1,A38,Fulton St,-74.007691,40.710197,2257.6294813203785
13:01:00,1,A40,High St,-73.990531,40.699337,2441.2033943638567
13:01:00,1,A41,Jay St-MetroTech,-73.987342,40.692338,2565.6903508855953
13:01:00,1,A42,Hoyt-Schermerhorn Sts,-73.985001,40.688484,2681.6564525805106
13:41:00,1,A43,Lafayette Av,-73.973946,40.686113,2836.8846614779027
13:41:00,1,A44,Clinton-Washington Avs,-73.965838,40.683263,2921.177460983872
13:41:00,1,A45,Franklin Av,-73.956848,40.68138,3020.6944101364143
13:01:00,1,A46,Nostrand Av,-73.950426,40.680438,3007.925202289834
13:41:00,1,A47,Kingston-Throop Avs,-73.940858,40.679921,3108.2793689565005
13:01:00,1,A48,Utica Av,-73.930729,40.679364,3178.7454270089356
13:41:00,1,A49,Ralph Av,-73.920786,40.678822,3289.462818313283
13:21:00,1,A50,Rockaway Av,-73.911946,40.67834,3332.748646527154
13:01:00,1,A51,Broadway Junction,-73.905316,40.678334,3248.6502858714166
13:13:00,1,A52,Liberty Av,-73.896548,40.674542,3382.609635464912
13:13:00,1,A53,Van Siclen Av,-73.890358,40.67271,3477.78849725353
13:13:00,1,A54,Shepherd Av,-73.88075,40.67413,3581.861667985237
13:01:00,1,A55,Euclid Av,-73.872106,40.675377,3548.961913778393
13:01:00,1,A57,Grant Av,-73.86505,40.677044,3671.1444863925008
13:01:00,1,A59,80 St,-73.858992,40.679371,3768.496486392501
13:01:00,1,A60,88 St,-73.85147,40.679843,3864.456645755051
13:01:00,1,A61,Rockaway Blvd,-73.843853,40.680429,3954.8018838502894
13:37:00,1,A63,104 St,-73.837683,40.681711,4038.473883850289
13:37:00,1,A64,111 St,-73.832163,40.684331,4124.605031391273
13:37:00,1,A65,Ozone Park-Lefferts Blvd,-73.825798,40.685951,4213.668322530513
12:49:00,1,B04,21 St-Queensbridge,-73.942836,40.754203,1854.5003545302893
12:49:00,1,B06,Roosevelt Island,-73.95326,40.759145,1707.879664875117
12:25:00,1,B08,Lexington Av/63 St,-73.966113,40.764629,1628.6625368232792
12:53:00,1,B10,57 St,-73.97745,40.763972,1787.822522017974
12:25:00,1,B12,9 Av,-73.994324,40.646292,3618.536863937784
12:25:00,1,B13,Fort Hamilton Pkwy,-73.994304,40.640914,3719.639428040348
12:25:00,1,B14,50 St,-73.994791,40.63626,3798.664905747354
12:25:00,1,B15,55 St,-73.995476,40.631435,3898.4228675307936
12:25:00,1,B16,62 St,-73.996895,40.626472,3964.394895502822
12:25:00,1,B17,71 St,-73.998864,40.619589,4066.885341362694
12:25:00,1,B18,79 St,-74.00061,40.613501,4173.445850916834
12:25:00,1,B19,18 Av,-74.001736,40.607954,4255.039399303931
12:25:00,1,B20,20 Av,-73.998168,40.604556,4337.032905797438
12:25:00,1,B21,Bay Pkwy,-73.993728,40.601875,4414.578360342892
13:25:00,1,B22,25 Av,-73.986829,40.597704,4533.688037762247
13:25:00,1,B23,Bay 50 St,-73.983765,40.588841,4732.259466333676
12:17:00,1,D01,Norwood-205 St,-73.878855,40.874811,2468.2691903617997
12:17:00,1,D03,Bedford Park Blvd,-73.887138,40.873244,2296.7827038753135
12:17:00,1,D04,Kingsbridge Rd,-73.893509,40.866978,2179.6264538753135
12:17:00,1,D05,Fordham Rd,-73.897749,40.861296,2085.094985343845
12:17:00,1,D06,182-183 Sts,-73.900741,40.856093,1998.161078542682
12:17:00,1,D07,Tremont Av,-73.905227,40.85041,1920.0460342948943
12:17:00,1,D08,174-175 Sts,-73.910136,40.8459,1825.7529308466183
12:17:00,1,D09,170 St,-73.9134,40.839306,1717.1204557947883
12:17:00,1,D10,167 St,-73.91844,40.833771,1609.6962133705458
13:45:00,1,D11,161 St-Yankee Stadium,-73.925651,40.827905,1477.6567426979384
12:09:00,1,D12,155 St,-73.938209,40.830135,1602.3851377596668
12:09:00,1,D13,145 St,-73.944216,40.824783,1713.6011871423827
12:49:00,1,D14,7 Av,-73.981637,40.762862,1816.4321937237835
12:53:00,1,D15,47-50 Sts-Rockefeller Ctr,-73.981329,40.758663,1870.7184413445345
12:53:00,1,D16,42 St-Bryant Pk,-73.984569,40.754222,1958.2959061332667
12:53:00,1,D17,34 St-Herald Sq,-73.987823,40.749719,2038.8097950221554
12:53:00,1,D18,23 St,-73.992821,40.742878,2148.1746598870204
12:53:00,1,D19,14 St,-73.996209,40.738228,2180.854137584046
13:37:00,1,D20,W 4 St-Wash Sq,-74.000495,40.732338,2240.540385898602
13:37:00,1,D21,Broadway-Lafayette St,-73.996204,40.725297,2267.688122030839
13:33:00,1,D22,Grand St,-73.993753,40.718267,2396.0998867367216
12:01:00,1,D24,Atlantic Av-Barclays Ctr,-73.97689,40.68446,2895.341594241013
12:01:00,1,D25,7 Av,-73.972367,40.67705,3025.802734137386
12:01:00,1,D26,Prospect Park,-73.962246,40.661614,3206.9426305104425
12:01:00,1,D27,Parkside Av,-73.961495,40.655292,3288.823459525987
12:01:00,1,D28,Church Av,-73.962982,40.650527,3386.566915023369
12:01:00,1,D29,Beverley Rd,-73.964492,40.644031,3491.9421490560185
12:01:00,1,D30,Cortelyou Rd,-73.963891,40.640927,3570.137679782276
12:01:00,1,D31,Newkirk Plaza,-73.962793,40.635082,3570.916048546312
12:01:00,1,D32,Avenue H,-73.961639,40.62927,3687.7391550232915
12:01:00,1,D33,Avenue J,-73.960803,40.625039,3775.059796956855
12:01:00,1,D34,Avenue M,-73.959399,40.617618,3879.1777456748036
12:01:00,1,D35,Kings Hwy,-73.957734,40.60867,3819.0716041018677
12:01:00,1,D37,Avenue U,-73.955929,40.5993,4032.54099185697
12:01:00,1,D38,Neck Rd,-73.955161,40.595246,4132.077074331197
12:01:00,1,D39,Sheepshead Bay,-73.954155,40.586896,4055.4382707685345
12:01:00,1,D40,Brighton Beach,-73.961376,40.577621,4191.979937435201
12:01:00,1,D41,Ocean Pkwy,-73.968501,40.576312,4324.990930093745
12:01:00,1,D42,W 8 St-NY Aquarium,-73.975939,40.576127,4439.442542996971
12:01:00,1,D43,Coney Island-Stillwell Av,-73.981233,40.577422,4519.398098552527
12:45:00,1,E01,World Trade Center,-74.009781,40.712582,2659.8310649732084
12:49:00,1,F01,Jamaica-179 St,-73.783817,40.712646,3359.2955708042164
12:49:00,1,F02,169 St,-73.793604,40.71047,3281.666861640616
12:49:00,1,F03,Parsons Blvd,-73.803326,40.707564,3191.666861640616
12:49:00,1,F04,Sutphin Blvd,-73.810708,40.70546,3167.8225220179743
12:49:00,1,F05,Briarwood,-73.820574,40.709179,3047.8225220179743
13:05:00,1,F06,Kew Gardens-Union Tpke,-73.831008,40.714441,2927.8225220179743
12:49:00,1,F07,75 Av,-73.837324,40.718331,2792.8065648139286
12:53:00,1,F09,Court Sq-23 St,-73.946,40.747846,1810.9132465393398
12:49:00,1,F11,Lexington Av/53 St,-73.969055,40.757552,1620.0041556302488
12:49:00,1,F12,5 Av/53 St,-73.975224,40.760167,1712.6881178943997
12:41:00,1,F14,2 Av,-73.989938,40.723402,2365.1166934594107
12:41:00,1,F15,Delancey St-Essex St,-73.988114,40.718611,2461.9585301941047
12:41:00,1,F16,East Broadway,-73.990173,40.713715,2550.131119026592
13:21:00,1,F18,York St,-73.986751,40.701397,2701.329088569739
13:01:00,1,F20,Bergen St,-73.990862,40.686145,2836.1865996935026
13:01:00,1,F21,Carroll St,-73.995048,40.680303,2944.773963252257
13:01:00,1,F22,Smith-9 Sts,-73.995959,40.67358,3087.1874247907185
13:01:00,1,F23,4 Av-9 St,-73.989779,40.670272,3170.6531110652286
13:01:00,1,F24,7 Av,-73.980305,40.666271,3120.6903508855953
13:01:00,1,F25,15 St-Prospect Park,-73.979493,40.660365,3288.5999342899245
13:01:00,1,F26,Fort Hamilton Pkwy,-73.975776,40.650782,3450.2591521670197
13:01:00,1,F27,Church Av,-73.979678,40.644041,3360.6903508855953
13:37:00,1,F29,Ditmas Av,-73.978172,40.636119,3480.6903508855953
13:37:00,1,F30,18 Av,-73.976971,40.629755,3600.6903508855953
13:37:00,1,F31,Avenue I,-73.976127,40.625322,3660.6903508855953
13:37:00,1,F32,Bay Pkwy,-73.975264,40.620769,3720.6903508855953
13:37:00,1,F33,Avenue N,-73.974197,40.61514,3840.6903508855958
13:37:00,1,F34,Avenue P,-73.973022,40.608944,3930.6903508855958
13:37:00,1,F35,Kings Hwy,-73.972361,40.603217,4104.352472873387
13:01:00,1,F36,Avenue U,-73.973357,40.596063,4212.953536703175
13:01:00,1,F38,Avenue X,-73.97425,40.58962,4306.156745259324
12:41:00,1,F39,Neptune Av,-73.974574,40.581011,4420.6286553716845
13:05:00,1,G05,Jamaica Center-Parsons/Archer,-73.801109,40.702147,3422.9678915397967
13:05:00,1,G06,Sutphin Blvd-Archer Av-JFK Airport,-73.807969,40.700486,3331.6829753386796
13:05:00,1,G07,Jamaica-Van Wyck,-73.816859,40.702566,3212.331123486828
13:05:00,1,G08,Forest Hills-71 Av,-73.844521,40.721691,2693.3018919167325
13:05:00,1,G09,67 Av,-73.852719,40.726523,2828.632326699341
13:05:00,1,G10,63 Dr-Rego Park,-73.861604,40.729846,2888.1111980193627
13:05:00,1,G11,Woodhaven Blvd,-73.869229,40.733106,2790.4262792082845
13:05:00,1,G12,Grand Av-Newtown,-73.877223,40.737015,2667.5512792082845
13:05:00,1,G13,Elmhurst Av,-73.882017,40.742454,2568.017032632942
13:05:00,1,G14,Jackson Hts-Roosevelt Av,-73.891338,40.746644,2250.8536685147897
12:57:00,1,G15,65 St,-73.898453,40.749669,2442.2275854784234
13:33:00,1,G16,Northern Blvd,-73.906006,40.752885,2346.312552798685
13:33:00,1,G18,46 St,-73.913333,40.756312,2256.1668574344467
13:33:00,1,G19,Steinway St,-73.92074,40.756879,2150.239705116566
13:33:00,1,G20,36 St,-73.928781,40.752039,2004.053038449899
12:33:00,1,G21,Queens Plaza,-73.937243,40.748973,1846.5197051165655
12:37:00,2,G22,Court Sq,-73.943832,40.746554,2003.5755842016772
12:37:00,2,G24,21 St,-73.949724,40.744065,2092.888561300914
12:37:00,2,G26,Greenpoint Av,-73.954449,40.731352,2234.285011005056
12:37:00,2,G28,Nassau Av,-73.951277,40.724635,2341.204551234941
12:37:00,2,G29,Metropolitan Av,-73.951418,40.712792,2479.8655681840937
12:37:00,2,G30,Broadway,-73.950308,40.706092,2565.6439772750027
12:01:00,2,G31,Flushing Av,-73.950234,40.700377,2658.0928409113667
13:41:00,1,G32,Myrtle-Willoughby Avs,-73.949046,40.694568,2744.263295456821
13:41:00,1,G33,Bedford-Nostrand Avs,-73.953522,40.689627,2845.888295456821
13:41:00,1,G34,Classon Av,-73.96007,40.688873,2922.882770594943
13:41:00,1,G35,Clinton-Washington Avs,-73.966839,40.688089,3003.975666769806
13:41:00,1,G36,Fulton St,-73.975375,40.687119,3023.9341520021244
12:17:00,1,H01,Aqueduct Racetrack,-73.834058,40.668234,4160.833629882035
13:01:00,1,H02,Aqueduct-N Conduit Av,-73.834058,40.668234,4233.90268282161
13:01:00,1,H03,Howard Beach-JFK Airport,-73.830301,40.660476,4332.022518770924
13:01:00,1,H04,Broad Channel,-73.815925,40.608382,4749.97413167415
13:01:00,1,H06,Beach 67 St,-73.796924,40.590927,5061.263605358361
13:01:00,1,H07,Beach 60 St,-73.788522,40.592374,5164.710973779413
13:01:00,1,H08,Beach 44 St,-73.776013,40.592943,5268.193429919764
13:01:00,1,H09,Beach 36 St,-73.768175,40.595398,5365.4390439548515
13:01:00,1,H10,Beach 25 St,-73.761353,40.600066,5465.819574928303
13:01:00,1,H11,Far Rockaway-Mott Av,-73.755405,40.603995,5564.986241594969
12:41:00,1,H12,Beach 90 St,-73.813641,40.588034,5001.27413167415
12:41:00,1,H13,Beach 98 St,-73.820558,40.585307,5079.67413167415
12:41:00,1,H14,Beach 105 St,-73.827559,40.583209,5155.785242785261
12:41:00,1,H15,Rockaway Park-Beach 116 St,-73.835592,40.580903,5259.985242785261
13:05:00,1,J12,121 St,-73.828294,40.700492,3730.1829753386796
13:05:00,1,J13,111 St,-73.836345,40.697418,3780.1981301772416
13:05:00,1,J14,104 St,-73.84433,40.695178,3900.1981301772416
13:05:00,1,J15,Woodhaven Blvd,-73.851576,40.693879,3968.6502858714166
13:05:00,1,J16,85 St-Forest Pkwy,-73.86001,40.692435,3972.8814282313183
13:05:00,1,J17,75 St-Elderts Ln,-73.867139,40.691324,3788.6502858714166
13:05:00,1,J19,Cypress Hills,-73.87255,40.689941,3770.6314282313188
13:05:00,1,J20,Crescent St,-73.873785,40.683194,3638.6502858714166
13:21:00,1,J21,Norwood Av,-73.880039,40.68141,3548.6502858714166
13:21:00,1,J22,Cleveland St,-73.884639,40.679947,3553.829806291236
13:21:00,1,J23,Van Siclen Av,-73.891688,40.678024,3398.6502858714166
12:57:00,2,J24,Alabama Av,-73.898654,40.676992,3338.6502858714166
12:53:00,1,J27,Broadway Junction,-73.904512,40.679498,3235.331898601443
13:37:00,2,J28,Chauncey St,-73.910456,40.682893,3308.6502858714166
12:53:00,1,J29,Halsey St,-73.916559,40.68637,3400.953489843702
12:53:00,1,J30,Gates Av,-73.92227,40.68963,3222.5803923919443
12:53:00,1,J31,Kosciuszko St,-73.928814,40.693342,3226.713723761831
12:25:00,1,L01,8 Av,-74.002578,40.739777,2080.634732914494
12:25:00,1,L02,6 Av,-73.996786,40.737335,1955.854137584046
12:25:00,1,L03,14 St-Union Sq,-73.99073,40.734789,1879.556000938083
12:33:00,1,L05,3 Av,-73.986122,40.732849,1956.7112804411886
12:33:00,1,L06,1 Av,-73.981628,40.730953,1984.944613774522
12:33:00,1,L08,Bedford Av,-73.956872,40.717304,2182.8564678778657
12:33:00,1,L10,Lorimer St,-73.950275,40.714063,2270.716650248686
12:33:00,1,L11,Graham Av,-73.944053,40.714565,2308.087470917379
12:33:00,1,L12,Grand St,-73.94067,40.711926,2388.6098589770804
12:33:00,1,L13,Montrose Av,-73.93985,40.707739,2427.033346521565
12:33:00,1,L14,Morgan Av,-73.933147,40.706152,2494.4428420705262
12:33:00,1,L15,Jefferson St,-73.922913,40.706607,2578.3244988752604
12:33:00,1,L16,DeKalb Av,-73.918425,40.703811,2644.026306104176
12:33:00,1,L17,Myrtle-Wyckoff Avs,-73.911586,40.699814,2715.035369548285
12:33:00,1,L19,Halsey St,-73.904084,40.695602,2759.0993426122577
12:33:00,1,L20,Wilson Av,-73.904046,40.688764,2876.077737673986
12:33:00,1,L21,Bushwick Av-Aberdeen St,-73.905249,40.682829,2960.414543229542
12:33:00,1,L22,Broadway Junction,-73.90324,40.678856,3010.331898601443
12:33:00,1,L24,Atlantic Av,-73.903097,40.675345,3118.40905909527
12:33:00,1,L25,Sutter Av,-73.901975,40.669367,3188.7813667875776
12:33:00,1,L26,Livonia Av,-73.900571,40.664038,3246.490345115751
12:33:00,1,L27,New Lots Av,-73.899232,40.658733,3295.590345115751
12:33:00,1,L28,East 105 St,-73.899485,40.650573,3392.3167602100907
13:53:00,1,L29,Canarsie-Rockaway Pkwy,-73.90185,40.646654,3517.38094939928
12:17:00,2,M01,Middle Village-Metropolitan Av,-73.889601,40.711396,3340.4869311091484
12:17:00,2,M04,Fresh Pond Rd,-73.895877,40.706186,3223.203912241224
12:17:00,2,M05,Forest Av,-73.903077,40.704423,3130.617578506063
12:17:00,2,M06,Seneca Av,-73.90774,40.702762,3036.2533400954676
12:57:00,1,M08,Myrtle-Wyckoff Avs,-73.912385,40.69943,2940.035369548285
12:33:00,2,M09,Knickerbocker Av,-73.919711,40.698664,3035.234199957641
12:57:00,1,M10,Central Av,-73.927397,40.697857,3146.222435251759
12:17:00,1,M11,Myrtle Av,-73.935657,40.697207,3055.413725725278
12:17:00,1,M12,Flushing Av,-73.941126,40.70026,3093.9932702643982
12:17:00,1,M13,Lorimer St,-73.947408,40.703869,2991.311027273744
12:17:00,1,M14,Hewes St,-73.953431,40.70687,2900.2184346811514
12:17:00,1,M16,Marcy Av,-73.957757,40.708359,2807.247059058611
12:17:00,1,M18,Delancey St-Essex St,-73.987437,40.718315,2425.6637257252773
12:33:00,1,M19,Bowery,-73.993915,40.72028,2348.5803923919443
12:33:00,1,M20,Canal St,-73.999892,40.718092,2246.0803923919443
12:09:00,1,M21,Chambers St,-74.003401,40.713243,2150.497059058611
12:53:00,1,M22,Fulton St,-74.007582,40.710374,2252.5685202650698
12:53:00,1,M23,Broad St,-74.011056,40.706476,2319.263257107175
12:25:00,1,N02,8 Av,-74.011719,40.635064,3713.302072967709
12:25:00,1,N03,Fort Hamilton Pkwy,-74.005351,40.631386,3807.730002694536
12:25:00,1,N04,New Utrecht Av,-73.996353,40.624842,3947.730002694536
12:25:00,1,N05,18 Av,-73.990414,40.620671,4037.730002694536
12:25:00,1,N06,20 Av,-73.985026,40.61741,4107.730002694536
12:25:00,1,N07,Bay Pkwy,-73.981848,40.611815,4197.730002694536
12:25:00,1,N08,Kings Hwy,-73.980353,40.603923,4317.730002694536
12:25:00,1,N09,Avenue U,-73.979137,40.597473,4417.730002694537
12:25:00,1,N10,86 St,-73.97823,40.592721,4477.730002694537
12:25:00,1,Q01,Canal St,-74.00046,40.718383,2228.754098268032
12:09:00,1,Q03,72 St,-73.958424,40.768799,1748.6625368232792
12:09:00,1,Q04,86 St,-73.951787,40.777891,1880.6316089882275
12:25:00,1,Q05,96 St,-73.947152,40.784318,1961.6625368232792
12:25:00,1,R01,Astoria-Ditmars Blvd,-73.912034,40.775036,2415.91351083358
12:25:00,1,R03,Astoria Blvd,-73.917843,40.770258,2314.735293011798
12:25:00,1,R04,30 Av,-73.921479,40.766779,2214.8819596784647
12:25:00,1,R05,Broadway,-73.925508,40.76182,2118.349492145997
12:25:00,1,R06,36 Av,-73.929575,40.756804,2023.5073868828392
12:25:00,1,R08,39 Av-Dutch Kills,-73.932755,40.752882,1918.187386882839
12:25:00,1,R09,Queensboro Plaza,-73.940202,40.750582,1747.798400489983
12:33:00,1,R11,Lexington Av/59 St,-73.967258,40.76266,1498.177098714835
12:25:00,1,R13,5 Av/59 St,-73.973347,40.764811,1586.6294778666443
12:25:00,1,R14,57 St-7 Av,-73.980658,40.764664,1711.9250645994218
12:25:00,1,R15,49 St,-73.984139,40.759901,1825.2425249168823
12:25:00,1,R16,Times Sq-42 St,-73.986754,40.754672,1933.52232372278
12:25:00,1,R17,34 St-Herald Sq,-73.98795,40.749567,2027.5740877341632
12:33:00,1,R18,28 St,-73.988691,40.745494,2071.5715491975225
12:33:00,1,R19,23 St,-73.989344,40.741303,1990.3884506059735
12:09:00,1,R20,14 St-Union Sq,-73.990568,40.735736,1890.5949611565125
12:01:00,1,R21,8 St-NYU,-73.992629,40.730328,1991.5793361565127
12:01:00,1,R22,Prince St,-73.997702,40.724329,2077.266836156513
12:01:00,1,R23,Canal St,-74.001775,40.719527,2177.065285768916
12:09:00,1,R24,City Hall,-74.006978,40.713282,2322.557593461224
12:09:00,1,R25,Cortlandt St,-74.011029,40.710668,2437.0003415528267
12:09:00,1,R26,Rector St,-74.013342,40.70722,2537.091944606262
12:09:00,1,R27,Whitehall St-South Ferry,-74.012994,40.703087,2621.175277939595
12:09:00,1,R28,Court St,-73.991777,40.6941,2696.5150928774297
12:09:00,1,R29,Jay St-MetroTech,-73.985942,40.69218,2700.6903508855953
12:01:00,1,R30,DeKalb Av,-73.981824,40.690635,2726.3041610859327
12:25:00,1,R31,Atlantic Av-Barclays Ctr,-73.97881,40.683666,2868.90153190542
12:37:00,1,R32,Union St,-73.98311,40.677316,2987.7219891254954
12:37:00,1,R33,4 Av-9 St,-73.988302,40.670847,3092.7696081731146
12:37:00,1,R34,Prospect Av,-73.992872,40.665414,3199.6196081731146
12:37:00,1,R35,25 St,-73.998091,40.660397,3323.150386504214
12:25:00,1,R36,36 St,-74.003549,40.655144,3253.969713723602
12:37:00,1,R39,45 St,-74.010006,40.648939,3439.3789218986044
12:25:00,1,R40,53 St,-74.014034,40.645069,3528.6034116945225
12:25:00,1,R41,59 St,-74.017881,40.641362,3546.0262108987436
12:37:00,1,R42,Bay Ridge Av,-74.023377,40.634967,3706.836212194941
12:37:00,1,R43,77 St,-74.02551,40.629742,3787.108939467668
12:37:00,1,R44,86 St,-74.028398,40.622687,3963.460129943858
12:37:00,1,R45,Bay Ridge-95 St,-74.030876,40.616622,4040.4758779753543
12:25:00,1,S01,Franklin Av,-73.955827,40.680596,3200.6944101364143
12:25:00,1,S03,Park Pl,-73.957624,40.674772,3323.5694101364143
12:01:00,1,S04,Botanic Garden,-73.959245,40.670343,3197.672909026737
