start_time,ntransfers,stop_id,stop_name,stop_lon,stop_lat,duration
12:02:30,0,101,Van Cortlandt Park-242 St,-73.898583,40.889248,2967.1777840063096
12:02:30,0,103,238 St,-73.90087,40.884667,2862.391493683729
12:02:30,0,104,231 St,-73.904834,40.878856,2769.793038085273
12:02:30,0,106,Marble Hill-225 St,-73.909831,40.874561,2681.945762032119
12:02:30,0,107,215 St,-73.915279,40.869444,2592.3280934358268
12:02:30,0,108,207 St,-73.918822,40.864621,2503.4300255163826
12:02:30,0,109,Dyckman St,-73.925536,40.860531,2403.117250185986
12:02:30,0,110,191 St,-73.929412,40.855225,2319.272422599779
12:14:30,2,111,181 St,-73.933596,40.849505,2228.2423796813246
12:02:30,0,112,168 St-Washington Hts,-73.940133,40.840556,2109.0406629431272
12:14:30,2,113,157 St,-73.94489,40.834041,2208.359628460368
12:02:30,0,114,145 St,-73.95036,40.826551,2325.6128473444887
12:02:30,0,115,137 St-City College,-73.953676,40.822008,2422.1890836288785
12:02:30,0,116,125 St,-73.958372,40.815581,2343.149526676281
12:02:30,0,117,116 St-Columbia University,-73.96411,40.807722,2218.7736142675217
12:02:30,0,118,Cathedral Pkwy (110 St),-73.966847,40.803967,2153.4991044636
12:02:30,0,119,103 St,-73.968379,40.799446,2071.776882241378
12:02:30,0,120,96 St,-73.972323,40.793919,1692.065772832316
12:02:30,0,121,86 St,-73.976218,40.788644,1823.0272995558648
12:02:30,0,122,79 St,-73.979917,40.783934,1901.100470287572
12:14:30,2,123,72 St,-73.98197,40.778453,1799.8824222460737
12:14:30,2,124,66 St-Lincoln Center,-73.982209,40.77344,1877.0035024130352
12:14:30,2,125,59 St-Columbus Circle,-73.981929,40.768247,1799.6551878062937
12:14:30,2,126,50 St,-73.983849,40.761728,1695.9860148739629
12:18:30,2,127,Times Sq-42 St,-73.987495,40.75529,1563.7951339067008
12:14:30,2,128,34 St-Penn Station,-73.991057,40.750373,1660.7218354773815
12:14:30,2,129,28 St,-73.993365,40.747215,1745.334373590839
12:14:30,2,130,23 St,-73.995657,40.744081,1814.908670779594
12:14:30,2,131,18 St,-73.997871,40.74104,1880.180237190624
12:14:30,2,132,14 St,-74.000201,40.737826,1805.5933646037513
12:14:30,2,133,Christopher St-Sheridan Sq,-74.002906,40.733422,1896.3155868259735
12:02:30,2,134,Houston St,-74.005367,40.728251,1982.196539206926
12:02:30,1,135,Canal St,-74.006277,40.722854,2077.057393714332
12:02:30,1,136,Franklin St,-74.006886,40.719318,2141.227210521233
12:14:30,2,137,Chambers St,-74.009266,40.715478,2079.5803775907643
12:02:30,2,138,WTC Cortlandt,-74.012188,40.711835,2291.1400128891437
12:02:30,2,139,Rector St,-74.013783,40.707513,2367.650134346634
12:02:30,2,142,South Ferry,-74.013664,40.702068,2470.741043437543
12:26:30,0,201,Wakefield-241 St,-73.85062,40.903125,2865.9639183649406
12:26:30,0,204,Nereid Av,-73.854376,40.898379,2568.9481050029763
12:26:30,0,205,233 St,-73.857473,40.893193,2478.9481050029763
12:26:30,0,206,225 St,-73.860341,40.888022,2388.9481050029763
12:26:30,0,207,219 St,-73.862633,40.883895,2298.9481050029763
12:26:30,0,208,Gun Hill Rd,-73.866256,40.87785,2193.9481050029763
12:26:30,0,209,Burke Av,-73.867164,40.871356,2167.2670790204456
12:26:30,0,210,Allerton Av,-73.867352,40.865462,2075.136644237837
12:26:30,0,211,Pelham Pkwy,-73.867615,40.857192,1970.7888181508806
12:26:30,0,212,Bronx Park East,-73.868457,40.848828,1845.9627311943589
12:26:30,0,213,E 180 St,-73.873488,40.841894,1635.6583833682719
12:26:30,0,214,West Farms Sq-E Tremont Av,-73.880049,40.840295,1598.1685102370272
12:26:30,0,215,174 St,-73.887734,40.837288,1470.2280311858058
12:26:30,0,216,Freeman St,-73.891865,40.829993,1350.390424348199
12:26:30,0,217,Simpson St,-73.893064,40.824073,1240.0090684159957
12:02:30,0,218,Intervale Av,-73.896736,40.822181,1167.0853396024363
12:02:30,0,219,Prospect Av,-73.90177,40.819585,1081.203983670233
12:26:30,0,220,Jackson Av,-73.907807,40.81649,989.1451601408211
12:02:30,0,221,3 Av-149 St,-73.917757,40.816109,857.5414243039443
12:02:30,0,222,149 St-Grand Concourse,-73.926718,40.81841,732.0444183159203
12:02:30,0,224,135 St,-73.94077,40.814229,1163.6280423536364
12:02:30,0,225,125 St,-73.945495,40.807754,1268.311055851184
12:02:30,0,226,116 St,-73.949625,40.802098,1366.7686030209954
12:02:30,0,227,Central Park North (110 St),-73.951822,40.799075,1440.7686030209954
12:02:30,1,228,Park Place,-74.008811,40.713051,2124.965566978827
12:02:30,1,229,Fulton St,-74.006571,40.709416,2017.368708340084
12:02:30,1,230,Wall St,-74.0091,40.706821,2090.478655984063
12:02:30,1,231,Clark St,-73.993086,40.697466,2274.1875331799615
12:02:30,1,232,Borough Hall,-73.989998,40.693219,2386.4838294762576
12:02:30,1,233,Hoyt St,-73.985065,40.690545,2376.650228193494
12:02:30,0,234,Nevins St,-73.980492,40.688246,2237.2350680693753
12:02:30,0,235,Atlantic Av-Barclays Ctr,-73.977666,40.684359,2332.8896135239206
12:06:30,0,236,Bergen St,-73.975098,40.680829,2437.2533154688817
12:06:30,0,237,Grand Army Plaza,-73.971046,40.675235,2548.8810526951593
12:06:30,0,238,Eastern Pkwy-Brooklyn Museum,-73.964375,40.671987,2654.15112568786
12:02:30,0,239,Franklin Av-Medgar Evers College,-73.958131,40.670682,2612.4121360464433
12:06:30,0,241,President St-Medgar Evers College,-73.950683,40.667883,2783.719828354135
12:06:30,0,242,Sterling St,-73.95085,40.662742,2874.190982200289
12:06:30,0,243,Winthrop St,-73.9502,40.656652,2959.34336315267
12:06:30,0,244,Church Av,-73.949575,40.650843,3041.195635879943
12:06:30,0,245,Beverly Rd,-73.948959,40.645098,3122.6295981440935
12:06:30,0,246,Newkirk Av-Little Haiti,-73.948411,40.639967,3208.6295981440935
12:06:30,0,247,Flatbush Av-Brooklyn College,-73.947642,40.632836,3325.9664402493568
12:06:30,0,248,Nostrand Av,-73.950466,40.669847,2771.9121360464433
12:06:30,0,249,Kingston Av,-73.942161,40.669399,2867.9121360464433
12:02:30,0,250,Crown Hts-Utica Av,-73.932942,40.668897,2868.2871360464433
12:06:30,0,251,Sutter Av-Rutland Rd,-73.92261,40.664717,2993.5371360464433
12:06:30,0,252,Saratoga Av,-73.916327,40.661453,3105.5371360464433
12:06:30,0,253,Rockaway Av,-73.908946,40.662549,3193.2871360464433
12:06:30,0,254,Junius St,-73.902447,40.663515,3216.2295721354567
12:06:30,0,255,Pennsylvania Av,-73.894895,40.664635,3313.4452584099663
12:06:30,0,256,Van Siclen Av,-73.889395,40.665449,3387.955062331535
12:06:30,0,257,New Lots Av,-73.884079,40.666235,3458.7295721354567
12:02:30,0,301,Harlem-148 St,-73.93647,40.82388,1591.5172528799521
12:02:30,0,302,145 St,-73.936245,40.820421,1477.1330423536363
12:06:30,0,401,Woodlawn,-73.878751,40.886037,1964.4610401907794
12:06:30,0,402,Mosholu Pkwy,-73.884655,40.87975,1842.8883529661098
12:06:30,0,405,Bedford Park Blvd-Lehman College,-73.890064,40.873412,1705.2461115867995
12:06:30,0,406,Kingsbridge Rd,-73.897174,40.86776,1593.7568412005335
12:06:30,0,407,Fordham Rd,-73.901034,40.862803,1509.2445461185662
12:06:30,0,408,183 St,-73.903879,40.858407,1429.43638285326
12:06:30,0,409,Burnside Av,-73.907684,40.853453,1334.0380426042975
12:06:30,0,410,176 St,-73.911794,40.84848,1245.5525654258743
12:06:30,0,411,Mt Eden Av,-73.914685,40.844434,1167.8418216242214
12:06:30,0,412,170 St,-73.917791,40.840075,1088.3004993101717
12:06:30,0,413,167 St,-73.9214,40.835537,1000.3917856172258
12:06:30,0,414,161 St-Yankee Stadium,-73.925831,40.827994,892.3959697176441
12:06:30,0,415,149 St-Grand Concourse,-73.927351,40.818375,683.8771412657613
12:02:30,0,416,138 St-Grand Concourse,-73.929849,40.813224,560.206870995491
12:02:30,0,418,Fulton St,-74.009509,40.710368,1674.437674967205
12:02:30,0,419,Wall St,-74.011862,40.707557,1753.826563856094
12:02:30,0,420,Bowling Green,-74.014065,40.704817,1828.9162190285078
12:02:30,0,423,Borough Hall,-73.990151,40.692404,2096.9896135239205
13:30:30,0,501,Eastchester-Dyre Av,-73.830834,40.8883,2411.2584236972743
12:26:30,0,502,Baychester Av,-73.838591,40.878663,2271.857144219535
12:26:30,0,503,Gun Hill Rd,-73.846384,40.869526,2121.857144219535
12:26:30,0,504,Pelham Pkwy,-73.855359,40.858985,1964.7682734781622
12:26:30,0,505,Morris Park,-73.860495,40.854364,1877.0869547968434
13:02:00,0,601,Pelham Bay Park,-73.828121,40.852462,1393.8884888161485
13:02:00,0,602,Buhre Av,-73.832569,40.84681,1210.4615384615386
13:02:00,0,603,Middletown Rd,-73.836322,40.843863,1101.6282051282053
13:02:00,0,604,Westchester Sq-E Tremont Av,-73.842952,40.839892,956.8782051282052
13:02:00,0,606,Zerega Av,-73.847036,40.836488,858.7948717948718
13:02:00,0,607,Castle Hill Av,-73.851222,40.834255,791.4615384615385
13:02:00,0,608,Parkchester,-73.860816,40.833226,635.4615384615385
13:02:00,0,609,St Lawrence Av,-73.867618,40.831509,820.5800395256916
13:02:00,0,610,Morrison Av-Soundview,-73.874516,40.829521,736.1254940711461
13:02:00,0,611,Elder Av,-73.879159,40.828584,671.9891304347825
13:02:00,0,612,Whitlock Av,-73.886283,40.826525,567.8982213438735
13:02:00,0,613,Hunts Point Av,-73.890549,40.820948,379.0769230769231
12:02:00,0,614,Longwood Av,-73.896435,40.816104,436.0812431104493
12:02:00,0,615,E 149 St,-73.904098,40.812118,334.97290977711594
12:02:00,0,616,E 143 St-St Mary's St,-73.907657,40.808719,260.1305861256637
12:02:00,0,617,Cypress Av,-73.914042,40.805368,161.21008403361347
12:02:00,0,618,Brook Av,-73.91924,40.807566,91.65126050420169
12:02:00,0,619,3 Av-138 St,-73.926138,40.810476,0.0
12:02:30,0,621,125 St,-73.937594,40.804138,181.19262295081967
12:02:30,0,622,116 St,-73.941617,40.798629,291.64285714285717
12:02:30,0,623,110 St,-73.94425,40.79502,372.07142857142856
12:02:30,0,624,103 St,-73.947478,40.7906,453.21428571428567
12:02:30,0,625,96 St,-73.95107,40.785672,548.0
12:02:30,0,626,86 St,-73.955589,40.779492,645.7857142857142
12:02:30,0,627,77 St,-73.959874,40.77362,751.3857142857142
12:02:30,0,628,68 St-Hunter College,-73.96387,40.768141,840.0523809523809
12:02:30,0,629,59 St,-73.967967,40.762526,893.2824583363122
12:02:30,0,630,51 St,-73.97192,40.757107,1037.652380952381
12:02:30,0,631,Grand Central-42 St,-73.976848,40.751776,1068.806019162134
12:02:30,0,632,33 St,-73.982076,40.746081,1263.413028124963
12:02:30,0,633,28 St,-73.984264,40.74307,1330.2686982280557
12:02:30,0,634,23 St,-73.986599,40.739864,1393.5212579550182
12:02:30,0,635,14 St-Union Sq,-73.989951,40.734673,1305.3341881762183
12:02:30,0,636,Astor Pl,-73.99107,40.730054,1604.482053132435
12:02:30,0,637,Bleecker St,-73.994659,40.725915,1695.198776681923
12:02:30,0,638,Spring St,-73.997141,40.722301,1764.3484365458687
12:02:30,0,639,Canal St,-74.000193,40.718803,1828.7907078470237
12:02:30,0,640,Brooklyn Bridge-City Hall,-74.004131,40.713065,1565.2362860783162
13:10:30,2,701,Flushing-Main St,-73.83003,40.7596,2574.753345133263
13:10:30,2,702,Mets-Willets Point,-73.845625,40.754622,2365.3727928400303
13:10:30,2,705,111 St,-73.855334,40.75173,2382.1892775085594
13:10:30,2,706,103 St-Corona Plaza,-73.8627,40.749865,2288.5632690305065
13:10:30,2,707,Junction Blvd,-73.869527,40.749145,2118.2299356971735
13:10:30,2,708,90 St-Elmhurst Av,-73.876613,40.748408,2217.9562775520626
13:10:30,2,709,82 St-Jackson Hts,-73.883697,40.747659,2138.5759958619215
12:02:30,2,710,74 St-Broadway,-73.891394,40.746848,1996.327696542194
12:26:30,2,711,69 St,-73.896403,40.746325,1948.9159318363115
12:02:30,2,712,61 St-Woodside,-73.902984,40.74563,1877.0074811320865
12:02:30,2,713,52 St,-73.912549,40.744149,1750.356811143252
12:02:30,2,714,46 St-Bliss St,-73.918435,40.743132,1696.6632178284888
12:02:30,2,715,40 St-Lowery St,-73.924016,40.743781,1645.2927442908842
12:02:30,2,716,33 St-Rawson St,-73.930997,40.744587,1577.012489513814
12:18:30,1,718,Queensboro Plaza,-73.940202,40.750582,1434.5376291786185
12:10:30,2,719,Court Sq,-73.945264,40.747023,1528.2299356971732
12:18:30,1,720,Hunters Point Av,-73.948916,40.742216,1531.6628264344715
12:18:30,1,721,Vernon Blvd-Jackson Av,-73.953581,40.742626,1503.6628264344718
12:14:30,1,723,Grand Central-42 St,-73.976041,40.751431,1300.6628264344718
12:14:30,1,724,5 Av,-73.981963,40.753821,1398.3340440803893
12:14:30,1,725,Times Sq-42 St,-73.987691,40.755477,1482.6340440803895
12:14:30,1,726,34 St-Hudson Yards,-74.00191,40.755882,1661.9527661612235
12:14:30,1,901,Grand Central-42 St,-73.979189,40.752769,1255.6628264344718
12:14:30,1,902,Times Sq-42 St,-73.986229,40.755983,1350.1028264344718
12:54:30,1,A02,Inwood-207 St,-73.919899,40.868072,2436.2194790297585
12:54:30,1,A03,Dyckman St,-73.927271,40.865491,2346.146486329029
12:54:30,1,A05,190 St,-73.93418,40.859022,2222.554095024681
12:54:30,1,A06,181 St,-73.937969,40.851695,2109.3188009070336
12:54:30,1,A07,175 St,-73.939704,40.847391,2012.598370799507
12:14:30,2,A09,168 St,-73.939561,40.840719,1883.5515317308927
12:14:30,2,A10,163 St-Amsterdam Av,-73.939892,40.836013,1784.5221199661867
12:14:30,2,A11,155 St,-73.941514,40.830518,1702.6887866328534
12:14:30,1,A12,145 St,-73.944216,40.824783,1550.423520699535
12:14:30,1,A14,135 St,-73.947649,40.817894,1460.5020487247464
12:14:30,1,A15,125 St,-73.952343,40.811109,1557.5121933031928
12:14:30,1,A16,116 St,-73.954882,40.805085,1681.3477755338947
12:14:30,1,A17,Cathedral Pkwy (110 St),-73.958161,40.800603,1766.022908863102
12:14:30,1,A18,103 St,-73.961454,40.796092,1850.4965358644731
12:14:30,1,A19,96 St,-73.964696,40.791642,1935.0047325857847
12:38:30,1,A20,86 St,-73.968916,40.785868,2034.6328317593386
12:38:30,1,A21,81 St-Museum of Natural History,-73.972143,40.781433,2027.1925239535371
12:38:30,1,A22,72 St,-73.97641,40.775594,1938.312523953537
12:38:30,1,A24,59 St-Columbus Circle,-73.981736,40.768296,1780.7642113905565
12:54:30,1,A25,50 St,-73.985984,40.762456,1557.0183527518034
13:30:30,1,A27,42 St-Port Authority Bus Terminal,-73.989735,40.757308,1618.7588059851512
12:14:30,2,A28,34 St-Penn Station,-73.993391,40.752287,1715.0491285657963
12:14:30,2,A30,23 St,-73.998041,40.745906,1815.1711248257309
12:46:30,1,A31,14 St,-74.00169,40.740893,1857.199666200205
12:10:30,2,A32,W 4 St-Wash Sq,-74.000495,40.732338,1981.6018401132485
12:22:30,1,A33,Spring St,-74.003739,40.726227,2099.0499799952354
12:10:30,2,A34,Canal St,-74.005229,40.720824,2115.134355736166
13:18:30,1,A36,Chambers St,-74.008585,40.714111,1994.8082687796443
12:02:30,1,A38,Fulton St,-74.007691,40.710197,1897.3687083400841
13:06:30,1,A40,High St,-73.990531,40.699337,2080.9426213835623
13:06:30,1,A41,Jay St-MetroTech,-73.987342,40.692338,2205.4295779053014
13:06:30,1,A42,Hoyt-Schermerhorn Sts,-73.985001,40.688484,2321.3956796002167
13:46:30,1,A43,Lafayette Av,-73.973946,40.686113,2476.623888497608
13:46:30,1,A44,Clinton-Washington Avs,-73.965838,40.683263,2560.9166880035777
13:46:30,1,A45,Franklin Av,-73.956848,40.68138,2660.4336371561203
13:06:30,1,A46,Nostrand Av,-73.950426,40.680438,2647.6644293095396
12:06:30,1,A47,Kingston-Throop Avs,-73.940858,40.679921,2748.018595976206
12:06:30,1,A48,Utica Av,-73.930729,40.679364,2818.4846540286408
12:06:30,1,A49,Ralph Av,-73.920786,40.678822,2929.2020453329887
12:06:30,1,A50,Rockaway Av,-73.911946,40.67834,2972.4878735468596
13:06:30,1,A51,Broadway Junction,-73.905316,40.678334,2888.3895128911217
13:18:30,1,A52,Liberty Av,-73.896548,40.674542,3022.3488624846177
13:18:30,1,A53,Van Siclen Av,-73.890358,40.67271,3117.5277242732354
13:18:30,1,A54,Shepherd Av,-73.88075,40.67413,3221.6008950049427
13:06:30,1,A55,Euclid Av,-73.872106,40.675377,3188.7011407980985
13:06:30,1,A57,Grant Av,-73.86505,40.677044,3310.8837134122064
13:06:30,1,A59,80 St,-73.858992,40.679371,3408.2357134122067
13:06:30,1,A60,88 St,-73.85147,40.679843,3504.1958727747565
13:06:30,1,A61,Rockaway Blvd,-73.843853,40.680429,3594.5411108699946
13:42:30,1,A63,104 St,-73.837683,40.681711,3678.213110869995
13:42:30,1,A64,111 St,-73.832163,40.684331,3764.3442584109785
13:42:30,1,A65,Ozone Park-Lefferts Blvd,-73.825798,40.685951,3853.4075495502193
12:54:30,1,B04,21 St-Queensbridge,-73.942836,40.754203,1500.1721862104941
12:54:30,1,B06,Roosevelt Island,-73.95326,40.759145,1353.5514965553218
12:18:30,1,B08,Lexington Av/63 St,-73.966113,40.764629,1268.4017638429848
12:58:30,1,B10,57 St,-73.97745,40.763972,1433.4017638429848
12:10:30,1,B12,9 Av,-73.994324,40.646292,3258.2760909574895
12:10:30,1,B13,Fort Hamilton Pkwy,-73.994304,40.640914,3359.378655060054
12:10:30,1,B14,50 St,-73.994791,40.63626,3438.40413276706
12:10:30,1,B15,55 St,-73.995476,40.631435,3538.1620945504997
12:10:30,1,B16,62 St,-73.996895,40.626472,3604.134122522528
12:10:30,1,B17,71 St,-73.998864,40.619589,3706.624568382401
12:10:30,1,B18,79 St,-74.00061,40.613501,3813.185077936541
12:10:30,1,B19,18 Av,-74.001736,40.607954,3894.7786263236376
12:10:30,1,B20,20 Av,-73.998168,40.604556,3976.772132817144
12:10:30,1,B21,Bay Pkwy,-73.993728,40.601875,4054.3175873625987
13:30:30,1,B22,25 Av,-73.986829,40.597704,4173.427264781953
13:30:30,1,B23,Bay 50 St,-73.983765,40.588841,4371.998693353382
12:22:30,1,D01,Norwood-205 St,-73.878855,40.874811,2108.0084173815053
12:22:30,1,D03,Bedford Park Blvd,-73.887138,40.873244,1936.521930895019
12:22:30,1,D04,Kingsbridge Rd,-73.893509,40.866978,1819.3656808950193
12:22:30,1,D05,Fordham Rd,-73.897749,40.861296,1724.8342123635507
12:22:30,1,D06,182-183 Sts,-73.900741,40.856093,1637.9003055623873
12:22:30,1,D07,Tremont Av,-73.905227,40.85041,1559.7852613145997
12:22:30,1,D08,174-175 Sts,-73.910136,40.8459,1465.4921578663239
12:22:30,1,D09,170 St,-73.9134,40.839306,1356.8596828144941
12:22:30,1,D10,167 St,-73.91844,40.833771,1249.4354403902516
13:50:30,1,D11,161 St-Yankee Stadium,-73.925651,40.827905,1117.3959697176442
12:14:30,1,D12,155 St,-73.938209,40.830135,1242.1243647793726
12:14:30,1,D13,145 St,-73.944216,40.824783,1353.3404141620886
12:54:30,1,D14,7 Av,-73.981637,40.762862,1463.0277867140676
12:58:30,1,D15,47-50 Sts-Rockefeller Ctr,-73.981329,40.758663,1523.4017638429848
12:58:30,1,D16,42 St-Bryant Pk,-73.984569,40.754222,1613.4017638429848
12:58:30,1,D17,34 St-Herald Sq,-73.987823,40.749719,1700.1097450149687
12:58:30,1,D18,23 St,-73.992821,40.742878,1810.8515290525274
12:58:30,1,D19,14 St,-73.996209,40.738228,1820.5933646037513
13:42:30,1,D20,W 4 St-Wash Sq,-74.000495,40.732338,1882.1208886102936
13:42:30,1,D21,Broadway-Lafayette St,-73.996204,40.725297,1907.4273490505448
13:38:30,1,D22,Grand St,-73.993753,40.718267,2035.839113756427
12:18:30,1,D24,Atlantic Av-Barclays Ctr,-73.97689,40.68446,2536.9220969527046
12:18:30,1,D25,7 Av,-73.972367,40.67705,2667.3832368490775
12:18:30,1,D26,Prospect Park,-73.962246,40.661614,2848.523133222134
12:18:30,1,D27,Parkside Av,-73.961495,40.655292,2930.4039622376786
12:18:30,1,D28,Church Av,-73.962982,40.650527,3028.1474177350606
12:18:30,1,D29,Beverley Rd,-73.964492,40.644031,3133.5226517677106
12:18:30,1,D30,Cortelyou Rd,-73.963891,40.640927,3211.718182493968
12:18:30,1,D31,Newkirk Plaza,-73.962793,40.635082,3210.655275566018
12:18:30,1,D32,Avenue H,-73.961639,40.62927,3327.4783820429975
12:18:30,1,D33,Avenue J,-73.960803,40.625039,3414.799023976561
12:18:30,1,D34,Avenue M,-73.959399,40.617618,3518.9169726945097
12:18:30,1,D35,Kings Hwy,-73.957734,40.60867,3458.8108311215738
12:18:30,1,D37,Avenue U,-73.955929,40.5993,3672.280218876676
12:18:30,1,D38,Neck Rd,-73.955161,40.595246,3771.816301350903
12:18:30,1,D39,Sheepshead Bay,-73.954155,40.586896,3695.1774977882405
12:18:30,1,D40,Brighton Beach,-73.961376,40.577621,3831.7191644549075
12:18:30,1,D41,Ocean Pkwy,-73.968501,40.576312,3964.7301571134512
12:18:30,1,D42,W 8 St-NY Aquarium,-73.975939,40.576127,4079.1817700166766
12:18:30,1,D43,Coney Island-Stillwell Av,-73.981233,40.577422,4159.137325572232
12:50:30,1,E01,World Trade Center,-74.009781,40.712582,2299.570291992914
12:34:30,1,F01,Jamaica-179 St,-73.783817,40.712646,3004.967402484421
12:54:30,1,F02,169 St,-73.793604,40.71047,2927.246103465626
12:54:30,1,F03,Parsons Blvd,-73.803326,40.707564,2837.246103465626
12:54:30,1,F04,Sutphin Blvd,-73.810708,40.70546,2813.401763842985
12:54:30,1,F05,Briarwood,-73.820574,40.709179,2693.401763842985
12:26:30,1,F06,Kew Gardens-Union Tpke,-73.831008,40.714441,2573.401763842985
12:54:30,1,F07,75 Av,-73.837324,40.718331,2438.4783964941334
12:26:30,1,F09,Court Sq-23 St,-73.946,40.747846,1468.5614718614718
12:54:30,1,F11,Lexington Av/53 St,-73.969055,40.757552,1266.5997486205329
12:54:30,1,F12,5 Av/53 St,-73.975224,40.760167,1359.2837108846838
12:46:30,1,F14,2 Av,-73.989938,40.723402,2004.8559204791163
12:46:30,1,F15,Delancey St-Essex St,-73.988114,40.718611,2101.69775721381
12:46:30,1,F16,East Broadway,-73.990173,40.713715,2189.870346046297
13:26:30,1,F18,York St,-73.986751,40.701397,2341.0683155894444
13:06:30,1,F20,Bergen St,-73.990862,40.686145,2475.9258267132086
13:06:30,1,F21,Carroll St,-73.995048,40.680303,2584.513190271963
13:06:30,1,F22,Smith-9 Sts,-73.995959,40.67358,2726.9266518104246
13:06:30,1,F23,4 Av-9 St,-73.989779,40.670272,2810.3923380849346
12:10:30,2,F24,7 Av,-73.980305,40.666271,2760.4295779053014
12:10:30,2,F25,15 St-Prospect Park,-73.979493,40.660365,2928.3391613096305
12:10:30,2,F26,Fort Hamilton Pkwy,-73.975776,40.650782,3089.9983791867257
12:10:30,2,F27,Church Av,-73.979678,40.644041,3000.4295779053014
12:10:30,2,F29,Ditmas Av,-73.978172,40.636119,3120.4295779053014
12:10:30,2,F30,18 Av,-73.976971,40.629755,3240.4295779053014
12:10:30,2,F31,Avenue I,-73.976127,40.625322,3300.4295779053014
12:10:30,2,F32,Bay Pkwy,-73.975264,40.620769,3360.4295779053014
12:10:30,2,F33,Avenue N,-73.974197,40.61514,3480.4295779053014
12:10:30,2,F34,Avenue P,-73.973022,40.608944,3570.4295779053014
12:10:30,2,F35,Kings Hwy,-73.972361,40.603217,3744.0916998930943
12:10:30,2,F36,Avenue U,-73.973357,40.596063,3852.692763722882
12:10:30,2,F38,Avenue X,-73.97425,40.58962,3945.895972279031
12:18:30,1,F39,Neptune Av,-73.974574,40.581011,4060.367882391391
12:26:30,1,G05,Jamaica Center-Parsons/Archer,-73.801109,40.702147,3068.639723220002
12:26:30,1,G06,Sutphin Blvd-Archer Av-JFK Airport,-73.807969,40.700486,2977.3548070188845
12:26:30,1,G07,Jamaica-Van Wyck,-73.816859,40.702566,2858.0029551670327
12:26:30,1,G08,Forest Hills-71 Av,-73.844521,40.721691,2338.9737235969374
12:26:30,1,G09,67 Av,-73.852719,40.726523,2474.304158379546
12:02:30,1,G10,63 Dr-Rego Park,-73.861604,40.729846,2533.299137735609
12:02:30,1,G11,Woodhaven Blvd,-73.869229,40.733106,2437.021872198569
12:02:30,1,G12,Grand Av-Newtown,-73.877223,40.737015,2314.146872198569
12:02:30,1,G13,Elmhurst Av,-73.882017,40.742454,2214.6126256232264
12:26:30,1,G14,Jackson Hts-Roosevelt Av,-73.891338,40.746644,1896.0416082310353
12:02:30,1,G15,65 St,-73.898453,40.749669,2083.1308628116094
13:38:30,1,G16,Northern Blvd,-73.906006,40.752885,1990.8573585381052
13:38:30,1,G18,46 St,-73.913333,40.756312,1899.4043670851138
13:38:30,1,G19,Steinway St,-73.92074,40.756879,1801.4968040599038
13:38:30,1,G20,36 St,-73.928781,40.752039,1669.080128672783
12:38:30,1,G21,Queens Plaza,-73.937243,40.748973,1511.5467953394495
12:02:30,2,G22,Court Sq,-73.943832,40.746554,1666.8686165450613
12:02:30,2,G24,21 St,-73.949724,40.744065,1756.181593644298
12:02:30,2,G26,Greenpoint Av,-73.954449,40.731352,1897.57804334844
12:02:30,2,G28,Nassau Av,-73.951277,40.724635,2004.497583578325
12:02:30,2,G29,Metropolitan Av,-73.951418,40.712792,2123.6701614499866
12:02:30,2,G30,Broadway,-73.950308,40.706092,2224.251683189117
12:02:30,2,G31,Flushing Av,-73.950234,40.700377,2310.6462777837114
12:02:30,2,G32,Myrtle-Willoughby Avs,-73.949046,40.694568,2392.370602108036
12:02:30,2,G33,Bedford-Nostrand Avs,-73.953522,40.689627,2504.3007096349174
12:02:30,2,G34,Classon Av,-73.96007,40.688873,2586.175802938327
13:46:30,1,G35,Clinton-Washington Avs,-73.966839,40.688089,2667.2686991131905
13:46:30,1,G36,Fulton St,-73.975375,40.687119,2663.6733790218304
12:26:30,1,H01,Aqueduct Racetrack,-73.834058,40.668234,3800.572856901741
13:06:30,1,H02,Aqueduct-N Conduit Av,-73.834058,40.668234,3873.6419098413157
13:06:30,1,H03,Howard Beach-JFK Airport,-73.830301,40.660476,3971.76174579063
13:06:30,1,H04,Broad Channel,-73.815925,40.608382,4389.713358693856
13:06:30,1,H06,Beach 67 St,-73.796924,40.590927,4701.002832378067
13:06:30,1,H07,Beach 60 St,-73.788522,40.592374,4804.450200799119
13:06:30,1,H08,Beach 44 St,-73.776013,40.592943,4907.93265693947
13:06:30,1,H09,Beach 36 St,-73.768175,40.595398,5005.178270974558
13:06:30,1,H10,Beach 25 St,-73.761353,40.600066,5105.558801948009
13:06:30,1,H11,Far Rockaway-Mott Av,-73.755405,40.603995,5204.725468614675
12:26:30,1,H12,Beach 90 St,-73.813641,40.588034,4641.0133586938555
12:26:30,1,H13,Beach 98 St,-73.820558,40.585307,4719.413358693856
12:26:30,1,H14,Beach 105 St,-73.827559,40.583209,4795.524469804967
12:26:30,1,H15,Rockaway Park-Beach 116 St,-73.835592,40.580903,4899.724469804967
13:10:30,1,J12,121 St,-73.828294,40.700492,3375.8548070188845
13:10:30,1,J13,111 St,-73.836345,40.697418,3425.869961857447
13:10:30,1,J14,104 St,-73.84433,40.695178,3545.869961857447
13:10:30,1,J15,Woodhaven Blvd,-73.851576,40.693879,3608.3895128911217
13:10:30,1,J16,85 St-Forest Pkwy,-73.86001,40.692435,3612.620655251024
13:10:30,1,J17,75 St-Elderts Ln,-73.867139,40.691324,3428.3895128911217
13:10:30,1,J19,Cypress Hills,-73.87255,40.689941,3410.370655251024
13:02:30,2,J20,Crescent St,-73.873785,40.683194,3278.3895128911217
13:02:30,2,J21,Norwood Av,-73.880039,40.68141,3188.3895128911217
13:02:30,2,J22,Cleveland St,-73.884639,40.679947,3193.5690333109414
13:02:30,2,J23,Van Siclen Av,-73.891688,40.678024,3038.3895128911217
13:02:30,2,J24,Alabama Av,-73.898654,40.676992,2978.3895128911217
12:58:30,1,J27,Broadway Junction,-73.904512,40.679498,2875.071125621148
13:42:30,2,J28,Chauncey St,-73.910456,40.682893,2948.3895128911217
12:58:30,1,J29,Halsey St,-73.916559,40.68637,3040.692716863407
12:58:30,1,J30,Gates Av,-73.92227,40.68963,2862.3196194116495
12:58:30,1,J31,Kosciuszko St,-73.928814,40.693342,2866.4529507815355
12:10:30,1,L01,8 Av,-74.002578,40.739777,1722.215235626186
12:10:30,1,L02,6 Av,-73.996786,40.737335,1595.5933646037513
12:10:30,1,L03,14 St-Union Sq,-73.99073,40.734789,1519.2952279577887
12:18:30,1,L05,3 Av,-73.986122,40.732849,1596.4505074608944
12:18:30,1,L06,1 Av,-73.981628,40.730953,1624.6838407942278
12:18:30,1,L08,Bedford Av,-73.956872,40.717304,1822.595694897571
12:18:30,1,L10,Lorimer St,-73.950275,40.714063,1910.4558772683918
12:18:30,1,L11,Graham Av,-73.944053,40.714565,1947.8266979370846
12:18:30,1,L12,Grand St,-73.94067,40.711926,2028.349085996786
12:18:30,1,L13,Montrose Av,-73.93985,40.707739,2066.77257354127
12:18:30,1,L14,Morgan Av,-73.933147,40.706152,2134.182069090232
12:18:30,1,L15,Jefferson St,-73.922913,40.706607,2218.063725894966
12:18:30,1,L16,DeKalb Av,-73.918425,40.703811,2283.7655331238816
12:18:30,1,L17,Myrtle-Wyckoff Avs,-73.911586,40.699814,2354.77459656799
12:18:30,1,L19,Halsey St,-73.904084,40.695602,2398.8385696319633
12:18:30,1,L20,Wilson Av,-73.904046,40.688764,2515.8169646936917
12:18:30,1,L21,Bushwick Av-Aberdeen St,-73.905249,40.682829,2600.1537702492474
12:18:30,1,L22,Broadway Junction,-73.90324,40.678856,2650.071125621148
12:18:30,1,L24,Atlantic Av,-73.903097,40.675345,2758.1482861149752
12:18:30,1,L25,Sutter Av,-73.901975,40.669367,2828.520593807283
12:18:30,1,L26,Livonia Av,-73.900571,40.664038,2886.2295721354567
12:18:30,1,L27,New Lots Av,-73.899232,40.658733,2935.3295721354566
12:18:30,1,L28,East 105 St,-73.899485,40.650573,3032.0559872297963
13:58:30,1,L29,Canarsie-Rockaway Pkwy,-73.90185,40.646654,3157.1201764189855
12:22:30,2,M01,Middle Village-Metropolitan Av,-73.889601,40.711396,2980.226158128854
12:22:30,2,M04,Fresh Pond Rd,-73.895877,40.706186,2862.9431392609295
12:22:30,2,M05,Forest Av,-73.903077,40.704423,2770.356805525769
12:22:30,2,M06,Seneca Av,-73.90774,40.702762,2675.992567115173
13:02:30,1,M08,Myrtle-Wyckoff Avs,-73.912385,40.69943,2579.77459656799
12:38:30,2,M09,Knickerbocker Av,-73.919711,40.698664,2674.9734269773467
13:02:30,1,M10,Central Av,-73.927397,40.697857,2785.961662271465
12:22:30,1,M11,Myrtle Av,-73.935657,40.697207,2695.152952744983
12:22:30,1,M12,Flushing Av,-73.941126,40.70026,2733.7324972841043
12:22:30,1,M13,Lorimer St,-73.947408,40.703869,2631.05025429345
12:22:30,1,M14,Hewes St,-73.953431,40.70687,2539.9576617008574
12:22:30,1,M16,Marcy Av,-73.957757,40.708359,2446.986286078316
12:22:30,1,M18,Delancey St-Essex St,-73.987437,40.718315,2065.4029527449825
12:18:30,1,M19,Bowery,-73.993915,40.72028,1988.3196194116495
12:18:30,1,M20,Canal St,-73.999892,40.718092,1885.8196194116495
12:14:30,1,M21,Chambers St,-74.003401,40.713243,1790.2362860783162
12:18:30,1,M22,Fulton St,-74.007582,40.710374,1892.3077472847754
12:18:30,1,M23,Broad St,-74.011056,40.706476,1959.0024841268805
12:10:30,1,N02,8 Av,-74.011719,40.635064,3353.041299987415
12:10:30,1,N03,Fort Hamilton Pkwy,-74.005351,40.631386,3447.469229714242
12:10:30,1,N04,New Utrecht Av,-73.996353,40.624842,3587.469229714242
12:10:30,1,N05,18 Av,-73.990414,40.620671,3677.469229714242
12:10:30,1,N06,20 Av,-73.985026,40.61741,3747.469229714242
12:10:30,1,N07,Bay Pkwy,-73.981848,40.611815,3837.469229714242
12:10:30,1,N08,Kings Hwy,-73.980353,40.603923,3957.4692297142424
12:10:30,1,N09,Avenue U,-73.979137,40.597473,4057.4692297142424
12:10:30,1,N10,86 St,-73.97823,40.592721,4117.469229714243
12:02:30,1,Q01,Canal St,-74.00046,40.718383,1870.334600979724
12:10:30,1,Q03,72 St,-73.958424,40.768799,1388.4017638429848
12:10:30,1,Q04,86 St,-73.951787,40.777891,1520.3708360079331
12:10:30,1,Q05,96 St,-73.947152,40.784318,1601.401763842985
12:10:30,1,R01,Astoria-Ditmars Blvd,-73.912034,40.775036,2065.07670310132
12:10:30,1,R03,Astoria Blvd,-73.917843,40.770258,1963.898485279538
12:10:30,1,R04,30 Av,-73.921479,40.766779,1864.0451519462047
12:10:30,1,R05,Broadway,-73.925508,40.76182,1767.5126844137371
12:10:30,1,R06,36 Av,-73.929575,40.756804,1672.6705791505792
12:10:30,1,R08,39 Av-Dutch Kills,-73.932755,40.752882,1567.350579150579
12:10:30,1,R09,Queensboro Plaza,-73.940202,40.750582,1387.5376275096885
12:18:30,1,R11,Lexington Av/59 St,-73.967258,40.76266,1137.9163257345406
12:10:30,1,R13,5 Av/59 St,-73.973347,40.764811,1226.3687048863499
12:10:30,1,R14,57 St-7 Av,-73.980658,40.764664,1351.6642916191277
12:10:30,1,R15,49 St,-73.984139,40.759901,1464.981751936588
12:10:30,1,R16,Times Sq-42 St,-73.986754,40.754672,1575.1028264344718
12:10:30,1,R17,34 St-Herald Sq,-73.98795,40.749567,1669.1545904458549
12:18:30,1,R18,28 St,-73.988691,40.745494,1711.3107762172283
12:18:30,1,R19,23 St,-73.989344,40.741303,1630.127677625679
12:14:30,1,R20,14 St-Union Sq,-73.990568,40.735736,1530.3341881762183
12:06:30,1,R21,8 St-NYU,-73.992629,40.730328,1631.3185631762183
12:06:30,1,R22,Prince St,-73.997702,40.724329,1717.0060631762185
12:06:30,1,R23,Canal St,-74.001775,40.719527,1816.8045127886217
12:14:30,1,R24,City Hall,-74.006978,40.713282,1962.2968204809292
12:14:30,1,R25,Cortlandt St,-74.011029,40.710668,2076.7395685725323
12:14:30,1,R26,Rector St,-74.013342,40.70722,2176.8311716259673
12:14:30,1,R27,Whitehall St-South Ferry,-74.012994,40.703087,2260.9145049593008
12:18:30,1,R28,Court St,-73.991777,40.6941,2336.2543198971352
12:18:30,1,R29,Jay St-MetroTech,-73.985942,40.69218,2340.4295779053014
12:18:30,1,R30,DeKalb Av,-73.981824,40.690635,2367.884663797624
12:10:30,1,R31,Atlantic Av-Barclays Ctr,-73.97881,40.683666,2508.640758925126
12:10:30,1,R32,Union St,-73.98311,40.677316,2627.4612161452014
12:10:30,1,R33,4 Av-9 St,-73.988302,40.670847,2732.5088351928202
12:10:30,1,R34,Prospect Av,-73.992872,40.665414,2839.3588351928206
12:10:30,1,R35,25 St,-73.998091,40.660397,2962.88961352392
12:10:30,1,R36,36 St,-74.003549,40.655144,2893.708940743308
12:10:30,1,R39,45 St,-74.010006,40.648939,3079.1181489183105
12:10:30,1,R40,53 St,-74.014034,40.645069,3168.3426387142285
12:10:30,1,R41,59 St,-74.017881,40.641362,3185.7654379184496
12:10:30,1,R42,Bay Ridge Av,-74.023377,40.634967,3346.575439214647
12:10:30,1,R43,77 St,-74.02551,40.629742,3426.848166487374
12:10:30,1,R44,86 St,-74.028398,40.622687,3603.1993569635642
12:10:30,1,R45,Bay Ridge-95 St,-74.030876,40.616622,3680.2151049950603
12:10:30,1,S01,Franklin Av,-73.955827,40.680596,2840.4336371561203
12:10:30,1,S03,Park Pl,-73.957624,40.674772,2963.3086371561203
12:18:30,1,S04,Botanic Garden,-73.959245,40.670343,2837.4121360464433
