start_time,ntransfers,stop_id,stop_name,stop_lon,stop_lat,duration
12:04:30,2,101,Van Cortlandt Park-242 St,-73.898583,40.889248,2934.1189208996116
12:04:30,2,103,238 St,-73.90087,40.884667,2808.308110088801
12:04:30,2,104,231 St,-73.904834,40.878856,2704.6758230932855
12:04:30,2,106,Marble Hill-225 St,-73.909831,40.874561,2607.1938411113038
12:04:30,2,107,215 St,-73.915279,40.869444,2518.4010483185107
12:04:30,2,108,207 St,-73.918822,40.864621,2428.678104595567
12:04:30,2,109,Dyckman St,-73.925536,40.860531,2328.3653292651707
12:04:30,2,110,191 St,-73.929412,40.855225,2244.5205016789637
12:04:30,2,111,181 St,-73.933596,40.849505,2153.4904587605092
12:04:30,2,112,168 St-Washington Hts,-73.940133,40.840556,2034.288742022312
12:04:30,2,113,157 St,-73.94489,40.834041,1934.9697765050705
12:04:30,2,114,145 St,-73.95036,40.826551,1817.7165576209504
12:04:30,2,115,137 St-City College,-73.953676,40.822008,1716.840489244882
12:04:30,2,116,125 St,-73.958372,40.815581,1621.515489244882
12:04:30,2,117,116 St-Columbia University,-73.96411,40.807722,1507.2863225782153
12:04:30,2,118,Cathedral Pkwy (110 St),-73.966847,40.803967,1428.3317771236698
12:04:30,2,119,103 St,-73.968379,40.799446,1348.8030885990797
12:00:30,2,120,96 St,-73.972323,40.793919,1078.640676508367
12:08:30,2,121,86 St,-73.976218,40.788644,1138.4014492548174
12:08:30,2,122,79 St,-73.979917,40.783934,1061.52746551498
12:00:30,2,123,72 St,-73.98197,40.778453,899.1061937497465
12:20:30,2,124,66 St-Lincoln Center,-73.982209,40.77344,976.2272739167078
12:20:30,2,125,59 St-Columbus Circle,-73.981929,40.768247,898.8789593099663
12:20:30,2,126,50 St,-73.983849,40.761728,795.2097863776354
12:04:30,2,127,Times Sq-42 St,-73.987495,40.75529,663.0189054103733
12:00:30,2,128,34 St-Penn Station,-73.991057,40.750373,759.945606981054
12:45:30,2,129,28 St,-73.993365,40.747215,844.5581450945117
12:45:30,2,130,23 St,-73.995657,40.744081,818.7399884083451
12:45:30,2,131,18 St,-73.997871,40.74104,750.5619581053148
12:45:30,2,132,14 St,-74.000201,40.737826,675.9750855184423
12:05:30,2,133,Christopher St-Sheridan Sq,-74.002906,40.733422,766.6973077406644
12:05:30,2,134,Houston St,-74.005367,40.728251,852.578260121617
12:05:30,2,135,Canal St,-74.006277,40.722854,947.439114629023
12:05:30,2,136,Franklin St,-74.006886,40.719318,1011.608931435924
12:05:30,2,137,Chambers St,-74.009266,40.715478,949.9620985054553
12:05:30,2,138,WTC Cortlandt,-74.012188,40.711835,1161.5217338038346
12:05:30,2,139,Rector St,-74.013783,40.707513,1238.0318552613246
12:05:30,2,142,South Ferry,-74.013664,40.702068,1341.1227643522336
12:12:30,0,201,Wakefield-241 St,-73.85062,40.903125,3524.822679433067
12:12:30,0,204,Nereid Av,-73.854376,40.898379,3227.806866071103
12:12:30,0,205,233 St,-73.857473,40.893193,3137.806866071103
12:12:30,0,206,225 St,-73.860341,40.888022,3047.806866071103
12:12:30,0,207,219 St,-73.862633,40.883895,2957.806866071103
12:12:30,0,208,Gun Hill Rd,-73.866256,40.87785,2852.806866071103
12:12:30,0,209,Burke Av,-73.867164,40.871356,2831.3448611713384
12:12:30,0,210,Allerton Av,-73.867352,40.865462,2739.21442638873
12:12:30,0,211,Pelham Pkwy,-73.867615,40.857192,2634.8666003017734
12:12:30,0,212,Bronx Park East,-73.868457,40.848828,2510.0405133452514
12:12:30,0,213,E 180 St,-73.873488,40.841894,2299.7361655191644
12:12:30,0,214,West Farms Sq-E Tremont Av,-73.880049,40.840295,2259.1729991504844
12:12:30,0,215,174 St,-73.887734,40.837288,2129.086792253933
12:12:30,0,216,Freeman St,-73.891865,40.829993,2009.2491854163259
12:12:30,0,217,Simpson St,-73.893064,40.824073,1898.8678294841225
12:04:30,0,218,Intervale Av,-73.896736,40.822181,1825.944100670563
12:04:30,0,219,Prospect Av,-73.90177,40.819585,1740.06274473836
12:12:30,0,220,Jackson Av,-73.907807,40.81649,1648.003921208948
12:04:30,0,221,3 Av-149 St,-73.917757,40.816109,1521.619206454837
12:04:30,0,222,149 St-Grand Concourse,-73.926718,40.81841,1396.122200466813
12:00:30,2,224,135 St,-73.94077,40.814229,1624.241918001576
12:00:30,2,225,125 St,-73.945495,40.807754,1516.4500104871252
12:00:30,2,226,116 St,-73.949625,40.802098,1418.3401838975296
12:00:30,2,227,Central Park North (110 St),-73.951822,40.799075,1341.721136278482
12:05:30,2,228,Park Place,-74.008811,40.713051,1038.4359946093514
12:01:30,1,229,Fulton St,-74.006571,40.709416,1107.4579913205046
12:01:30,1,230,Wall St,-74.0091,40.706821,1180.5679389644836
12:01:30,1,231,Clark St,-73.993086,40.697466,1364.276816160382
12:01:30,1,232,Borough Hall,-73.989998,40.693219,1476.5731124566782
12:01:30,1,233,Hoyt St,-73.985065,40.690545,1445.8852632076898
12:01:30,0,234,Nevins St,-73.980492,40.688246,1321.3713155374135
12:01:30,0,235,Atlantic Av-Barclays Ctr,-73.977666,40.684359,1411.5490933151914
12:05:30,0,236,Bergen St,-73.975098,40.680829,1521.3895629369204
12:05:30,0,237,Grand Army Plaza,-73.971046,40.675235,1628.7323150631767
12:05:30,0,238,Eastern Pkwy-Brooklyn Museum,-73.964375,40.671987,1737.862452049478
12:01:30,0,239,Franklin Av-Medgar Evers College,-73.958131,40.670682,1702.5014190268635
12:05:30,0,241,President St-Medgar Evers College,-73.950683,40.667883,1873.8091113345558
12:05:30,0,242,Sterling St,-73.95085,40.662742,1964.2802651807099
12:05:30,0,243,Winthrop St,-73.9502,40.656652,2049.4326461330907
12:05:30,0,244,Church Av,-73.949575,40.650843,2131.2849188603636
12:05:30,0,245,Beverly Rd,-73.948959,40.645098,2212.718881124514
12:05:30,0,246,Newkirk Av-Little Haiti,-73.948411,40.639967,2298.718881124514
12:05:30,0,247,Flatbush Av-Brooklyn College,-73.947642,40.632836,2416.0557232297774
12:05:30,0,248,Nostrand Av,-73.950466,40.669847,1839.7699120286418
12:05:30,0,249,Kingston Av,-73.942161,40.669399,1925.3949120286418
12:01:30,0,250,Crown Hts-Utica Av,-73.932942,40.668897,1953.9232437885348
12:05:30,0,251,Sutter Av-Rutland Rd,-73.92261,40.664717,2083.6264190268635
12:05:30,0,252,Saratoga Av,-73.916327,40.661453,2187.456577121868
12:05:30,0,253,Rockaway Av,-73.908946,40.662549,2168.454430305049
12:05:30,0,254,Junius St,-73.902447,40.663515,2086.6112930501467
12:05:30,0,255,Pennsylvania Av,-73.894895,40.664635,2183.8269793246563
12:05:30,0,256,Van Siclen Av,-73.889395,40.665449,2258.3367832462254
12:05:30,0,257,New Lots Av,-73.884079,40.666235,2329.1112930501467
12:00:30,2,301,Harlem-148 St,-73.93647,40.82388,1893.435764937757
12:00:30,2,302,145 St,-73.936245,40.820421,1761.2009823290616
12:00:30,0,401,Woodlawn,-73.878751,40.886037,2651.4179419852817
12:00:30,0,402,Mosholu Pkwy,-73.884655,40.87975,2529.845254760612
12:00:30,0,405,Bedford Park Blvd-Lehman College,-73.890064,40.873412,2392.203013381302
12:00:30,0,406,Kingsbridge Rd,-73.897174,40.86776,2280.713742995036
12:00:30,0,407,Fordham Rd,-73.901034,40.862803,2196.2014479130685
12:00:30,0,408,183 St,-73.903879,40.858407,2116.3932846477624
12:00:30,0,409,Burnside Av,-73.907684,40.853453,2020.9949443987996
12:00:30,0,410,176 St,-73.911794,40.84848,1932.5094672203766
12:00:30,0,411,Mt Eden Av,-73.914685,40.844434,1854.7987234187237
12:00:30,0,412,170 St,-73.917791,40.840075,1775.257401104674
12:00:30,0,413,167 St,-73.9214,40.835537,1687.348687411728
12:00:30,0,414,161 St-Yankee Stadium,-73.925831,40.827994,1579.3528715121465
12:00:30,0,415,149 St-Grand Concourse,-73.927351,40.818375,1370.8340430602634
12:04:30,0,416,138 St-Grand Concourse,-73.929849,40.813224,1231.1161763704276
12:01:30,0,418,Fulton St,-74.009509,40.710368,764.5269579476255
12:01:30,0,419,Wall St,-74.011862,40.707557,843.9158468365143
12:01:30,0,420,Bowling Green,-74.014065,40.704817,919.0055020089281
12:01:30,0,423,Borough Hall,-73.990151,40.692404,1187.078896504341
13:48:30,0,501,Eastchester-Dyre Av,-73.830834,40.8883,3075.3362058481666
12:12:30,0,502,Baychester Av,-73.838591,40.878663,2944.973568485529
12:12:30,0,503,Gun Hill Rd,-73.846384,40.869526,2786.2047512812283
12:12:30,0,504,Pelham Pkwy,-73.855359,40.858985,2628.8460556290547
12:12:30,0,505,Morris Park,-73.860495,40.854364,2541.164736947736
13:52:30,0,601,Pelham Bay Park,-73.828121,40.852462,2755.353369768529
13:52:30,0,602,Buhre Av,-73.832569,40.84681,2571.9264194139196
13:52:30,0,603,Middletown Rd,-73.836322,40.843863,2463.093086080586
13:52:30,0,604,Westchester Sq-E Tremont Av,-73.842952,40.839892,2318.343086080586
13:52:30,0,606,Zerega Av,-73.847036,40.836488,2220.2597527472526
13:52:30,0,607,Castle Hill Av,-73.851222,40.834255,2152.9264194139196
12:40:30,0,608,Parkchester,-73.860816,40.833226,1996.9264194139193
12:40:30,0,609,St Lawrence Av,-73.867618,40.831509,2234.8637858980383
12:40:30,0,610,Morrison Av-Soundview,-73.874516,40.829521,2149.796056814373
12:40:30,0,611,Elder Av,-73.879159,40.828584,2084.632056814373
12:40:30,0,612,Whitlock Av,-73.886283,40.826525,1978.2920568143727
12:40:30,0,613,Hunts Point Av,-73.890549,40.820948,1740.5418040293039
12:00:30,0,614,Longwood Av,-73.896435,40.816104,1806.1888557099485
12:00:30,0,615,E 149 St,-73.904098,40.812118,1710.5161284372211
12:00:30,0,616,E 143 St-St Mary's St,-73.907657,40.808719,1635.9132403505787
12:00:30,0,617,Cypress Av,-73.914042,40.805368,1519.3500634552718
12:00:30,0,618,Brook Av,-73.91924,40.807566,1449.1045760906509
12:00:30,0,619,3 Av-138 St,-73.926138,40.810476,1330.2686982280557
12:04:30,0,621,125 St,-73.937594,40.804138,1085.7159052876616
12:00:30,0,622,116 St,-73.941617,40.798629,1003.0116559745345
12:00:30,0,623,110 St,-73.94425,40.79502,923.0607787815519
12:00:30,0,624,103 St,-73.947478,40.7906,846.6888489569906
12:00:30,0,625,96 St,-73.95107,40.785672,760.2186735183941
12:00:30,0,626,86 St,-73.955589,40.779492,662.8291998341836
12:00:30,0,627,77 St,-73.959874,40.77362,565.073102273208
12:00:30,0,628,68 St-Hunter College,-73.96387,40.768141,475.44810227320795
12:00:30,0,629,59 St,-73.967967,40.762526,379.1712856642114
12:00:30,0,630,51 St,-73.97192,40.757107,282.52645807800445
12:00:30,0,631,Grand Central-42 St,-73.976848,40.751776,174.88659793814432
12:00:30,0,632,33 St,-73.982076,40.746081,66.84322033898304
12:01:30,0,633,28 St,-73.984264,40.74307,0.0
12:01:30,0,634,23 St,-73.986599,40.739864,63.25255972696246
12:01:30,0,635,14 St-Union Sq,-73.989951,40.734673,168.04251712946265
12:01:30,0,636,Astor Pl,-73.99107,40.730054,277.55496522524425
12:01:30,0,637,Bleecker St,-73.994659,40.725915,368.2716887747323
12:01:30,0,638,Spring St,-73.997141,40.722301,437.4213486386779
12:01:30,0,639,Canal St,-74.000193,40.718803,511.19837566570493
12:01:30,0,640,Brooklyn Bridge-City Hall,-74.004131,40.713065,594.7527974344124
12:00:30,2,701,Flushing-Main St,-73.83003,40.7596,1942.0294550810013
12:00:30,2,702,Mets-Willets Point,-73.845625,40.754622,1732.0294550810013
12:00:30,2,705,111 St,-73.855334,40.75173,1748.8459397495303
12:00:30,2,706,103 St-Corona Plaza,-73.8627,40.749865,1655.2199312714777
12:00:30,2,707,Junction Blvd,-73.869527,40.749145,1484.8865979381442
12:00:30,2,708,90 St-Elmhurst Av,-73.876613,40.748408,1584.6129397930342
12:00:30,2,709,82 St-Jackson Hts,-73.883697,40.747659,1505.2326581028933
12:00:30,1,710,74 St-Broadway,-73.891394,40.746848,1362.9843587831654
12:00:30,2,711,69 St,-73.896403,40.746325,1315.572594077283
12:00:30,1,712,61 St-Woodside,-73.902984,40.74563,1243.6641433730576
12:00:30,1,713,52 St,-73.912549,40.744149,1154.4789581878724
12:00:30,1,714,46 St-Bliss St,-73.918435,40.743132,1096.648449713296
12:00:30,1,715,40 St-Lowery St,-73.924016,40.743781,1041.3365853065163
12:00:30,1,716,33 St-Rawson St,-73.930997,40.744587,977.1693498116358
12:00:30,1,718,Queensboro Plaza,-73.940202,40.750582,805.8865979381443
12:00:30,1,719,Court Sq,-73.945264,40.747023,716.8865979381443
12:00:30,1,720,Hunters Point Av,-73.948916,40.742216,630.8865979381443
12:00:30,1,721,Vernon Blvd-Jackson Av,-73.953581,40.742626,602.8865979381443
12:16:30,1,723,Grand Central-42 St,-73.976041,40.751431,399.88659793814435
12:16:30,1,724,5 Av,-73.981963,40.753821,497.03709948486977
12:16:30,1,725,Times Sq-42 St,-73.987691,40.755477,589.9964275496346
12:16:30,1,726,34 St-Hudson Yards,-74.00191,40.755882,752.6196042618811
12:00:30,1,901,Grand Central-42 St,-73.979189,40.752769,354.88659793814435
12:00:30,1,902,Times Sq-42 St,-73.986229,40.755983,449.32659793814435
13:48:30,1,A02,Inwood-207 St,-73.919899,40.868072,2405.7630607872693
13:48:30,1,A03,Dyckman St,-73.927271,40.865491,2315.6900680865397
13:48:30,1,A05,190 St,-73.93418,40.859022,2192.0976767821917
13:48:30,1,A06,181 St,-73.937969,40.851695,2078.8623826645444
13:48:30,1,A07,175 St,-73.939704,40.847391,1982.1419525570177
13:48:30,1,A09,168 St,-73.939561,40.840719,1854.703449883221
13:48:30,1,A10,163 St-Amsterdam Av,-73.939892,40.836013,1875.6570457226887
13:48:30,1,A11,155 St,-73.941514,40.830518,1793.8237123893555
13:48:30,1,A12,145 St,-73.944216,40.824783,1609.8264445356274
12:56:30,1,A14,135 St,-73.947649,40.817894,1531.6622480811084
12:56:30,1,A15,125 St,-73.952343,40.811109,1384.202788621649
12:56:30,1,A16,116 St,-73.954882,40.805085,1508.038370852351
12:48:30,1,A17,Cathedral Pkwy (110 St),-73.958161,40.800603,1491.5826797523728
12:48:30,1,A18,103 St,-73.961454,40.796092,1417.6696362741118
12:48:30,1,A19,96 St,-73.964696,40.791642,1329.1377213804947
12:48:30,1,A20,86 St,-73.968916,40.785868,1234.1594605109296
12:48:30,1,A21,81 St-Museum of Natural History,-73.972143,40.781433,1142.3594605109295
12:48:30,1,A22,72 St,-73.97641,40.775594,1051.7507648587557
12:48:30,1,A24,59 St-Columbus Circle,-73.981736,40.768296,871.431049491214
12:56:30,1,A25,50 St,-73.985984,40.762456,809.5054562923815
13:40:30,1,A27,42 St-Port Authority Bus Terminal,-73.989735,40.757308,709.4256440858087
12:56:30,2,A28,34 St-Penn Station,-73.993391,40.752287,805.7159666664539
13:05:30,2,A30,23 St,-73.998041,40.745906,817.8689644523697
13:45:30,2,A31,14 St,-74.00169,40.740893,726.1993215952269
13:45:30,2,A32,W 4 St-Wash Sq,-74.000495,40.732338,838.3221286127707
12:05:30,2,A33,Spring St,-74.003739,40.726227,945.3923040513672
13:45:30,2,A34,Canal St,-74.005229,40.720824,1010.726508672094
13:33:30,1,A36,Chambers St,-74.008585,40.714111,1084.897551760065
12:17:30,1,A38,Fulton St,-74.007691,40.710197,987.4579913205046
13:21:30,1,A40,High St,-73.990531,40.699337,1171.0319043639827
13:21:30,1,A41,Jay St-MetroTech,-73.987342,40.692338,1112.9240559650823
13:21:30,1,A42,Hoyt-Schermerhorn Sts,-73.985001,40.688484,1366.5464064679047
12:57:30,1,A43,Lafayette Av,-73.973946,40.686113,1514.6745815538955
12:57:30,1,A44,Clinton-Washington Avs,-73.965838,40.683263,1599.3382179175317
12:57:30,1,A45,Franklin Av,-73.956848,40.68138,1705.463217917532
13:21:30,1,A46,Nostrand Av,-73.950426,40.680438,1677.3317224140756
12:57:30,1,A47,Kingston-Throop Avs,-73.940858,40.679921,1777.6858890807423
13:21:30,1,A48,Utica Av,-73.930729,40.679364,1848.1519471331767
12:57:30,1,A49,Ralph Av,-73.920786,40.678822,1941.3158754532853
12:41:30,1,A50,Rockaway Av,-73.911946,40.67834,1842.8695944615502
13:21:30,1,A51,Broadway Junction,-73.905316,40.678334,1758.7712338058122
13:33:30,1,A52,Liberty Av,-73.896548,40.674542,1892.7305833993082
13:33:30,1,A53,Van Siclen Av,-73.890358,40.67271,1987.9094451879262
13:33:30,1,A54,Shepherd Av,-73.88075,40.67413,2091.9826159196336
13:21:30,1,A55,Euclid Av,-73.872106,40.675377,2059.082861712789
13:21:30,1,A57,Grant Av,-73.86505,40.677044,2181.2654343268973
13:21:30,1,A59,80 St,-73.858992,40.679371,2278.617434326897
13:21:30,1,A60,88 St,-73.85147,40.679843,2374.577593689447
13:21:30,1,A61,Rockaway Blvd,-73.843853,40.680429,2464.9228317846855
13:57:30,1,A63,104 St,-73.837683,40.681711,2548.5948317846855
13:57:30,1,A64,111 St,-73.832163,40.684331,2634.725979325669
13:57:30,1,A65,Ozone Park-Lefferts Blvd,-73.825798,40.685951,2723.7892704649094
12:00:30,1,B04,21 St-Queensbridge,-73.942836,40.754203,969.9412856642113
12:00:30,1,B06,Roosevelt Island,-73.95326,40.759145,824.3210183765483
12:24:30,1,B08,Lexington Av/63 St,-73.966113,40.764629,724.1712856642114
12:04:30,1,B10,57 St,-73.97745,40.763972,902.0370994848698
13:57:30,1,B12,9 Av,-73.994324,40.646292,1957.0380043463397
13:57:30,1,B13,Fort Hamilton Pkwy,-73.994304,40.640914,2096.942330027409
13:57:30,1,B14,50 St,-73.994791,40.63626,2175.967807734415
13:57:30,1,B15,55 St,-73.995476,40.631435,2272.8660929742787
13:57:30,1,B16,62 St,-73.996895,40.626472,2341.697797489883
13:57:30,1,B17,71 St,-73.998864,40.619589,2444.188243349756
13:57:30,1,B18,79 St,-74.00061,40.613501,2550.7487529038963
13:57:30,1,B19,18 Av,-74.001736,40.607954,2632.342301290993
13:57:30,1,B20,20 Av,-73.998168,40.604556,2714.335807784499
13:57:30,1,B21,Bay Pkwy,-73.993728,40.601875,2791.8812623299536
13:57:30,1,B22,25 Av,-73.986829,40.597704,2910.9909397493084
13:57:30,1,B23,Bay 50 St,-73.983765,40.588841,3074.3370048343863
12:08:30,1,D01,Norwood-205 St,-73.878855,40.874811,2794.965319176008
12:08:30,1,D03,Bedford Park Blvd,-73.887138,40.873244,2623.4788326895214
12:08:30,1,D04,Kingsbridge Rd,-73.893509,40.866978,2506.3225826895214
12:08:30,1,D05,Fordham Rd,-73.897749,40.861296,2411.791114158053
12:08:30,1,D06,182-183 Sts,-73.900741,40.856093,2324.85720735689
12:08:30,1,D07,Tremont Av,-73.905227,40.85041,2246.7421631091024
12:08:30,1,D08,174-175 Sts,-73.910136,40.8459,2152.449059660826
12:08:30,1,D09,170 St,-73.9134,40.839306,2043.8165846089962
12:08:30,1,D10,167 St,-73.91844,40.833771,1936.3923421847537
12:56:30,1,D11,161 St-Yankee Stadium,-73.925651,40.827905,1804.3528715121465
12:56:30,1,D12,155 St,-73.938209,40.830135,1789.9064097060466
12:56:30,1,D13,145 St,-73.944216,40.824783,1674.818767339453
12:56:30,1,D14,7 Av,-73.981637,40.762862,716.8855295444184
12:20:30,1,D15,47-50 Sts-Rockefeller Ctr,-73.981329,40.758663,771.1717771651693
12:20:30,1,D16,42 St-Bryant Pk,-73.984569,40.754222,722.0370994848698
12:00:30,2,D17,34 St-Herald Sq,-73.987823,40.749719,787.0234711566386
12:01:30,1,D18,23 St,-73.992821,40.742878,767.5911992625181
12:05:30,1,D19,14 St,-73.996209,40.738228,690.9750855184423
12:01:30,1,D20,W 4 St-Wash Sq,-74.000495,40.732338,719.1002611433541
13:05:30,1,D21,Broadway-Lafayette St,-73.996204,40.725297,580.5002611433541
13:57:30,1,D22,Grand St,-73.993753,40.718267,708.9120258492366
12:13:30,1,D24,Atlantic Av-Barclays Ctr,-73.97689,40.68446,1295.9612588056107
12:13:30,1,D25,7 Av,-73.972367,40.67705,1426.4223987019836
12:13:30,1,D26,Prospect Park,-73.962246,40.661614,1607.5622950750408
12:21:30,1,D27,Parkside Av,-73.961495,40.655292,1689.4431240905847
12:13:30,1,D28,Church Av,-73.962982,40.650527,1761.1976429953518
12:21:30,1,D29,Beverley Rd,-73.964492,40.644031,1868.0693706049863
12:21:30,1,D30,Cortelyou Rd,-73.963891,40.640927,1946.264901331243
12:13:30,1,D31,Newkirk Plaza,-73.962793,40.635082,1940.7531985509072
12:21:30,1,D32,Avenue H,-73.961639,40.62927,2057.5763050278865
12:21:30,1,D33,Avenue J,-73.960803,40.625039,2144.89694696145
12:21:30,1,D34,Avenue M,-73.959399,40.617618,2249.0148956793983
12:13:30,1,D35,Kings Hwy,-73.957734,40.60867,2188.9087541064628
12:13:30,1,D37,Avenue U,-73.955929,40.5993,2402.3781418615645
12:13:30,1,D38,Neck Rd,-73.955161,40.595246,2501.9142243357915
12:13:30,1,D39,Sheepshead Bay,-73.954155,40.586896,2425.2754207731296
12:13:30,1,D40,Brighton Beach,-73.961376,40.577621,2561.817087439796
12:13:30,1,D41,Ocean Pkwy,-73.968501,40.576312,2694.8280800983403
12:13:30,1,D42,W 8 St-NY Aquarium,-73.975939,40.576127,2809.279693001566
12:13:30,1,D43,Coney Island-Stillwell Av,-73.981233,40.577422,2889.2352485571214
12:05:30,1,E01,World Trade Center,-74.009781,40.712582,1187.4307727074217
12:24:30,1,F01,Jamaica-179 St,-73.783817,40.712646,2328.826603727394
13:00:30,1,F02,169 St,-73.793604,40.71047,2336.5408894416796
12:12:30,1,F03,Parsons Blvd,-73.803326,40.707564,2161.6837465845365
12:12:30,1,F04,Sutphin Blvd,-73.810708,40.70546,2219.5408894416796
12:12:30,1,F05,Briarwood,-73.820574,40.709179,2062.5603069174076
12:00:30,1,F06,Kew Gardens-Union Tpke,-73.831008,40.714441,1934.5408894416796
12:12:30,1,F07,75 Av,-73.837324,40.718331,1831.2710200780052
12:00:30,1,F09,Court Sq-23 St,-73.946,40.747846,711.3665823599744
12:08:30,1,F11,Lexington Av/53 St,-73.969055,40.757552,520.4574914508835
12:56:30,1,F12,5 Av/53 St,-73.975224,40.760167,613.1414537150345
13:05:30,1,F14,2 Av,-73.989938,40.723402,677.9288325719256
13:05:30,1,F15,Delancey St-Essex St,-73.988114,40.718611,774.7706693066194
13:05:30,1,F16,East Broadway,-73.990173,40.713715,857.4771327128421
13:05:30,1,F18,York St,-73.986751,40.701397,1011.5580850937945
13:21:30,1,F20,Bergen St,-73.990862,40.686145,1245.7640559650822
13:21:30,1,F21,Carroll St,-73.995048,40.680303,1397.2340559650822
13:21:30,1,F22,Smith-9 Sts,-73.995959,40.67358,1523.9540559650823
13:21:30,1,F23,4 Av-9 St,-73.989779,40.670272,1617.4288034398298
13:21:30,1,F24,7 Av,-73.980305,40.666271,1585.6426834919873
13:21:30,1,F25,15 St-Prospect Park,-73.979493,40.660365,1753.5522668963163
13:21:30,1,F26,Fort Hamilton Pkwy,-73.975776,40.650782,1915.2114847734115
13:21:30,1,F27,Church Av,-73.979678,40.644041,1825.6426834919873
13:05:30,1,F29,Ditmas Av,-73.978172,40.636119,1945.6426834919876
13:05:30,1,F30,18 Av,-73.976971,40.629755,2065.6426834919876
13:05:30,1,F31,Avenue I,-73.976127,40.625322,2125.6426834919876
13:05:30,1,F32,Bay Pkwy,-73.975264,40.620769,2185.6426834919876
13:05:30,1,F33,Avenue N,-73.974197,40.61514,2305.6426834919876
13:05:30,1,F34,Avenue P,-73.973022,40.608944,2395.6426834919876
13:05:30,1,F35,Kings Hwy,-73.972361,40.603217,2569.30480547978
13:05:30,1,F36,Avenue U,-73.973357,40.596063,2677.9058693095676
12:13:30,1,F38,Avenue X,-73.97425,40.58962,2771.109077865717
12:13:30,1,F39,Neptune Av,-73.974574,40.581011,2885.580987978077
12:00:30,1,G05,Jamaica Center-Parsons/Archer,-73.801109,40.702147,2392.498924462974
12:00:30,1,G06,Sutphin Blvd-Archer Av-JFK Airport,-73.807969,40.700486,2301.214008261857
12:00:30,1,G07,Jamaica-Van Wyck,-73.816859,40.702566,2181.8621564100054
12:00:30,1,G08,Forest Hills-71 Av,-73.844521,40.721691,1722.83292483991
12:12:30,1,G09,67 Av,-73.852719,40.726523,1871.6026644511624
12:12:30,1,G10,63 Dr-Rego Park,-73.861604,40.729846,1794.5097520152212
12:12:30,1,G11,Woodhaven Blvd,-73.869229,40.733106,1690.87961502892
12:12:30,1,G12,Grand Av-Newtown,-73.877223,40.737015,1568.00461502892
12:12:30,1,G13,Elmhurst Av,-73.882017,40.742454,1468.4703684535775
12:00:30,1,G14,Jackson Hts-Roosevelt Av,-73.891338,40.746644,1294.7347105541955
12:12:30,1,G15,65 St,-73.898453,40.749669,1368.0665823599743
12:04:30,1,G16,Northern Blvd,-73.906006,40.752885,1265.7665823599743
12:04:30,1,G18,46 St,-73.913333,40.756312,1175.7665823599743
12:04:30,1,G19,Steinway St,-73.92074,40.756879,1055.7665823599743
12:04:30,1,G20,36 St,-73.928781,40.752039,935.7665823599744
12:00:30,1,G21,Queens Plaza,-73.937243,40.748973,815.7665823599744
12:12:30,2,G22,Court Sq,-73.943832,40.746554,896.8865979381443
12:12:30,2,G24,21 St,-73.949724,40.744065,986.1995750373809
12:12:30,2,G26,Greenpoint Av,-73.954449,40.731352,1127.596024741523
12:12:30,2,G28,Nassau Av,-73.951277,40.724635,1114.765856547036
12:12:30,2,G29,Metropolitan Av,-73.951418,40.712792,982.6838893339211
12:13:30,2,G30,Broadway,-73.950308,40.706092,1083.2654110730516
12:13:30,2,G31,Flushing Av,-73.950234,40.700377,1169.6600056676461
12:13:30,2,G32,Myrtle-Willoughby Avs,-73.949046,40.694568,1251.3843299919704
12:01:30,2,G33,Bedford-Nostrand Avs,-73.953522,40.689627,1363.3144375188522
12:37:30,1,G34,Classon Av,-73.96007,40.688873,1445.2418986587486
12:37:30,1,G35,Clinton-Washington Avs,-73.966839,40.688089,1529.1078780401917
12:37:30,1,G36,Fulton St,-73.975375,40.687119,1604.127661624668
12:41:30,1,H01,Aqueduct Racetrack,-73.834058,40.668234,2670.9545778164315
13:21:30,1,H02,Aqueduct-N Conduit Av,-73.834058,40.668234,2744.0236307560062
13:21:30,1,H03,Howard Beach-JFK Airport,-73.830301,40.660476,2842.1434667053204
13:21:30,1,H04,Broad Channel,-73.815925,40.608382,3260.0950796085463
13:21:30,1,H06,Beach 67 St,-73.796924,40.590927,3571.3845532927567
13:21:30,1,H07,Beach 60 St,-73.788522,40.592374,3674.831921713809
13:21:30,1,H08,Beach 44 St,-73.776013,40.592943,3778.31437785416
13:21:30,1,H09,Beach 36 St,-73.768175,40.595398,3875.559991889248
13:21:30,1,H10,Beach 25 St,-73.761353,40.600066,3975.9405228626993
13:21:30,1,H11,Far Rockaway-Mott Av,-73.755405,40.603995,4075.1071895293653
12:01:30,1,H12,Beach 90 St,-73.813641,40.588034,3511.395079608546
12:01:30,1,H13,Beach 98 St,-73.820558,40.585307,3589.795079608546
12:01:30,1,H14,Beach 105 St,-73.827559,40.583209,3665.9061907196574
12:01:30,1,H15,Rockaway Park-Beach 116 St,-73.835592,40.580903,3770.106190719657
12:00:30,1,J12,121 St,-73.828294,40.700492,2699.714008261857
12:00:30,1,J13,111 St,-73.836345,40.697418,2749.729163100419
12:00:30,1,J14,104 St,-73.84433,40.695178,2568.7712338058127
12:00:30,1,J15,Woodhaven Blvd,-73.851576,40.693879,2478.7712338058127
12:00:30,1,J16,85 St-Forest Pkwy,-73.86001,40.692435,2483.0023761657144
12:00:30,1,J17,75 St-Elderts Ln,-73.867139,40.691324,2298.7712338058127
12:00:30,1,J19,Cypress Hills,-73.87255,40.689941,2280.752376165715
13:09:30,2,J20,Crescent St,-73.873785,40.683194,2148.7712338058127
13:09:30,2,J21,Norwood Av,-73.880039,40.68141,2058.7712338058127
13:09:30,2,J22,Cleveland St,-73.884639,40.679947,2063.9507542256315
13:09:30,2,J23,Van Siclen Av,-73.891688,40.678024,1908.7712338058122
13:09:30,2,J24,Alabama Av,-73.898654,40.676992,1848.7712338058122
13:13:30,1,J27,Broadway Junction,-73.904512,40.679498,1745.4528465358385
12:09:30,2,J28,Chauncey St,-73.910456,40.682893,1814.0655489817073
13:13:30,1,J29,Halsey St,-73.916559,40.68637,1814.5872800400978
13:13:30,1,J30,Gates Av,-73.92227,40.68963,1668.1488823150407
13:13:30,1,J31,Kosciuszko St,-73.928814,40.693342,1632.4375794412954
12:05:30,1,L01,8 Av,-74.002578,40.739777,559.1466878328673
12:05:30,1,L02,6 Av,-73.996786,40.737335,465.97508551844226
12:05:30,1,L03,14 St-Union Sq,-73.99073,40.734789,389.67694887247956
12:09:30,1,L05,3 Av,-73.986122,40.732849,438.312732901605
12:09:30,1,L06,1 Av,-73.981628,40.730953,485.83474548022133
12:09:30,1,L08,Bedford Av,-73.956872,40.717304,692.9774158122619
12:09:30,1,L10,Lorimer St,-73.950275,40.714063,769.4696051523264
12:09:30,1,L11,Graham Av,-73.944053,40.714565,804.2340495967709
12:09:30,1,L12,Grand St,-73.94067,40.711926,883.9792725267071
12:09:30,1,L13,Montrose Av,-73.93985,40.707739,920.0012851053235
12:09:30,1,L14,Morgan Av,-73.933147,40.706152,1004.5637900049227
12:09:30,1,L15,Jefferson St,-73.922913,40.706607,1088.4454468096565
12:09:30,1,L16,DeKalb Av,-73.918425,40.703811,1154.1472540385719
12:09:30,1,L17,Myrtle-Wyckoff Avs,-73.911586,40.699814,1225.1563174826806
12:09:30,1,L19,Halsey St,-73.904084,40.695602,1269.2202905466538
12:09:30,1,L20,Wilson Av,-73.904046,40.688764,1386.1986856083822
12:09:30,1,L21,Bushwick Av-Aberdeen St,-73.905249,40.682829,1470.5354911639376
12:09:30,1,L22,Broadway Junction,-73.90324,40.678856,1520.4528465358385
12:09:30,1,L24,Atlantic Av,-73.903097,40.675345,1628.5300070296657
12:09:30,1,L25,Sutter Av,-73.901975,40.669367,1698.9023147219734
12:09:30,1,L26,Livonia Av,-73.900571,40.664038,1756.611293050147
12:09:30,1,L27,New Lots Av,-73.899232,40.658733,1805.7112930501469
12:09:30,1,L28,East 105 St,-73.899485,40.650573,1902.4377081444864
12:09:30,1,L29,Canarsie-Rockaway Pkwy,-73.90185,40.646654,2027.5018973336755
12:09:30,2,M01,Middle Village-Metropolitan Av,-73.889601,40.711396,1850.6078790435445
12:09:30,2,M04,Fresh Pond Rd,-73.895877,40.706186,1733.32486017562
12:09:30,2,M05,Forest Av,-73.903077,40.704423,1640.7385264404593
12:09:30,2,M06,Seneca Av,-73.90774,40.702762,1546.3742880298635
13:21:30,1,M08,Myrtle-Wyckoff Avs,-73.912385,40.69943,1450.1563174826806
12:41:30,1,M09,Knickerbocker Av,-73.919711,40.698664,1545.3551478920374
13:21:30,1,M10,Central Av,-73.927397,40.697857,1656.3433831861553
12:41:30,1,M11,Myrtle Av,-73.935657,40.697207,1500.982215648374
12:41:30,1,M12,Flushing Av,-73.941126,40.70026,1406.8054093769135
12:41:30,1,M13,Lorimer St,-73.947408,40.703869,1304.1231663862593
12:41:30,1,M14,Hewes St,-73.953431,40.70687,1213.0305737936667
12:41:30,1,M16,Marcy Av,-73.957757,40.708359,1132.8155489817073
12:41:30,1,M18,Delancey St-Essex St,-73.987437,40.718315,762.6690923121853
12:13:30,1,M19,Bowery,-73.993915,40.72028,837.3993826762778
12:13:30,1,M20,Canal St,-73.999892,40.718092,739.4115777982291
12:01:30,1,M21,Chambers St,-74.003401,40.713243,774.7527974344124
12:13:30,1,M22,Fulton St,-74.007582,40.710374,861.3070143018823
12:13:30,1,M23,Broad St,-74.011056,40.706476,928.0017511439876
12:05:30,1,N02,8 Av,-74.011719,40.635064,2129.8781530056767
12:05:30,1,N03,Fort Hamilton Pkwy,-74.005351,40.631386,2273.323239710879
12:05:30,1,N04,New Utrecht Av,-73.996353,40.624842,2409.612257051919
12:05:30,1,N05,18 Av,-73.990414,40.620671,2501.8839333524975
12:05:30,1,N06,20 Av,-73.985026,40.61741,2580.855762823305
12:05:30,1,N07,Bay Pkwy,-73.981848,40.611815,2670.855762823305
12:05:30,1,N08,Kings Hwy,-73.980353,40.603923,2786.6808984772742
12:05:30,1,N09,Avenue U,-73.979137,40.597473,2879.407642663321
12:05:30,1,N10,86 St,-73.97823,40.592721,2950.855762823305
12:05:30,1,Q01,Canal St,-74.00046,40.718383,652.8557628233053
12:16:30,1,Q03,72 St,-73.958424,40.768799,843.4801861877716
12:16:30,1,Q04,86 St,-73.951787,40.777891,991.1403578291597
12:16:30,1,Q05,96 St,-73.947152,40.784318,1069.0160229814164
12:16:30,1,R01,Astoria-Ditmars Blvd,-73.912034,40.775036,1491.8455706169104
12:16:30,1,R03,Astoria Blvd,-73.917843,40.770258,1390.6673527951284
12:16:30,1,R04,30 Av,-73.921479,40.766779,1290.8140194617952
12:16:30,1,R05,Broadway,-73.925508,40.76182,1194.2815519293274
12:16:30,1,R06,36 Av,-73.929575,40.756804,1099.4394466661695
12:16:30,1,R08,39 Av-Dutch Kills,-73.932755,40.752882,994.1194466661696
12:16:30,1,R09,Queensboro Plaza,-73.940202,40.750582,857.578906125629
12:04:30,1,R11,Lexington Av/59 St,-73.967258,40.76266,608.6858475557673
12:04:30,1,R13,5 Av/59 St,-73.973347,40.764811,697.1382267075765
12:04:30,1,R14,57 St-7 Av,-73.980658,40.764664,822.4338134403542
12:45:30,1,R15,49 St,-73.984139,40.759901,763.5265979381443
12:45:30,1,R16,Times Sq-42 St,-73.986754,40.754672,662.0603132619017
12:17:30,1,R17,34 St-Herald Sq,-73.98795,40.749567,562.0234711566386
12:33:30,1,R18,28 St,-73.988691,40.745494,562.3460063679062
12:33:30,1,R19,23 St,-73.989344,40.741303,481.1629077763569
12:29:30,1,R20,14 St-Union Sq,-73.990568,40.735736,395.4234711566386
12:01:30,1,R21,8 St-NYU,-73.992629,40.730328,496.4078461566385
12:01:30,1,R22,Prince St,-73.997702,40.724329,582.0953461566385
12:01:30,1,R23,Canal St,-74.001775,40.719527,681.8937957690416
12:13:30,1,R24,City Hall,-74.006978,40.713282,827.3861034613493
12:13:30,1,R25,Cortlandt St,-74.011029,40.710668,941.8288515529523
12:13:30,1,R26,Rector St,-74.013342,40.70722,1041.9204546063875
12:13:30,1,R27,Whitehall St-South Ferry,-74.012994,40.703087,1126.0037879397207
12:13:30,1,R28,Court St,-73.991777,40.6941,1325.4240559650823
12:13:30,1,R29,Jay St-MetroTech,-73.985942,40.69218,1247.9240559650823
12:13:30,1,R30,DeKalb Av,-73.981824,40.690635,1124.3499676617355
12:05:30,1,R31,Atlantic Av-Barclays Ctr,-73.97881,40.683666,1279.864351651729
12:17:30,1,R32,Union St,-73.98311,40.677316,1435.8486941552815
12:17:30,1,R33,4 Av-9 St,-73.988302,40.670847,1544.9802731026498
12:17:30,1,R34,Prospect Av,-73.992872,40.665414,1642.262324384701
12:17:30,1,R35,25 St,-73.998091,40.660397,1752.1710715452755
12:05:30,1,R36,36 St,-74.003549,40.655144,1664.726627100831
12:17:30,1,R39,45 St,-74.010006,40.648939,1880.54579376157
12:05:30,1,R40,53 St,-74.014034,40.645069,1988.7122947911153
12:05:30,1,R41,59 St,-74.017881,40.641362,1962.602290936711
12:17:30,1,R42,Bay Ridge Av,-74.023377,40.634967,2123.4122922329084
12:17:30,1,R43,77 St,-74.02551,40.629742,2203.6850195056354
12:17:30,1,R44,86 St,-74.028398,40.622687,2380.036209981826
12:57:30,1,R45,Bay Ridge-95 St,-74.030876,40.616622,2457.051958013322
12:05:30,1,S01,Franklin Av,-73.955827,40.680596,1885.463217917532
12:05:30,1,S03,Park Pl,-73.957624,40.674772,2008.338217917532
12:13:30,1,S04,Botanic Garden,-73.959245,40.670343,1927.5014190268635
