start_time,ntransfers,stop_id,stop_name,stop_lon,stop_lat,duration
12:08:00,2,101,Van Cortlandt Park-242 St,-73.898583,40.889248,3827.171408927468
12:08:00,2,103,238 St,-73.90087,40.884667,3705.6787251671203
12:08:00,2,104,231 St,-73.904834,40.878856,3602.0464381716047
12:08:00,2,106,Marble Hill-225 St,-73.909831,40.874561,3504.564456189623
12:08:00,2,107,215 St,-73.915279,40.869444,3415.7716633968303
12:08:00,2,108,207 St,-73.918822,40.864621,3326.0487196738864
12:08:00,2,109,Dyckman St,-73.925536,40.860531,3225.73594434349
12:08:00,2,110,191 St,-73.929412,40.855225,3141.8911167572833
12:23:00,2,111,181 St,-73.933596,40.849505,3050.8610738388284
12:23:00,1,112,168 St-Washington Hts,-73.940133,40.840556,2931.659357100631
12:23:00,1,113,157 St,-73.94489,40.834041,2832.3403915833896
12:23:00,1,114,145 St,-73.95036,40.826551,2715.0871726992696
12:23:00,1,115,137 St-City College,-73.953676,40.822008,2614.211104323201
12:23:00,1,116,125 St,-73.958372,40.815581,2518.8861043232014
12:23:00,1,117,116 St-Columbia University,-73.96411,40.807722,2404.656937656535
12:23:00,1,118,Cathedral Pkwy (110 St),-73.966847,40.803967,2325.7023922019894
12:23:00,1,119,103 St,-73.968379,40.799446,2246.1737036773993
12:03:00,1,120,96 St,-73.972323,40.793919,2000.4884051710158
12:03:00,1,121,86 St,-73.976218,40.788644,2035.772064333137
12:03:00,1,122,79 St,-73.979917,40.783934,1958.8980805932997
12:03:00,1,123,72 St,-73.98197,40.778453,1820.9539224123953
12:03:00,2,124,66 St-Lincoln Center,-73.982209,40.77344,1873.5978889950277
12:13:00,1,125,59 St-Columbus Circle,-73.981929,40.768247,1796.249574388286
12:13:00,1,126,50 St,-73.983849,40.761728,1692.5804014559553
13:23:00,1,127,Times Sq-42 St,-73.987495,40.75529,1560.389520488693
12:03:00,1,128,34 St-Penn Station,-73.991057,40.750373,1657.3162220593738
13:18:00,1,129,28 St,-73.993365,40.747215,1730.7315471563672
13:18:00,1,130,23 St,-73.995657,40.744081,1800.3058443451223
13:18:00,1,131,18 St,-73.997871,40.74104,1865.7600276120547
12:03:00,1,132,14 St,-74.000201,40.737826,1844.661795605754
12:43:00,1,133,Christopher St-Sheridan Sq,-74.002906,40.733422,2025.7878053898328
12:43:00,1,134,Houston St,-74.005367,40.728251,2111.668757770785
12:43:00,1,135,Canal St,-74.006277,40.722854,2206.9089152511
12:43:00,1,136,Franklin St,-74.006886,40.719318,2270.699429085092
12:03:00,1,137,Chambers St,-74.009266,40.715478,2105.002704696663
13:58:00,1,138,WTC Cortlandt,-74.012188,40.711835,2393.6738073990396
13:58:00,1,139,Rector St,-74.013783,40.707513,2470.1839288565297
13:58:00,1,142,South Ferry,-74.013664,40.702068,2573.2748379474388
12:03:00,2,201,Wakefield-241 St,-73.85062,40.903125,4130.4795656230435
12:03:00,2,204,Nereid Av,-73.854376,40.898379,3833.4637522610797
12:03:00,2,205,233 St,-73.857473,40.893193,3743.4637522610797
12:03:00,2,206,225 St,-73.860341,40.888022,3653.4637522610797
12:03:00,2,207,219 St,-73.862633,40.883895,3563.4637522610797
12:03:00,2,208,Gun Hill Rd,-73.866256,40.87785,3458.4637522610797
12:03:00,2,209,Burke Av,-73.867164,40.871356,3498.6194437497065
12:03:00,2,210,Allerton Av,-73.867352,40.865462,3406.4890089670976
12:03:00,2,211,Pelham Pkwy,-73.867615,40.857192,3289.46375226108
12:03:00,2,212,Bronx Park East,-73.868457,40.848828,3144.46375226108
12:03:00,2,213,E 180 St,-73.873488,40.841894,2967.0107480975325
12:03:00,2,214,West Farms Sq-E Tremont Av,-73.880049,40.840295,2864.8298853404604
12:03:00,2,215,174 St,-73.887734,40.837288,2734.7436784439087
12:03:00,2,216,Freeman St,-73.891865,40.829993,2614.906071606302
12:03:00,2,217,Simpson St,-73.893064,40.824073,2504.524715674099
12:03:00,2,218,Intervale Av,-73.896736,40.822181,2431.6009868605397
12:03:00,2,219,Prospect Av,-73.90177,40.819585,2345.7196309283363
12:03:00,2,220,Jackson Av,-73.907807,40.81649,2253.6608073989246
12:03:00,2,221,3 Av-149 St,-73.917757,40.816109,2131.9524740655916
12:03:00,2,222,149 St-Grand Concourse,-73.926718,40.81841,2016.8927725730543
12:03:00,1,224,135 St,-73.94077,40.814229,2482.364014690547
12:03:00,1,225,125 St,-73.945495,40.807754,2420.222095189699
12:03:00,1,226,116 St,-73.949625,40.802098,2324.2425033529644
12:03:00,1,227,Central Park North (110 St),-73.951822,40.799075,2255.8700543733726
12:03:00,1,228,Park Place,-74.008811,40.713051,2192.122704696663
12:03:00,1,229,Fulton St,-74.006571,40.709416,2301.2219170524604
12:03:00,1,230,Wall St,-74.0091,40.706821,2374.3318646964394
12:03:00,1,231,Clark St,-73.993086,40.697466,2558.040741892338
12:03:00,1,232,Borough Hall,-73.989998,40.693219,2670.337038188634
12:03:00,1,233,Hoyt St,-73.985065,40.690545,2622.6591604721043
12:13:00,1,234,Nevins St,-73.980492,40.688246,2498.1452128018277
12:13:00,1,235,Atlantic Av-Barclays Ctr,-73.977666,40.684359,2588.3229905796056
12:23:00,2,236,Bergen St,-73.975098,40.680829,2698.1634602013346
12:33:00,1,237,Grand Army Plaza,-73.971046,40.675235,2805.506212327591
12:33:00,1,238,Eastern Pkwy-Brooklyn Museum,-73.964375,40.671987,2914.6363493138924
12:13:00,1,239,Franklin Av-Medgar Evers College,-73.958131,40.670682,2902.1052128018277
12:33:00,1,241,President St-Medgar Evers College,-73.950683,40.667883,3085.1462363653386
12:33:00,1,242,Sterling St,-73.95085,40.662742,3175.6173902114924
12:33:00,1,243,Winthrop St,-73.9502,40.656652,3260.769771163873
12:33:00,1,244,Church Av,-73.949575,40.650843,3342.622043891146
12:33:00,1,245,Beverly Rd,-73.948959,40.645098,3424.056006155297
12:33:00,1,246,Newkirk Av-Little Haiti,-73.948411,40.639967,3510.0560061552965
12:33:00,1,247,Flatbush Av-Brooklyn College,-73.947642,40.632836,3627.3928482605597
12:33:00,1,248,Nostrand Av,-73.950466,40.669847,3016.543809293056
12:33:00,1,249,Kingston Av,-73.942161,40.669399,3102.1688092930563
12:13:00,1,250,Crown Hts-Utica Av,-73.932942,40.668897,3130.697141052949
12:33:00,1,251,Sutter Av-Rutland Rd,-73.92261,40.664717,3267.6971410529486
12:23:00,3,252,Saratoga Av,-73.916327,40.661453,3168.820964968007
12:23:00,3,253,Rockaway Av,-73.908946,40.662549,3079.8797884974188
12:03:00,3,254,Junius St,-73.902447,40.663515,2998.0366512425167
12:03:00,3,255,Pennsylvania Av,-73.894895,40.664635,3095.2523375170267
12:03:00,3,256,Van Siclen Av,-73.889395,40.665449,3169.7621414385953
12:03:00,3,257,New Lots Av,-73.884079,40.666235,3240.536651242517
12:23:00,1,301,Harlem-148 St,-73.93647,40.82388,2776.1913057160145
12:23:00,1,302,145 St,-73.936245,40.820421,2661.8070951896984
12:08:00,2,401,Woodlawn,-73.878751,40.886037,3287.545882409916
12:08:00,2,402,Mosholu Pkwy,-73.884655,40.87975,3165.9731951852464
12:08:00,2,405,Bedford Park Blvd-Lehman College,-73.890064,40.873412,3028.330953805936
12:08:00,2,406,Kingsbridge Rd,-73.897174,40.86776,2916.84168341967
12:08:00,2,407,Fordham Rd,-73.901034,40.862803,2832.3293883377028
12:08:00,2,408,183 St,-73.903879,40.858407,2752.5212250723966
12:08:00,2,409,Burnside Av,-73.907684,40.853453,2657.1228848234337
12:08:00,2,410,176 St,-73.911794,40.84848,2568.6374076450106
12:08:00,2,411,Mt Eden Av,-73.914685,40.844434,2490.926663843358
12:08:00,2,412,170 St,-73.917791,40.840075,2411.3853415293083
12:08:00,2,413,167 St,-73.9214,40.835537,2323.4766278363622
12:08:00,2,414,161 St-Yankee Stadium,-73.925831,40.827994,2215.4808119367804
12:08:00,2,415,149 St-Grand Concourse,-73.927351,40.818375,2006.1975610008897
12:08:00,2,416,138 St-Grand Concourse,-73.929849,40.813224,1859.7540864416674
12:13:00,1,418,Fulton St,-74.009509,40.710368,1958.2942847206123
12:13:00,1,419,Wall St,-74.011862,40.707557,2035.5057384651057
12:13:00,1,420,Bowling Green,-74.014065,40.704817,2109.496564153179
12:13:00,1,423,Borough Hall,-73.990151,40.692404,2377.726293882909
12:03:00,2,501,Eastchester-Dyre Av,-73.830834,40.8883,3742.610788426535
12:03:00,2,502,Baychester Av,-73.838591,40.878663,3612.2481510638972
12:03:00,2,503,Gun Hill Rd,-73.846384,40.869526,3453.4793338595964
12:03:00,2,504,Pelham Pkwy,-73.855359,40.858985,3296.1206382074224
12:03:00,2,505,Morris Park,-73.860495,40.854364,3208.439319526104
12:08:00,2,601,Pelham Bay Park,-73.828121,40.852462,3512.1184245133213
12:08:00,2,602,Buhre Av,-73.832569,40.84681,3328.6914741587116
12:08:00,2,603,Middletown Rd,-73.836322,40.843863,3219.858140825378
12:23:00,2,604,Westchester Sq-E Tremont Av,-73.842952,40.839892,3075.108140825378
12:08:00,2,606,Zerega Av,-73.847036,40.836488,2977.0248074920446
12:23:00,2,607,Castle Hill Av,-73.851222,40.834255,2909.6914741587116
12:23:00,2,608,Parkchester,-73.860816,40.833226,2753.6914741587116
12:23:00,2,609,St Lawrence Av,-73.867618,40.831509,2991.6288406428303
12:23:00,2,610,Morrison Av-Soundview,-73.874516,40.829521,2906.561111559165
12:23:00,2,611,Elder Av,-73.879159,40.828584,2841.3971115591653
12:23:00,2,612,Whitlock Av,-73.886283,40.826525,2735.057111559165
12:23:00,2,613,Hunts Point Av,-73.890549,40.820948,2497.3068587740963
12:08:00,2,614,Longwood Av,-73.896435,40.816104,2579.5990420108005
12:08:00,2,615,E 149 St,-73.904098,40.812118,2478.4907086774674
12:08:00,2,616,E 143 St-St Mary's St,-73.907657,40.808719,2403.648385026015
12:08:00,2,617,Cypress Av,-73.914042,40.805368,2304.7278829339652
12:08:00,2,618,Brook Av,-73.91924,40.807566,2235.1690594045535
12:08:00,2,619,3 Av-138 St,-73.926138,40.810476,2118.2299356971735
12:08:00,2,621,125 St,-73.937594,40.804138,1691.3727914776387
12:23:00,2,622,116 St,-73.941617,40.798629,1833.6685421645113
12:23:00,2,623,110 St,-73.94425,40.79502,1753.7176649715288
12:23:00,2,624,103 St,-73.947478,40.7906,1677.3457351469674
12:23:00,2,625,96 St,-73.95107,40.785672,1590.875559708371
12:53:00,2,626,86 St,-73.955589,40.779492,1406.977108024401
12:23:00,2,627,77 St,-73.959874,40.77362,1386.4237886536312
12:23:00,2,628,68 St-Hunter College,-73.96387,40.768141,1296.5498390737991
12:23:00,2,629,59 St,-73.967967,40.762526,1205.3136099626327
12:23:00,2,630,51 St,-73.97192,40.757107,1300.9802766292994
12:23:00,2,631,Grand Central-42 St,-73.976848,40.751776,1310.0000000000002
12:03:00,1,632,33 St,-73.982076,40.746081,1418.030927835052
12:03:00,1,633,28 St,-73.984264,40.74307,1484.8865979381444
12:03:00,1,634,23 St,-73.986599,40.739864,1548.139157665107
12:13:00,1,635,14 St-Union Sq,-73.989951,40.734673,1557.1987577639752
12:03:00,1,636,Astor Pl,-73.99107,40.730054,1762.4415631633888
12:03:00,1,637,Bleecker St,-73.994659,40.725915,1853.1582867128766
12:03:00,1,638,Spring St,-73.997141,40.722301,1922.3079465768221
12:13:00,1,639,Canal St,-74.000193,40.718803,1996.084973603849
12:13:00,1,640,Brooklyn Bridge-City Hall,-74.004131,40.713065,1847.3383375840485
12:00:00,0,701,Flushing-Main St,-73.83003,40.7596,385.9895238095238
12:00:00,0,702,Mets-Willets Point,-73.845625,40.754622,209.68
12:00:00,0,705,111 St,-73.855334,40.75173,143.9593418113861
12:00:00,0,706,103 St-Corona Plaza,-73.8627,40.749865,50.333333333333336
12:00:00,0,707,Junction Blvd,-73.869527,40.749145,0.0
12:03:00,0,708,90 St-Elmhurst Av,-73.876613,40.748408,62.090140845070415
12:03:00,0,709,82 St-Jackson Hts,-73.883697,40.747659,129.34468629961586
12:03:00,0,710,74 St-Broadway,-73.891394,40.746848,215.91271351050023
12:03:00,0,711,69 St,-73.896403,40.746325,341.8170123824178
12:03:00,0,712,61 St-Woodside,-73.902984,40.74563,240.0
12:03:00,0,713,52 St,-73.912549,40.744149,409.7092491583849
12:03:00,0,714,46 St-Bliss St,-73.918435,40.743132,467.5397576329612
12:03:00,0,715,40 St-Lowery St,-73.924016,40.743781,522.8516220397408
12:03:00,0,716,33 St-Rawson St,-73.930997,40.744587,587.0188575346214
12:03:00,0,718,Queensboro Plaza,-73.940202,40.750582,679.0
12:03:00,0,719,Court Sq,-73.945264,40.747023,768.0
12:03:00,0,720,Hunters Point Av,-73.948916,40.742216,854.0
12:03:00,0,721,Vernon Blvd-Jackson Av,-73.953581,40.742626,882.0000000000001
12:03:00,0,723,Grand Central-42 St,-73.976041,40.751431,1085.0000000000002
12:03:00,0,724,5 Av,-73.981963,40.753821,1274.009713016464
12:03:00,0,725,Times Sq-42 St,-73.987691,40.755477,1335.5
12:03:00,0,726,34 St-Hudson Yards,-74.00191,40.755882,1465.5
12:03:00,1,901,Grand Central-42 St,-73.979189,40.752769,1358.6200282027107
12:03:00,1,902,Times Sq-42 St,-73.986229,40.755983,1453.0600282027108
13:38:00,1,A02,Inwood-207 St,-73.919899,40.868072,3294.604767556099
13:38:00,1,A03,Dyckman St,-73.927271,40.865491,3204.5317748553693
13:38:00,1,A05,190 St,-73.93418,40.859022,3080.9393835510214
13:38:00,1,A06,181 St,-73.937969,40.851695,2967.704089433374
13:38:00,1,A07,175 St,-73.939704,40.847391,2870.9836593258474
12:23:00,1,A09,168 St,-73.939561,40.840719,2743.5451566520505
13:38:00,1,A10,163 St-Amsterdam Av,-73.939892,40.836013,2740.2865934928595
13:38:00,1,A11,155 St,-73.941514,40.830518,2658.4532601595265
12:23:00,1,A12,145 St,-73.944216,40.824783,2498.6681513044573
12:08:00,1,A14,135 St,-73.947649,40.817894,2420.503954849938
12:23:00,1,A15,125 St,-73.952343,40.811109,2248.8323363918203
12:08:00,1,A16,116 St,-73.954882,40.805085,2372.6679186225224
12:08:00,1,A17,Cathedral Pkwy (110 St),-73.958161,40.800603,2366.8185342951347
12:08:00,1,A18,103 St,-73.961454,40.796092,2283.566012326064
12:08:00,1,A19,96 St,-73.964696,40.791642,2198.812765572817
12:08:00,1,A20,86 St,-73.968916,40.785868,2096.931186625449
12:08:00,1,A21,81 St-Museum of Natural History,-73.972143,40.781433,2000.9045199587822
12:08:00,1,A22,72 St,-73.97641,40.775594,1912.024519958782
12:08:00,1,A24,59 St-Columbus Circle,-73.981736,40.768296,1760.272756260044
12:08:00,1,A25,50 St,-73.985984,40.762456,1575.2590567663701
13:23:00,1,A27,42 St-Port Authority Bus Terminal,-73.989735,40.757308,1584.6614986285704
13:23:00,1,A28,34 St-Penn Station,-73.993391,40.752287,1694.5576734352837
13:23:00,1,A30,23 St,-73.998041,40.745906,1797.8187818310694
13:23:00,1,A31,14 St,-74.00169,40.740893,1836.7082110696922
13:23:00,1,A32,W 4 St-Wash Sq,-74.000495,40.732338,1961.110384982736
13:23:00,1,A33,Spring St,-74.003739,40.726227,2101.007110396033
13:23:00,1,A34,Canal St,-74.005229,40.720824,2139.534298026214
13:23:00,1,A36,Chambers St,-74.008585,40.714111,2259.860384982736
13:23:00,1,A38,Fulton St,-74.007691,40.710197,2181.2219170524604
13:23:00,1,A40,High St,-73.990531,40.699337,2364.7958300959385
13:58:00,1,A41,Jay St-MetroTech,-73.987342,40.692338,2489.2827866176776
12:03:00,1,A42,Hoyt-Schermerhorn Sts,-73.985001,40.688484,2147.678741068099
12:03:00,1,A43,Lafayette Av,-73.973946,40.686113,2506.9559032760653
12:03:00,1,A44,Clinton-Washington Avs,-73.965838,40.683263,2591.6195396397015
12:03:00,1,A45,Franklin Av,-73.956848,40.68138,2697.7445396397015
13:03:00,1,A46,Nostrand Av,-73.950426,40.680438,2673.575539351288
12:03:00,1,A47,Kingston-Throop Avs,-73.940858,40.679921,2773.9297060179547
13:03:00,1,A48,Utica Av,-73.930729,40.679364,2844.3957640703893
12:03:00,1,A49,Ralph Av,-73.920786,40.678822,2852.741233645655
12:03:00,1,A50,Rockaway Av,-73.911946,40.67834,2754.2949526539196
13:03:00,1,A51,Broadway Junction,-73.905316,40.678334,2670.196591998182
13:08:00,1,A52,Liberty Av,-73.896548,40.674542,2804.155941591678
13:08:00,1,A53,Van Siclen Av,-73.890358,40.67271,2899.334803380296
13:03:00,1,A54,Shepherd Av,-73.88075,40.67413,3003.407974112003
13:03:00,1,A55,Euclid Av,-73.872106,40.675377,2970.508219905159
13:03:00,1,A57,Grant Av,-73.86505,40.677044,3092.690792519267
13:03:00,1,A59,80 St,-73.858992,40.679371,3190.042792519267
13:03:00,1,A60,88 St,-73.85147,40.679843,3286.002951881817
13:03:00,1,A61,Rockaway Blvd,-73.843853,40.680429,3376.348189977055
13:03:00,1,A63,104 St,-73.837683,40.681711,3460.020189977055
13:03:00,1,A64,111 St,-73.832163,40.684331,3546.151337518039
13:03:00,1,A65,Ozone Park-Lefferts Blvd,-73.825798,40.685951,3635.214628657279
13:58:00,1,B04,21 St-Queensbridge,-73.942836,40.754203,803.6852271385062
13:58:00,1,B06,Roosevelt Island,-73.95326,40.759145,879.4663736353216
13:58:00,1,B08,Lexington Av/63 St,-73.966113,40.764629,1056.7163736353216
13:58:00,1,B10,57 St,-73.97745,40.763972,1248.88157816934
12:03:00,1,B12,9 Av,-73.994324,40.646292,3314.8290388900846
12:03:00,1,B13,Fort Hamilton Pkwy,-73.994304,40.640914,3416.8691996788307
12:03:00,1,B14,50 St,-73.994791,40.63626,3495.894677385837
12:03:00,1,B15,55 St,-73.995476,40.631435,3595.6526391692764
12:03:00,1,B16,62 St,-73.996895,40.626472,3661.6246671413046
12:03:00,1,B17,71 St,-73.998864,40.619589,3764.1151130011776
12:03:00,1,B18,79 St,-74.00061,40.613501,3870.6756225553177
12:03:00,1,B19,18 Av,-74.001736,40.607954,3952.2691709424143
12:03:00,1,B20,20 Av,-73.998168,40.604556,4034.262677435921
12:03:00,1,B21,Bay Pkwy,-73.993728,40.601875,4111.8081319813755
13:23:00,1,B22,25 Av,-73.986829,40.597704,4230.91780940073
13:23:00,1,B23,Bay 50 St,-73.983765,40.588841,4429.489237972159
12:03:00,1,D01,Norwood-205 St,-73.878855,40.874811,3431.0932596006423
12:03:00,1,D03,Bedford Park Blvd,-73.887138,40.873244,3259.6067731141557
12:03:00,1,D04,Kingsbridge Rd,-73.893509,40.866978,3142.4505231141557
12:03:00,1,D05,Fordham Rd,-73.897749,40.861296,3047.9190545826873
12:03:00,1,D06,182-183 Sts,-73.900741,40.856093,2960.985147781524
13:13:00,1,D07,Tremont Av,-73.905227,40.85041,2882.8701035337363
13:13:00,1,D08,174-175 Sts,-73.910136,40.8459,2788.5770000854604
13:13:00,1,D09,170 St,-73.9134,40.839306,2679.9445250336303
13:13:00,1,D10,167 St,-73.91844,40.833771,2572.520282609388
13:13:00,1,D11,161 St-Yankee Stadium,-73.925651,40.827905,2440.4808119367804
13:13:00,1,D12,155 St,-73.938209,40.830135,2565.2092069985088
13:13:00,1,D13,145 St,-73.944216,40.824783,2484.2335709597214
12:08:00,1,D14,7 Av,-73.981637,40.762862,1434.4083780333385
13:58:00,1,D15,47-50 Sts-Rockefeller Ctr,-73.981329,40.758663,1343.685227138506
13:58:00,1,D16,42 St-Bryant Pk,-73.984569,40.754222,1433.685227138506
13:58:00,1,D17,34 St-Herald Sq,-73.987823,40.749719,1523.685227138506
13:58:00,1,D18,23 St,-73.992821,40.742878,1643.685227138506
13:58:00,1,D19,14 St,-73.996209,40.738228,1748.685227138506
13:58:00,1,D20,W 4 St-Wash Sq,-74.000495,40.732338,1757.7965575463681
12:03:00,1,D21,Broadway-Lafayette St,-73.996204,40.725297,1900.4271307947758
12:03:00,1,D22,Grand St,-73.993753,40.718267,2037.0371936878576
13:18:00,1,D24,Atlantic Av-Barclays Ctr,-73.97689,40.68446,2676.538307502467
13:18:00,1,D25,7 Av,-73.972367,40.67705,2808.901943866103
13:18:00,1,D26,Prospect Park,-73.962246,40.661614,2988.651943866103
13:18:00,1,D27,Parkside Av,-73.961495,40.655292,3150.2142258167155
12:08:00,1,D28,Church Av,-73.962982,40.650527,3120.168797798687
13:18:00,1,D29,Beverley Rd,-73.964492,40.644031,3227.0405254083216
13:18:00,1,D30,Cortelyou Rd,-73.963891,40.640927,3305.236056134579
12:08:00,1,D31,Newkirk Plaza,-73.962793,40.635082,3299.724353354243
12:08:00,1,D32,Avenue H,-73.961639,40.62927,3416.547459831222
12:08:00,1,D33,Avenue J,-73.960803,40.625039,3503.8681017647855
12:08:00,1,D34,Avenue M,-73.959399,40.617618,3607.9860504827343
12:08:00,1,D35,Kings Hwy,-73.957734,40.60867,3547.8799089097984
13:38:00,1,D37,Avenue U,-73.955929,40.5993,3761.3492966649005
13:38:00,1,D38,Neck Rd,-73.955161,40.595246,3860.8853791391275
12:08:00,1,D39,Sheepshead Bay,-73.954155,40.586896,3784.246575576465
13:38:00,1,D40,Brighton Beach,-73.961376,40.577621,3920.7882422431317
13:38:00,1,D41,Ocean Pkwy,-73.968501,40.576312,4053.799234901676
13:38:00,1,D42,W 8 St-NY Aquarium,-73.975939,40.576127,4130.094498188351
13:38:00,1,D43,Coney Island-Stillwell Av,-73.981233,40.577422,4246.094498188351
12:08:00,1,E01,World Trade Center,-74.009781,40.712582,2326.678317059082
12:53:00,1,F01,Jamaica-179 St,-73.783817,40.712646,1477.7771203117045
13:13:00,1,F02,169 St,-73.793604,40.71047,1427.5295667611476
12:48:00,1,F03,Parsons Blvd,-73.803326,40.707564,1310.6342631688474
12:48:00,1,F04,Sutphin Blvd,-73.810708,40.70546,1313.685227138506
12:48:00,1,F05,Briarwood,-73.820574,40.709179,1193.685227138506
12:23:00,1,F06,Kew Gardens-Union Tpke,-73.831008,40.714441,1073.685227138506
12:48:00,1,F07,75 Av,-73.837324,40.718331,963.472918903627
12:08:00,1,F09,Court Sq-23 St,-73.946,40.747846,1013.138121917494
12:08:00,1,F11,Lexington Av/53 St,-73.969055,40.757552,1217.9624462418183
12:08:00,1,F12,5 Av/53 St,-73.975224,40.760167,1319.2726314270037
13:58:00,1,F14,2 Av,-73.989938,40.723402,2123.685227138506
13:58:00,1,F15,Delancey St-Essex St,-73.988114,40.718611,2226.448026923582
13:58:00,1,F16,East Broadway,-73.990173,40.713715,2308.1705149618597
13:58:00,1,F18,York St,-73.986751,40.701397,2462.2514673428122
12:03:00,1,F20,Bergen St,-73.990862,40.686145,2278.9936581951706
12:03:00,1,F21,Carroll St,-73.995048,40.680303,2374.1373046040108
12:03:00,1,F22,Smith-9 Sts,-73.995959,40.67358,2511.7071370062454
12:03:00,1,F23,4 Av-9 St,-73.989779,40.670272,2598.3293592284676
12:03:00,1,F24,7 Av,-73.980305,40.666271,2716.2626925618006
12:03:00,1,F25,15 St-Prospect Park,-73.979493,40.660365,2836.007137006245
12:03:00,1,F26,Fort Hamilton Pkwy,-73.975776,40.650782,2997.6663548833403
12:03:00,1,F27,Church Av,-73.979678,40.644041,3003.7611648550187
13:58:00,1,F29,Ditmas Av,-73.978172,40.636119,3124.427831521685
13:58:00,1,F30,18 Av,-73.976971,40.629755,3244.427831521685
13:58:00,1,F31,Avenue I,-73.976127,40.625322,3304.427831521685
13:58:00,1,F32,Bay Pkwy,-73.975264,40.620769,3364.427831521685
13:58:00,1,F33,Avenue N,-73.974197,40.61514,3484.427831521685
13:58:00,1,F34,Avenue P,-73.973022,40.608944,3574.427831521685
13:58:00,1,F35,Kings Hwy,-73.972361,40.603217,3727.0944981883517
13:58:00,1,F36,Avenue U,-73.973357,40.596063,3843.7611648550187
13:58:00,1,F38,Avenue X,-73.97425,40.58962,3905.4278315216848
12:18:00,1,F39,Neptune Av,-73.974574,40.581011,4045.4278315216843
12:23:00,1,G05,Jamaica Center-Parsons/Archer,-73.801109,40.702147,1541.4494410472853
12:23:00,1,G06,Sutphin Blvd-Archer Av-JFK Airport,-73.807969,40.700486,1450.164524846168
12:23:00,1,G07,Jamaica-Van Wyck,-73.816859,40.702566,1330.8126729943162
12:23:00,1,G08,Forest Hills-71 Av,-73.844521,40.721691,861.3518938051728
12:13:00,1,G09,67 Av,-73.852719,40.726523,932.0800115450402
12:13:00,1,G10,63 Dr-Rego Park,-73.861604,40.729846,840.9427566430794
12:13:00,1,G11,Woodhaven Blvd,-73.869229,40.733106,750.0008211592085
12:13:00,1,G12,Grand Av-Newtown,-73.877223,40.737015,653.6852271385062
12:13:00,1,G13,Elmhurst Av,-73.882017,40.742454,553.260390537199
12:08:00,1,G14,Jackson Hts-Roosevelt Av,-73.891338,40.746644,443.6852271385062
12:03:00,1,G15,65 St,-73.898453,40.749669,524.8813055698787
12:03:00,1,G16,Northern Blvd,-73.906006,40.752885,620.7963382496173
12:03:00,1,G18,46 St,-73.913333,40.756312,710.9420336138556
12:03:00,1,G19,Steinway St,-73.92074,40.756879,816.8691859317365
12:38:00,1,G20,36 St,-73.928781,40.752039,954.922340540568
12:08:00,1,G21,Queens Plaza,-73.937243,40.748973,885.1336576317798
12:23:00,1,G22,Court Sq,-73.943832,40.746554,948.0
12:03:00,1,G24,21 St,-73.949724,40.744065,1037.3129770992368
12:03:00,1,G26,Greenpoint Av,-73.954449,40.731352,1178.7094268033788
12:03:00,1,G28,Nassau Av,-73.951277,40.724635,1285.628967033264
12:03:00,1,G29,Metropolitan Av,-73.951418,40.712792,1424.2899839824165
12:03:00,1,G30,Broadway,-73.950308,40.706092,1510.0683930733255
12:03:00,1,G31,Flushing Av,-73.950234,40.700377,1602.517256709689
12:03:00,1,G32,Myrtle-Willoughby Avs,-73.949046,40.694568,1688.6877112551438
12:03:00,1,G33,Bedford-Nostrand Avs,-73.953522,40.689627,1790.3127112551438
12:03:00,1,G34,Classon Av,-73.96007,40.688873,1867.3071863932655
12:03:00,1,G35,Clinton-Washington Avs,-73.966839,40.688089,1948.400082568129
12:03:00,1,G36,Fulton St,-73.975375,40.687119,2040.6842355735935
12:13:00,1,H01,Aqueduct Racetrack,-73.834058,40.668234,3582.3799360088015
13:58:00,1,H02,Aqueduct-N Conduit Av,-73.834058,40.668234,3655.448988948376
13:58:00,1,H03,Howard Beach-JFK Airport,-73.830301,40.660476,3753.56882489769
13:58:00,1,H04,Broad Channel,-73.815925,40.608382,4171.520437800916
13:58:00,1,H06,Beach 67 St,-73.796924,40.590927,4482.809911485127
13:58:00,1,H07,Beach 60 St,-73.788522,40.592374,4586.25727990618
13:58:00,1,H08,Beach 44 St,-73.776013,40.592943,4689.73973604653
13:58:00,1,H09,Beach 36 St,-73.768175,40.595398,4786.985350081619
13:58:00,1,H10,Beach 25 St,-73.761353,40.600066,4887.36588105507
13:58:00,1,H11,Far Rockaway-Mott Av,-73.755405,40.603995,4986.532547721736
13:58:00,1,H12,Beach 90 St,-73.813641,40.588034,4422.820437800916
13:58:00,1,H13,Beach 98 St,-73.820558,40.585307,4501.220437800916
13:58:00,1,H14,Beach 105 St,-73.827559,40.583209,4577.331548912027
13:58:00,1,H15,Rockaway Park-Beach 116 St,-73.835592,40.580903,4681.531548912028
12:08:00,1,J12,121 St,-73.828294,40.700492,1848.664524846168
12:08:00,1,J13,111 St,-73.836345,40.697418,1898.67967968473
12:08:00,1,J14,104 St,-73.84433,40.695178,2018.67967968473
12:08:00,1,J15,Woodhaven Blvd,-73.851576,40.693879,2108.6796796847298
12:08:00,1,J16,85 St-Forest Pkwy,-73.86001,40.692435,2404.3614984084084
12:08:00,1,J17,75 St-Elderts Ln,-73.867139,40.691324,2440.164524846168
12:08:00,1,J19,Cypress Hills,-73.87255,40.689941,2606.6114984084084
12:08:00,1,J20,Crescent St,-73.873785,40.683194,2590.164524846168
12:08:00,1,J21,Norwood Av,-73.880039,40.68141,2680.164524846168
12:08:00,1,J22,Cleveland St,-73.884639,40.679947,2774.2254984084084
12:08:00,1,J23,Van Siclen Av,-73.891688,40.678024,2820.196591998182
12:08:00,1,J24,Alabama Av,-73.898654,40.676992,2760.196591998182
12:08:00,1,J27,Broadway Junction,-73.904512,40.679498,2656.8782047282084
12:08:00,1,J28,Chauncey St,-73.910456,40.682893,2730.196591998182
12:08:00,1,J29,Halsey St,-73.916559,40.68637,2852.5418300934202
12:08:00,1,J30,Gates Av,-73.92227,40.68963,2880.196591998182
12:38:00,1,J31,Kosciuszko St,-73.928814,40.693342,2847.590069551842
12:03:00,2,L01,8 Av,-74.002578,40.739777,1956.5524091917146
12:08:00,2,L02,6 Av,-73.996786,40.737335,1847.4579341915082
12:03:00,2,L03,14 St-Union Sq,-73.99073,40.734789,1771.1597975455456
12:03:00,2,L05,3 Av,-73.986122,40.732849,1835.7184542604523
12:03:00,2,L06,1 Av,-73.981628,40.730953,1876.5484103819847
12:03:00,2,L08,Bedford Av,-73.956872,40.717304,1766.9317666648415
12:03:00,2,L10,Lorimer St,-73.950275,40.714063,1692.2629563754524
12:03:00,2,L11,Graham Av,-73.944053,40.714565,1727.027400819897
12:03:00,2,L12,Grand St,-73.94067,40.711926,1806.7726237498332
12:03:00,2,L13,Montrose Av,-73.93985,40.707739,1842.7946363284495
12:03:00,2,L14,Morgan Av,-73.933147,40.706152,1915.9891481972925
12:03:00,2,L15,Jefferson St,-73.922913,40.706607,1999.8708050020261
12:03:00,2,L16,DeKalb Av,-73.918425,40.703811,2065.572612230942
12:03:00,2,L17,Myrtle-Wyckoff Avs,-73.911586,40.699814,2136.5816756750505
12:03:00,2,L19,Halsey St,-73.904084,40.695602,2180.6456487390237
12:03:00,2,L20,Wilson Av,-73.904046,40.688764,2297.624043800752
12:03:00,2,L21,Bushwick Av-Aberdeen St,-73.905249,40.682829,2381.960849356308
12:03:00,2,L22,Broadway Junction,-73.90324,40.678856,2431.8782047282084
12:03:00,2,L24,Atlantic Av,-73.903097,40.675345,2539.9553652220357
12:03:00,2,L25,Sutter Av,-73.901975,40.669367,2610.3276729143436
12:03:00,2,L26,Livonia Av,-73.900571,40.664038,2668.0366512425167
12:03:00,2,L27,New Lots Av,-73.899232,40.658733,2717.136651242517
12:03:00,2,L28,East 105 St,-73.899485,40.650573,2813.8630663368567
13:53:00,2,L29,Canarsie-Rockaway Pkwy,-73.90185,40.646654,2938.927255526046
13:13:00,3,M01,Middle Village-Metropolitan Av,-73.889601,40.711396,2762.0332372359144
12:53:00,3,M04,Fresh Pond Rd,-73.895877,40.706186,2644.75021836799
13:13:00,3,M05,Forest Av,-73.903077,40.704423,2552.163884632829
12:53:00,3,M06,Seneca Av,-73.90774,40.702762,2457.799646222233
12:58:00,1,M08,Myrtle-Wyckoff Avs,-73.912385,40.69943,2361.5816756750505
12:33:00,3,M09,Knickerbocker Av,-73.919711,40.698664,2456.780506084407
12:58:00,1,M10,Central Av,-73.927397,40.697857,2567.7687413785247
12:28:00,1,M11,Myrtle Av,-73.935657,40.697207,2693.3301426645126
12:28:00,1,M12,Flushing Av,-73.941126,40.70026,2798.0439872642005
12:28:00,1,M13,Lorimer St,-73.947408,40.703869,2780.1468295759487
12:28:00,1,M14,Hewes St,-73.953431,40.70687,2689.054236983356
12:28:00,1,M16,Marcy Av,-73.957757,40.708359,2611.072755501875
12:28:00,1,M18,Delancey St-Essex St,-73.987437,40.718315,2238.6927555018747
13:18:00,2,M19,Bowery,-73.993915,40.72028,2270.421670917382
12:03:00,2,M20,Canal St,-73.999892,40.718092,2167.921670917382
12:53:00,2,M21,Chambers St,-74.003401,40.713243,2072.3383375840485
12:03:00,2,M22,Fulton St,-74.007582,40.710374,2173.991238285594
12:03:00,2,M23,Broad St,-74.011056,40.706476,2240.6859751276993
12:08:00,1,N02,8 Av,-74.011719,40.635064,3534.107657321741
12:08:00,1,N03,Fort Hamilton Pkwy,-74.005351,40.631386,3663.0784078375077
12:08:00,1,N04,New Utrecht Av,-73.996353,40.624842,3803.0784078375077
12:08:00,1,N05,18 Av,-73.990414,40.620671,3893.0784078375077
12:08:00,1,N06,20 Av,-73.985026,40.61741,3963.078407837508
12:08:00,1,N07,Bay Pkwy,-73.981848,40.611815,4053.078407837508
12:08:00,1,N08,Kings Hwy,-73.980353,40.603923,4173.078407837508
12:08:00,1,N09,Avenue U,-73.979137,40.597473,4273.078407837508
12:08:00,1,N10,86 St,-73.97823,40.592721,4333.078407837508
13:18:00,1,Q01,Canal St,-74.00046,40.718383,2078.8479812664987
12:33:00,1,Q03,72 St,-73.958424,40.768799,1280.3136099626327
12:33:00,1,Q04,86 St,-73.951787,40.777891,1415.8136099626327
12:33:00,1,Q05,96 St,-73.947152,40.784318,1493.3136099626327
12:08:00,1,R01,Astoria-Ditmars Blvd,-73.912034,40.775036,1364.9589726787663
12:08:00,1,R03,Astoria Blvd,-73.917843,40.770258,1263.780754856984
12:08:00,1,R04,30 Av,-73.921479,40.766779,1163.9274215236508
12:08:00,1,R05,Broadway,-73.925508,40.76182,1067.3949539911832
12:08:00,1,R06,36 Av,-73.929575,40.756804,972.5528487280252
12:08:00,1,R08,39 Av-Dutch Kills,-73.932755,40.752882,867.2328487280253
12:03:00,1,R09,Queensboro Plaza,-73.940202,40.750582,730.6923081874847
12:23:00,1,R11,Lexington Av/59 St,-73.967258,40.76266,980.3136099626327
12:23:00,1,R13,5 Av/59 St,-73.973347,40.764811,1071.9171602584906
13:03:00,1,R14,57 St-7 Av,-73.980658,40.764664,1196.0769235721002
12:23:00,1,R15,49 St,-73.984139,40.759901,1333.244588242759
13:18:00,1,R16,Times Sq-42 St,-73.986754,40.754672,1445.228185161038
13:18:00,1,R17,34 St-Herald Sq,-73.98795,40.749567,1566.028185161038
12:23:00,1,R18,28 St,-73.988691,40.745494,1649.8710423038951
12:23:00,1,R19,23 St,-73.989344,40.741303,1729.293577515163
13:18:00,1,R20,14 St-Union Sq,-73.990568,40.735736,1769.0808579788277
12:03:00,1,R21,8 St-NYU,-73.992629,40.730328,1883.1831327639752
12:03:00,1,R22,Prince St,-73.997702,40.724329,1968.8706327639752
12:03:00,1,R23,Canal St,-74.001775,40.719527,2068.6690823763784
12:03:00,1,R24,City Hall,-74.006978,40.713282,2214.161390068686
12:03:00,1,R25,Cortlandt St,-74.011029,40.710668,2328.604138160289
12:03:00,1,R26,Rector St,-74.013342,40.70722,2428.6957412137244
12:03:00,1,R27,Whitehall St-South Ferry,-74.012994,40.703087,2512.7790745470575
12:53:00,1,R28,Court St,-73.991777,40.6941,2617.22960599381
12:53:00,1,R29,Jay St-MetroTech,-73.985942,40.69218,2624.2827866176776
13:18:00,1,R30,DeKalb Av,-73.981824,40.690635,2482.14100220548
12:03:00,1,R31,Atlantic Av-Barclays Ctr,-73.97881,40.683666,2637.655386195474
12:03:00,1,R32,Union St,-73.98311,40.677316,2755.7755638067033
12:03:00,1,R33,4 Av-9 St,-73.988302,40.670847,2823.3293592284676
12:03:00,1,R34,Prospect Av,-73.992872,40.665414,2905.3293592284676
12:03:00,1,R35,25 St,-73.998091,40.660397,2983.329359228467
12:03:00,1,R36,36 St,-74.003549,40.655144,3022.5176616445756
12:03:00,1,R39,45 St,-74.010006,40.648939,3262.6205765122063
12:03:00,1,R40,53 St,-74.014034,40.645069,3353.420544692249
12:08:00,1,R41,59 St,-74.017881,40.641362,3366.8317952527755
12:08:00,1,R42,Bay Ridge Av,-74.023377,40.634967,3527.6417965489727
12:08:00,1,R43,77 St,-74.02551,40.629742,3607.9145238216997
12:08:00,1,R44,86 St,-74.028398,40.622687,3784.26571429789
12:08:00,1,R45,Bay Ridge-95 St,-74.030876,40.616622,3861.281462329386
12:08:00,1,S01,Franklin Av,-73.955827,40.680596,2877.7445396397015
12:08:00,1,S03,Park Pl,-73.957624,40.674772,3000.6195396397015
12:08:00,1,S04,Botanic Garden,-73.959245,40.670343,3108.1631562731495
