start_time,ntransfers,stop_id,stop_name,stop_lon,stop_lat,duration
12:14:30,1,101,Van Cortlandt Park-242 St,-73.898583,40.889248,2325.1943806534746
12:14:30,1,103,238 St,-73.90087,40.884667,2220.4080903308936
12:14:30,1,104,231 St,-73.904834,40.878856,2127.809634732438
12:14:30,1,106,Marble Hill-225 St,-73.909831,40.874561,2039.9623586792845
12:14:30,1,107,215 St,-73.915279,40.869444,1950.3446900829913
12:14:30,1,108,207 St,-73.918822,40.864621,1861.446622163548
12:14:30,1,109,Dyckman St,-73.925536,40.860531,1761.1338468331514
12:14:30,1,110,191 St,-73.929412,40.855225,1677.2890192469445
12:14:30,1,111,181 St,-73.933596,40.849505,1586.2589763284896
12:10:30,1,112,168 St-Washington Hts,-73.940133,40.840556,1467.057259590292
12:24:30,1,113,157 St,-73.94489,40.834041,1566.3762251075334
12:10:30,1,114,145 St,-73.95036,40.826551,1527.9258933138306
12:10:30,1,115,137 St-City College,-73.953676,40.822008,1427.0498249377622
12:10:30,1,116,125 St,-73.958372,40.815581,1331.7248249377622
12:10:30,1,117,116 St-Columbia University,-73.96411,40.807722,1217.4956582710956
12:10:30,1,118,Cathedral Pkwy (110 St),-73.966847,40.803967,1138.5411128165501
12:10:30,1,119,103 St,-73.968379,40.799446,1059.0124242919599
12:55:00,1,120,96 St,-73.972323,40.793919,845.604401150868
12:51:30,1,121,86 St,-73.976218,40.788644,848.6107849476978
12:51:30,1,122,79 St,-73.979917,40.783934,771.7368012078604
12:51:30,1,123,72 St,-73.98197,40.778453,666.0699183922472
12:51:30,1,124,66 St-Lincoln Center,-73.982209,40.77344,596.6796914003746
12:25:30,1,125,59 St-Columbus Circle,-73.981929,40.768247,501.35855318899246
12:25:30,1,126,50 St,-73.983849,40.761728,562.1735110201363
12:10:30,1,127,Times Sq-42 St,-73.987495,40.75529,429.9826300528742
12:06:00,1,128,34 St-Penn Station,-73.991057,40.750373,526.9093316235549
12:06:00,1,129,28 St,-73.993365,40.747215,611.5218697370126
12:06:00,1,130,23 St,-73.995657,40.744081,681.0961669257675
12:06:00,1,131,18 St,-73.997871,40.74104,690.4542776911608
12:06:00,1,132,14 St,-74.000201,40.737826,615.8674051042882
12:01:00,2,133,Christopher St-Sheridan Sq,-74.002906,40.733422,706.5896273265104
12:01:00,2,134,Houston St,-74.005367,40.728251,792.4705797074628
13:36:00,1,135,Canal St,-74.006277,40.722854,887.3314342148689
13:36:00,1,136,Franklin St,-74.006886,40.719318,951.5012510217698
13:28:00,1,137,Chambers St,-74.009266,40.715478,889.8544180913011
13:28:00,1,138,WTC Cortlandt,-74.012188,40.711835,1101.4140533896805
13:28:00,1,139,Rector St,-74.013783,40.707513,1177.9241748471704
13:28:00,1,142,South Ferry,-74.013664,40.702068,1203.5628857647625
13:15:00,1,201,Wakefield-241 St,-73.85062,40.903125,3692.0857723022214
13:15:00,1,204,Nereid Av,-73.854376,40.898379,3462.9661044406175
13:15:00,1,205,233 St,-73.857473,40.893193,3372.9661044406175
13:15:00,1,206,225 St,-73.860341,40.888022,3282.9661044406175
13:15:00,1,207,219 St,-73.862633,40.883895,3192.9661044406175
13:15:00,1,208,Gun Hill Rd,-73.866256,40.87785,3087.9661044406175
13:15:00,1,209,Burke Av,-73.867164,40.871356,3028.6019191471723
13:15:00,1,210,Allerton Av,-73.867352,40.865462,2936.471484364564
13:15:00,1,211,Pelham Pkwy,-73.867615,40.857192,2832.1236582776073
13:15:00,1,212,Bronx Park East,-73.868457,40.848828,2707.2975713210853
13:15:00,1,213,E 180 St,-73.873488,40.841894,2496.9932234949983
13:15:00,1,214,West Farms Sq-E Tremont Av,-73.880049,40.840295,2459.5033503637537
13:15:00,1,215,174 St,-73.887734,40.837288,2343.0578058092983
13:15:00,1,216,Freeman St,-73.891865,40.829993,2229.632063235041
13:15:00,1,217,Simpson St,-73.893064,40.824073,2108.7520632350415
13:15:00,1,218,Intervale Av,-73.896736,40.822181,2029.9742854572635
13:15:00,1,219,Prospect Av,-73.90177,40.819585,1950.1965076794859
13:15:00,1,220,Jackson Av,-73.907807,40.81649,1852.5803460633242
13:15:00,1,221,3 Av-149 St,-73.917757,40.816109,1718.8762644306712
13:15:00,1,222,149 St-Grand Concourse,-73.926718,40.81841,1593.3792584426471
12:55:00,1,224,135 St,-73.94077,40.814229,1391.205642644077
12:55:00,1,225,125 St,-73.945495,40.807754,1283.413735129626
12:55:00,1,226,116 St,-73.949625,40.802098,1185.3039085400308
12:55:00,1,227,Central Park North (110 St),-73.951822,40.799075,1108.6848609209828
12:03:30,1,228,Park Place,-74.008811,40.713051,805.3027115474521
13:59:00,1,229,Fulton St,-74.006571,40.709416,879.9963706408059
13:59:00,1,230,Wall St,-74.0091,40.706821,953.2670473325352
13:59:00,1,231,Clark St,-73.993086,40.697466,1136.8151954806833
13:59:00,1,232,Borough Hall,-73.989998,40.693219,1249.1114917769796
13:59:00,1,233,Hoyt St,-73.985065,40.690545,1334.332080012274
13:59:00,1,234,Nevins St,-73.980492,40.688246,1425.5208324000762
13:59:00,1,235,Atlantic Av-Barclays Ctr,-73.977666,40.684359,1511.7356747835158
13:59:00,1,236,Bergen St,-73.975098,40.680829,1586.7430821909234
13:59:00,1,237,Grand Army Plaza,-73.971046,40.675235,1698.3708194172007
13:59:00,1,238,Eastern Pkwy-Brooklyn Museum,-73.964375,40.671987,1803.6408924099014
12:01:00,2,239,Franklin Av-Medgar Evers College,-73.958131,40.670682,1823.6477664391296
12:01:00,2,241,President St-Medgar Evers College,-73.950683,40.667883,1994.9554587468217
12:01:00,2,242,Sterling St,-73.95085,40.662742,2085.4266125929753
12:01:00,2,243,Winthrop St,-73.9502,40.656652,2170.5789935453563
12:01:00,2,244,Church Av,-73.949575,40.650843,2252.4312662726293
12:01:00,2,245,Beverly Rd,-73.948959,40.645098,2333.86522853678
12:01:00,2,246,Newkirk Av-Little Haiti,-73.948411,40.639967,2419.86522853678
12:01:00,2,247,Flatbush Av-Brooklyn College,-73.947642,40.632836,2537.202070642043
12:01:00,2,248,Nostrand Av,-73.950466,40.669847,1943.9194288913043
12:01:00,2,249,Kingston Av,-73.942161,40.669399,2029.5444288913045
12:03:30,1,250,Crown Hts-Utica Av,-73.932942,40.668897,2058.0727606511973
12:03:30,1,251,Sutter Av-Rutland Rd,-73.92261,40.664717,2195.0727606511973
12:03:30,1,252,Saratoga Av,-73.916327,40.661453,2291.6060939845306
12:03:30,1,253,Rockaway Av,-73.908946,40.662549,2292.9329511641263
12:03:30,1,254,Junius St,-73.902447,40.663515,2211.089813909224
12:22:00,2,255,Pennsylvania Av,-73.894895,40.664635,2308.305500183734
12:03:30,1,256,Van Siclen Av,-73.889395,40.665449,2382.815304105303
12:03:30,1,257,New Lots Av,-73.884079,40.666235,2435.1809621641964
12:55:00,1,301,Harlem-148 St,-73.93647,40.82388,1651.1580006239094
12:55:00,1,302,145 St,-73.936245,40.820421,1528.1647069715625
13:54:00,1,401,Woodlawn,-73.878751,40.886037,2598.564553735747
13:54:00,1,402,Mosholu Pkwy,-73.884655,40.87975,2476.991866511077
13:54:00,1,405,Bedford Park Blvd-Lehman College,-73.890064,40.873412,2339.349625131767
13:54:00,1,406,Kingsbridge Rd,-73.897174,40.86776,2227.8603547455004
13:54:00,1,407,Fordham Rd,-73.901034,40.862803,2143.3480596635336
13:54:00,1,408,183 St,-73.903879,40.858407,2063.5398963982275
13:54:00,1,409,Burnside Av,-73.907684,40.853453,1968.1415561492645
13:54:00,1,410,176 St,-73.911794,40.84848,1879.6560789708415
13:54:00,1,411,Mt Eden Av,-73.914685,40.844434,1801.9453351691886
13:54:00,1,412,170 St,-73.917791,40.840075,1722.404012855139
13:54:00,1,413,167 St,-73.9214,40.835537,1634.4952991621929
13:54:00,1,414,161 St-Yankee Stadium,-73.925831,40.827994,1526.4994832626114
13:34:00,1,415,149 St-Grand Concourse,-73.927351,40.818375,1568.0911010360976
13:58:30,1,416,138 St-Grand Concourse,-73.929849,40.813224,1428.3732343462616
12:03:30,1,418,Fulton St,-74.009509,40.710368,885.6699043188607
13:28:00,1,419,Wall St,-74.011862,40.707557,962.881358063354
13:28:00,1,420,Bowling Green,-74.014065,40.704817,1036.8721837514274
13:28:00,1,423,Borough Hall,-73.990151,40.692404,1305.1019134811572
13:58:30,1,501,Eastchester-Dyre Av,-73.830834,40.8883,3272.593263824001
13:58:30,1,502,Baychester Av,-73.838591,40.878663,3142.2306264613635
13:58:30,1,503,Gun Hill Rd,-73.846384,40.869526,2983.4618092570627
13:58:30,1,504,Pelham Pkwy,-73.855359,40.858985,2826.1031136048887
13:58:30,1,505,Morris Park,-73.860495,40.854364,2738.42179492357
13:36:00,1,601,Pelham Bay Park,-73.828121,40.852462,3108.9376173819446
13:36:00,1,602,Buhre Av,-73.832569,40.84681,2925.510667027335
13:36:00,1,603,Middletown Rd,-73.836322,40.843863,2816.6773336940014
13:36:00,1,604,Westchester Sq-E Tremont Av,-73.842952,40.839892,2671.9273336940014
13:36:00,1,606,Zerega Av,-73.847036,40.836488,2573.844000360668
13:36:00,1,607,Castle Hill Av,-73.851222,40.834255,2506.510667027335
12:50:30,1,608,Parkchester,-73.860816,40.833226,2350.5106670273344
12:50:30,1,609,St Lawrence Av,-73.867618,40.831509,2588.4480335114536
12:50:30,1,610,Morrison Av-Soundview,-73.874516,40.829521,2503.3803044277884
12:50:30,1,611,Elder Av,-73.879159,40.828584,2438.216304427788
12:50:30,1,612,Whitlock Av,-73.886283,40.826525,2331.876304427788
12:50:30,1,613,Hunts Point Av,-73.890549,40.820948,2094.126051642719
13:58:30,1,614,Longwood Av,-73.896435,40.816104,2174.5769591874378
13:58:30,1,615,E 149 St,-73.904098,40.812118,2073.468625854104
13:58:30,1,616,E 143 St-St Mary's St,-73.907657,40.808719,1998.6263022026521
13:58:30,1,617,Cypress Av,-73.914042,40.805368,1899.705800110602
13:58:30,1,618,Brook Av,-73.91924,40.807566,1830.1469765811903
12:50:30,1,619,3 Av-138 St,-73.926138,40.810476,1715.0491285657963
13:58:30,1,621,125 St,-73.937594,40.804138,1288.1919843462617
12:50:30,1,622,116 St,-73.941617,40.798629,1458.9544267646995
12:50:30,1,623,110 St,-73.94425,40.79502,1379.003549571717
12:50:30,1,624,103 St,-73.947478,40.7906,1302.6316197471556
12:50:30,1,625,96 St,-73.95107,40.785672,1216.161444308559
12:50:30,1,626,86 St,-73.955589,40.779492,1012.9434994977769
12:50:30,1,627,77 St,-73.959874,40.77362,1010.1363510548669
12:50:30,1,628,68 St-Hunter College,-73.96387,40.768141,920.8036030049466
12:50:30,1,629,59 St,-73.967967,40.762526,821.7666702294842
12:04:00,2,630,51 St,-73.97192,40.757107,731.3331079496573
12:06:00,1,631,Grand Central-42 St,-73.976848,40.751776,629.2865120350417
12:04:00,2,632,33 St,-73.982076,40.746081,738.8602965633611
12:04:00,2,633,28 St,-73.984264,40.74307,805.7159666664539
12:22:00,2,634,23 St,-73.986599,40.739864,809.2887508910047
12:04:00,2,635,14 St-Union Sq,-73.989951,40.734673,709.3308976173695
13:53:00,2,636,Astor Pl,-73.99107,40.730054,785.0216192668541
13:53:00,2,637,Bleecker St,-73.994659,40.725915,857.3812839160739
13:22:00,2,638,Spring St,-73.997141,40.722301,926.5309437800196
12:33:30,2,639,Canal St,-74.000193,40.718803,1000.3079708070468
13:53:00,2,640,Brooklyn Bridge-City Hall,-74.004131,40.713065,988.0186074152252
12:00:30,1,701,Flushing-Main St,-73.83003,40.7596,2080.5471972448076
12:00:30,1,702,Mets-Willets Point,-73.845625,40.754622,1904.2376734352836
12:00:30,1,705,111 St,-73.855334,40.75173,1946.5461486815334
12:00:30,1,706,103 St-Corona Plaza,-73.8627,40.749865,1867.0235400958752
12:00:30,1,707,Junction Blvd,-73.869527,40.749145,1694.5576734352835
12:00:30,1,708,90 St-Elmhurst Av,-73.876613,40.748408,1740.496666025077
12:00:30,1,709,82 St-Jackson Hts,-73.883697,40.747659,1672.6672658654068
12:06:00,1,710,74 St-Broadway,-73.891394,40.746848,1530.4189665456788
12:06:00,1,711,69 St,-73.896403,40.746325,1483.0072018397964
12:06:00,1,712,61 St-Woodside,-73.902984,40.74563,1411.098751135571
12:04:00,1,713,52 St,-73.912549,40.744149,1286.5093870582452
12:04:00,1,714,46 St-Bliss St,-73.918435,40.743132,1232.815793743482
12:04:00,1,715,40 St-Lowery St,-73.924016,40.743781,1181.4453202058776
12:04:00,1,716,33 St-Rawson St,-73.930997,40.744587,1113.1650654288073
12:04:00,1,718,Queensboro Plaza,-73.940202,40.750582,970.6902050936118
12:04:00,1,719,Court Sq,-73.945264,40.747023,859.5705469739537
12:04:00,1,720,Hunters Point Av,-73.948916,40.742216,765.774403723265
12:04:00,1,721,Vernon Blvd-Jackson Av,-73.953581,40.742626,677.8555080066516
12:04:00,1,723,Grand Central-42 St,-73.976041,40.751431,463.11191826306185
12:04:00,1,724,5 Av,-73.981963,40.753821,407.6833468344904
12:04:00,1,725,Times Sq-42 St,-73.987691,40.755477,323.3833468344904
12:06:00,1,726,34 St-Hudson Yards,-74.00191,40.755882,500.9631024417298
12:04:00,1,901,Grand Central-42 St,-73.979189,40.752769,372.1436559139785
12:04:00,1,902,Times Sq-42 St,-73.986229,40.755983,276.2903225806452
13:42:30,0,A02,Inwood-207 St,-73.919899,40.868072,1792.627739282106
13:04:30,0,A03,Dyckman St,-73.927271,40.865491,1702.554746581376
13:04:30,0,A05,190 St,-73.93418,40.859022,1578.9623552770283
13:04:30,0,A06,181 St,-73.937969,40.851695,1465.7270611593813
13:04:30,0,A07,175 St,-73.939704,40.847391,1369.0066310518544
12:04:30,0,A09,168 St,-73.939561,40.840719,1241.5681283780575
12:10:30,0,A10,163 St-Amsterdam Av,-73.939892,40.836013,1262.521724217525
12:10:30,0,A11,155 St,-73.941514,40.830518,1180.6883908841917
12:04:30,0,A12,145 St,-73.944216,40.824783,996.6911230304639
12:31:30,0,A14,135 St,-73.947649,40.817894,918.5269265759448
12:04:30,0,A15,125 St,-73.952343,40.811109,771.0674671164853
12:10:30,0,A16,116 St,-73.954882,40.805085,894.9030493471872
12:04:30,0,A17,Cathedral Pkwy (110 St),-73.958161,40.800603,894.1857438005351
12:04:30,0,A18,103 St,-73.961454,40.796092,820.2727003222742
12:04:30,0,A19,96 St,-73.964696,40.791642,731.7407854286572
12:04:30,0,A20,86 St,-73.968916,40.785868,636.762524559092
12:04:30,0,A21,81 St-Museum of Natural History,-73.972143,40.781433,544.962524559092
12:04:30,0,A22,72 St,-73.97641,40.775594,454.3538289069181
12:04:30,0,A24,59 St-Columbus Circle,-73.981736,40.768296,258.29572798605057
12:04:00,0,A25,50 St,-73.985984,40.762456,211.96713615023472
12:00:30,0,A27,42 St-Port Authority Bus Terminal,-73.989735,40.757308,96.29032258064517
12:58:30,0,A28,34 St-Penn Station,-73.993391,40.752287,0.0
12:01:00,0,A30,23 St,-73.998041,40.745906,84.69565217391305
12:03:30,0,A31,14 St,-74.00169,40.740893,142.1505376344086
12:03:30,0,A32,W 4 St-Wash Sq,-74.000495,40.732338,266.55271154745213
12:14:00,0,A33,Spring St,-74.003739,40.726227,404.31690363349134
12:03:30,0,A34,Canal St,-74.005229,40.720824,444.9766245909303
12:03:30,0,A36,Chambers St,-74.008585,40.714111,565.3027115474521
12:03:30,0,A38,Fulton St,-74.007691,40.710197,662.7422719870126
12:03:30,0,A40,High St,-73.990531,40.699337,860.4950192397598
12:03:30,0,A41,Jay St-MetroTech,-73.987342,40.692338,999.3911941031478
12:03:30,0,A42,Hoyt-Schermerhorn Sts,-73.985001,40.688484,1114.532498450974
12:09:30,0,A43,Lafayette Av,-73.973946,40.686113,1263.9178303268545
12:09:30,0,A44,Clinton-Washington Avs,-73.965838,40.683263,1348.5814666904907
13:36:00,0,A45,Franklin Av,-73.956848,40.68138,1454.706466690491
12:03:30,0,A46,Nostrand Av,-73.950426,40.680438,1413.0379929564683
12:09:30,0,A47,Kingston-Throop Avs,-73.940858,40.679921,1513.392159623135
12:03:30,0,A48,Utica Av,-73.930729,40.679364,1583.8582176755697
12:09:30,0,A49,Ralph Av,-73.920786,40.678822,1694.5756089799174
12:43:30,0,A50,Rockaway Av,-73.911946,40.67834,1807.1713536607688
12:03:30,0,A51,Broadway Junction,-73.905316,40.678334,1818.0481618096478
13:36:00,0,A52,Liberty Av,-73.896548,40.674542,1939.4359169116885
13:36:00,0,A53,Van Siclen Av,-73.890358,40.67271,2023.5959169116886
13:36:00,0,A54,Shepherd Av,-73.88075,40.67413,2128.5959169116886
12:03:30,0,A55,Euclid Av,-73.872106,40.675377,2142.306063994336
12:03:30,0,A57,Grant Av,-73.86505,40.677044,2264.4886366084443
12:03:30,0,A59,80 St,-73.858992,40.679371,2361.840636608444
12:03:30,0,A60,88 St,-73.85147,40.679843,2457.800795970994
12:03:30,0,A61,Rockaway Blvd,-73.843853,40.680429,2548.1460340662325
12:14:00,0,A63,104 St,-73.837683,40.681711,2631.8180340662325
12:53:30,0,A64,111 St,-73.832163,40.684331,2717.949181607216
12:53:30,0,A65,Ozone Park-Lefferts Blvd,-73.825798,40.685951,2807.0124727464563
13:51:00,0,B04,21 St-Queensbridge,-73.942836,40.754203,1232.6833468344905
13:51:00,0,B06,Roosevelt Island,-73.95326,40.759145,1112.6833468344905
12:06:00,1,B08,Lexington Av/63 St,-73.966113,40.764629,797.692806656863
13:51:00,0,B10,57 St,-73.97745,40.763972,812.6833468344905
13:36:00,1,B12,9 Av,-73.994324,40.646292,2023.2185035309253
13:36:00,1,B13,Fort Hamilton Pkwy,-73.994304,40.640914,2181.4101202973925
13:36:00,1,B14,50 St,-73.994791,40.63626,2256.38587787315
13:36:00,1,B15,55 St,-73.995476,40.631435,2339.0465921588648
13:36:00,1,B16,62 St,-73.996895,40.626472,2440.8053468801513
13:36:00,1,B17,71 St,-73.998864,40.619589,2543.295792740024
13:36:00,1,B18,79 St,-74.00061,40.613501,2638.1322173180197
13:36:00,1,B19,18 Av,-74.001736,40.607954,2729.1322173180197
13:36:00,1,B20,20 Av,-73.998168,40.604556,2809.7771877322207
13:36:00,1,B21,Bay Pkwy,-73.993728,40.601875,2890.9888117202217
13:36:00,1,B22,25 Av,-73.986829,40.597704,2995.8256435538556
13:36:00,1,B23,Bay 50 St,-73.983765,40.588841,3140.517504018972
12:55:00,0,D01,Norwood-205 St,-73.878855,40.874811,2279.667070601725
12:55:00,0,D03,Bedford Park Blvd,-73.887138,40.873244,2108.1805841152386
12:55:00,0,D04,Kingsbridge Rd,-73.893509,40.866978,1991.0243341152384
12:55:00,0,D05,Fordham Rd,-73.897749,40.861296,1896.49286558377
12:55:00,0,D06,182-183 Sts,-73.900741,40.856093,1809.5589587826064
13:34:00,0,D07,Tremont Av,-73.905227,40.85041,1731.443914534819
13:34:00,0,D08,174-175 Sts,-73.910136,40.8459,1651.1682332626112
13:34:00,0,D09,170 St,-73.9134,40.839306,1557.850112500956
13:34:00,0,D10,167 St,-73.91844,40.833771,1446.6744832626111
13:34:00,0,D11,161 St-Yankee Stadium,-73.925651,40.827905,1301.4994832626114
13:34:00,0,D12,155 St,-73.938209,40.830135,1176.7710882008828
12:31:30,0,D13,145 St,-73.944216,40.824783,1061.6834458342892
12:00:30,0,D14,7 Av,-73.981637,40.762862,305.9577021879706
12:00:30,0,D15,47-50 Sts-Rockefeller Ctr,-73.981329,40.758663,634.9352076978093
12:00:30,0,D16,42 St-Bryant Pk,-73.984569,40.754222,632.6833468344905
12:00:30,0,D17,34 St-Herald Sq,-73.987823,40.749719,709.4590477690699
12:09:30,1,D18,23 St,-73.992821,40.742878,701.6593105322237
12:43:30,1,D19,14 St,-73.996209,40.738228,598.2532191616654
12:22:00,1,D20,W 4 St-Wash Sq,-74.000495,40.732338,500.4921064983187
13:22:00,1,D21,Broadway-Lafayette St,-73.996204,40.725297,645.1527115474521
13:22:00,1,D22,Grand St,-73.993753,40.718267,773.5644762533345
13:22:00,1,D24,Atlantic Av-Barclays Ctr,-73.97689,40.68446,1382.2196031032288
13:22:00,1,D25,7 Av,-73.972367,40.67705,1514.583239466865
13:22:00,1,D26,Prospect Park,-73.962246,40.661614,1694.333239466865
13:28:00,1,D27,Parkside Av,-73.961495,40.655292,1982.326285294798
13:22:00,1,D28,Church Av,-73.962982,40.650527,1825.8500933994494
13:28:00,1,D29,Beverley Rd,-73.964492,40.644031,1932.7218210090837
13:28:00,1,D30,Cortelyou Rd,-73.963891,40.640927,2010.9173517353408
13:22:00,1,D31,Newkirk Plaza,-73.962793,40.635082,2005.4056489550048
13:51:30,1,D32,Avenue H,-73.961639,40.62927,2122.228755431984
13:51:30,1,D33,Avenue J,-73.960803,40.625039,2209.5493973655475
13:51:30,1,D34,Avenue M,-73.959399,40.617618,2313.6673460834963
13:22:00,1,D35,Kings Hwy,-73.957734,40.60867,2253.5612045105604
13:22:00,1,D37,Avenue U,-73.955929,40.5993,2467.0305922656626
13:22:00,1,D38,Neck Rd,-73.955161,40.595246,2566.566674739889
13:22:00,1,D39,Sheepshead Bay,-73.954155,40.586896,2489.927871177227
13:22:00,1,D40,Brighton Beach,-73.961376,40.577621,2626.469537843894
13:22:00,1,D41,Ocean Pkwy,-73.968501,40.576312,2759.4805305024383
13:22:00,1,D42,W 8 St-NY Aquarium,-73.975939,40.576127,2873.9321434056637
13:22:00,1,D43,Coney Island-Stillwell Av,-73.981233,40.577422,2953.8876989612195
12:03:30,0,E01,World Trade Center,-74.009781,40.712582,632.1206436237983
12:25:30,0,F01,Jamaica-179 St,-73.783817,40.712646,2392.9934729048396
13:20:00,0,F02,169 St,-73.793604,40.71047,2349.663450885204
12:25:30,0,F03,Parsons Blvd,-73.803326,40.707564,2225.850615761982
12:25:30,0,F04,Sutphin Blvd,-73.810708,40.70546,2263.906694128447
12:25:30,0,F05,Briarwood,-73.820574,40.709179,2126.7271760948533
12:00:30,0,F06,Kew Gardens-Union Tpke,-73.831008,40.714441,1998.7077586191253
12:25:30,0,F07,75 Av,-73.837324,40.718331,1895.437889255451
12:00:30,0,F09,Court Sq-23 St,-73.946,40.747846,722.6546082060338
12:00:30,0,F11,Lexington Av/53 St,-73.969055,40.757552,502.38574028150543
12:00:30,0,F12,5 Av/53 St,-73.975224,40.760167,409.70177801735446
12:19:00,1,F14,2 Av,-73.989938,40.723402,745.3126713060035
12:19:00,1,F15,Delancey St-Essex St,-73.988114,40.718611,841.8008229647713
12:19:00,1,F16,East Broadway,-73.990173,40.713715,923.5233110030488
13:13:30,0,F18,York St,-73.986751,40.701397,1077.6042633840011
12:23:30,0,F20,Bergen St,-73.990862,40.686145,1282.9920616988202
12:23:30,0,F21,Carroll St,-73.995048,40.680303,1382.4915868051403
12:23:30,0,F22,Smith-9 Sts,-73.995959,40.67358,1524.905048343602
12:23:30,0,F23,4 Av-9 St,-73.989779,40.670272,1608.3707346181116
12:23:30,0,F24,7 Av,-73.980305,40.666271,1554.3911941031477
12:23:30,0,F25,15 St-Prospect Park,-73.979493,40.660365,1722.3007775074768
12:23:30,0,F26,Fort Hamilton Pkwy,-73.975776,40.650782,1883.9599953845716
12:23:30,0,F27,Church Av,-73.979678,40.644041,1794.3911941031477
13:59:00,0,F29,Ditmas Av,-73.978172,40.636119,1914.3911941031477
13:59:00,0,F30,18 Av,-73.976971,40.629755,2034.3911941031477
13:59:00,0,F31,Avenue I,-73.976127,40.625322,2094.391194103148
13:59:00,0,F32,Bay Pkwy,-73.975264,40.620769,2154.391194103148
13:59:00,0,F33,Avenue N,-73.974197,40.61514,2274.391194103148
13:59:00,0,F34,Avenue P,-73.973022,40.608944,2364.391194103148
13:59:00,0,F35,Kings Hwy,-73.972361,40.603217,2538.053316090941
13:29:00,0,F36,Avenue U,-73.973357,40.596063,2646.654379920728
13:29:00,0,F38,Avenue X,-73.97425,40.58962,2739.857588476878
12:09:30,1,F39,Neptune Av,-73.974574,40.581011,2854.329498589237
13:51:00,0,G05,Jamaica Center-Parsons/Archer,-73.801109,40.702147,2456.66579364042
12:00:30,0,G06,Sutphin Blvd-Archer Av-JFK Airport,-73.807969,40.700486,2365.380877439303
12:00:30,0,G07,Jamaica-Van Wyck,-73.816859,40.702566,2246.029025587451
12:00:30,0,G08,Forest Hills-71 Av,-73.844521,40.721691,1786.9997940173557
12:36:00,0,G09,67 Av,-73.852719,40.726523,1899.7804665992678
13:51:00,0,G10,63 Dr-Rego Park,-73.861604,40.729846,1776.4380008458431
13:51:00,0,G11,Woodhaven Blvd,-73.869229,40.733106,1672.8078638595418
13:51:00,0,G12,Grand Av-Newtown,-73.877223,40.737015,1549.932863859542
13:51:00,0,G13,Elmhurst Av,-73.882017,40.742454,1450.3986172841994
12:00:30,0,G14,Jackson Hts-Roosevelt Av,-73.891338,40.746644,1332.8915750306783
12:18:30,0,G15,65 St,-73.898453,40.749669,1452.8300365691398
12:25:30,0,G16,Northern Blvd,-73.906006,40.752885,1476.6421988587483
12:25:30,0,G18,46 St,-73.913333,40.756312,1386.6421988587483
12:25:30,0,G19,Steinway St,-73.92074,40.756879,1266.6421988587483
12:25:30,0,G20,36 St,-73.928781,40.752039,1146.6421988587483
12:00:30,0,G21,Queens Plaza,-73.937243,40.748973,872.8347029927636
12:12:00,1,G22,Court Sq,-73.943832,40.746554,902.6546082060338
12:12:00,1,G24,21 St,-73.949724,40.744065,991.9675853052704
12:12:00,1,G26,Greenpoint Av,-73.954449,40.731352,1133.3640350094124
12:12:00,1,G28,Nassau Av,-73.951277,40.724635,1205.216139701035
12:12:00,1,G29,Metropolitan Av,-73.951418,40.712792,1073.1341724879203
13:53:00,2,G30,Broadway,-73.950308,40.706092,1173.7156942270506
12:12:00,1,G31,Flushing Av,-73.950234,40.700377,1260.1102888216453
12:12:00,1,G32,Myrtle-Willoughby Avs,-73.949046,40.694568,1341.8346131459696
12:09:30,0,G33,Bedford-Nostrand Avs,-73.953522,40.689627,1453.7647206728511
12:09:30,0,G34,Classon Av,-73.96007,40.688873,1535.6921818127475
12:09:30,0,G35,Clinton-Washington Avs,-73.966839,40.688089,1541.2024607286385
12:09:30,0,G36,Fulton St,-73.975375,40.687119,1448.9183077231742
12:43:30,0,H01,Aqueduct Racetrack,-73.834058,40.668234,2754.1777800979785
12:03:30,0,H02,Aqueduct-N Conduit Av,-73.834058,40.668234,2754.879816009674
12:03:30,0,H03,Howard Beach-JFK Airport,-73.830301,40.660476,2891.86211689463
12:03:30,0,H04,Broad Channel,-73.815925,40.608382,3320.2831695262093
12:03:30,0,H06,Beach 67 St,-73.796924,40.590927,3615.2920190837312
12:43:30,0,H07,Beach 60 St,-73.788522,40.592374,3727.485001539872
12:43:30,0,H08,Beach 44 St,-73.776013,40.592943,3840.800316855187
12:43:30,0,H09,Beach 36 St,-73.768175,40.595398,3936.1753168551872
12:43:30,0,H10,Beach 25 St,-73.761353,40.600066,4050.3717454266157
12:43:30,0,H11,Far Rockaway-Mott Av,-73.755405,40.603995,4123.834708389579
12:03:30,0,H12,Beach 90 St,-73.813641,40.588034,3594.618281890093
12:03:30,0,H13,Beach 98 St,-73.820558,40.585307,3673.018281890093
12:03:30,0,H14,Beach 105 St,-73.827559,40.583209,3749.1293930012043
12:03:30,0,H15,Rockaway Park-Beach 116 St,-73.835592,40.580903,3853.3293930012046
13:51:00,0,J12,121 St,-73.828294,40.700492,2763.880877439303
13:51:00,0,J13,111 St,-73.836345,40.697418,2813.896032277865
13:51:00,0,J14,104 St,-73.84433,40.695178,2693.249754664889
13:51:00,0,J15,Woodhaven Blvd,-73.851576,40.693879,2603.249754664889
13:51:00,0,J16,85 St-Forest Pkwy,-73.86001,40.692435,2607.480897024792
13:51:00,0,J17,75 St-Elderts Ln,-73.867139,40.691324,2423.249754664889
13:51:00,0,J19,Cypress Hills,-73.87255,40.689941,2405.230897024792
13:59:00,1,J20,Crescent St,-73.873785,40.683194,2273.249754664889
13:59:00,1,J21,Norwood Av,-73.880039,40.68141,2183.249754664889
13:59:00,1,J22,Cleveland St,-73.884639,40.679947,2187.46844643989
13:59:00,1,J23,Van Siclen Av,-73.891688,40.678024,2033.2497546648892
13:59:00,1,J24,Alabama Av,-73.898654,40.676992,1973.2497546648892
13:22:00,1,J27,Broadway Junction,-73.904512,40.679498,1869.9313673949157
13:59:00,1,J28,Chauncey St,-73.910456,40.682893,1918.8939856580403
13:59:00,1,J29,Halsey St,-73.916559,40.68637,1919.4157167164306
13:22:00,1,J30,Gates Av,-73.92227,40.68963,1772.9773189913735
13:22:00,1,J31,Kosciuszko St,-73.928814,40.693342,1737.2660161176282
13:28:00,1,L01,8 Av,-74.002578,40.739777,308.0888145670755
13:28:00,1,L02,6 Av,-73.996786,40.737335,405.86740510428814
13:28:00,1,L03,14 St-Union Sq,-73.99073,40.734789,485.8737543106373
13:28:00,1,L05,3 Av,-73.986122,40.732849,528.7630160556038
13:28:00,1,L06,1 Av,-73.981628,40.730953,576.2850286342202
13:28:00,1,L08,Bedford Av,-73.956872,40.717304,785.2510780169362
13:28:00,1,L10,Lorimer St,-73.950275,40.714063,859.9198883063252
13:28:00,1,L11,Graham Av,-73.944053,40.714565,894.6843327507697
13:28:00,1,L12,Grand St,-73.94067,40.711926,974.4295556807059
13:28:00,1,L13,Montrose Av,-73.93985,40.707739,1010.4515682593222
13:28:00,1,L14,Morgan Av,-73.933147,40.706152,1095.7314424731587
13:28:00,1,L15,Jefferson St,-73.922913,40.706607,1196.4276450048042
13:28:00,1,L16,DeKalb Av,-73.918425,40.703811,1255.6584142355737
13:28:00,1,L17,Myrtle-Wyckoff Avs,-73.911586,40.699814,1323.5817369192796
13:28:00,1,L19,Halsey St,-73.904084,40.695602,1388.415070252613
13:28:00,1,L20,Wilson Av,-73.904046,40.688764,1510.6772064674594
13:28:00,1,L21,Bushwick Av-Aberdeen St,-73.905249,40.682829,1579.512667739668
13:28:00,1,L22,Broadway Junction,-73.90324,40.678856,1644.9313673949157
13:28:00,1,L24,Atlantic Av,-73.903097,40.675345,1747.7438187139896
13:28:00,1,L25,Sutter Av,-73.901975,40.669367,1823.3808355810506
13:28:00,1,L26,Livonia Av,-73.900571,40.664038,1881.089813909224
13:28:00,1,L27,New Lots Av,-73.899232,40.658733,1930.1898139092239
13:28:00,1,L28,East 105 St,-73.899485,40.650573,2026.9162290035636
13:28:00,1,L29,Canarsie-Rockaway Pkwy,-73.90185,40.646654,2151.980418192753
12:06:00,2,M01,Middle Village-Metropolitan Av,-73.889601,40.711396,1950.4896092291974
12:06:00,2,M04,Fresh Pond Rd,-73.895877,40.706186,1833.206590361273
12:06:00,2,M05,Forest Av,-73.903077,40.704423,1739.1639458770583
12:06:00,2,M06,Seneca Av,-73.90774,40.702762,1644.7997074664625
13:22:00,1,M08,Myrtle-Wyckoff Avs,-73.912385,40.69943,1550.0380476683335
13:22:00,1,M09,Knickerbocker Av,-73.919711,40.698664,1645.2368780776903
13:22:00,1,M10,Central Av,-73.927397,40.697857,1756.2251133718082
13:22:00,1,M11,Myrtle Av,-73.935657,40.697207,1605.810652324707
13:22:00,1,M12,Flushing Av,-73.941126,40.70026,1491.1919915739832
13:22:00,1,M13,Lorimer St,-73.947408,40.703869,1388.5097485833292
13:22:00,1,M14,Hewes St,-73.953431,40.70687,1297.4171559907365
13:22:00,1,M16,Marcy Av,-73.957757,40.708359,1219.435674509255
13:22:00,1,M18,Delancey St-Essex St,-73.987437,40.718315,847.0556745092551
13:22:00,1,M19,Bowery,-73.993915,40.72028,1158.2360094303526
13:59:00,1,M20,Canal St,-73.999892,40.718092,1095.2422719870124
13:59:00,1,M21,Chambers St,-74.003401,40.713243,989.2964888544825
13:59:00,1,M22,Fulton St,-74.007582,40.710374,887.7422719870126
12:09:30,1,M23,Broad St,-74.011056,40.706476,953.9089386536792
12:31:30,1,N02,8 Av,-74.011719,40.635064,2301.467872478349
12:31:30,1,N03,Fort Hamilton Pkwy,-74.005351,40.631386,2371.4678724783485
12:31:30,1,N04,New Utrecht Av,-73.996353,40.624842,2511.467872478349
12:31:30,1,N05,18 Av,-73.990414,40.620671,2601.467872478349
12:31:30,1,N06,20 Av,-73.985026,40.61741,2671.4678724783485
12:31:30,1,N07,Bay Pkwy,-73.981848,40.611815,2761.4678724783485
12:31:30,1,N08,Kings Hwy,-73.980353,40.603923,2881.4678724783485
12:31:30,1,N09,Avenue U,-73.979137,40.597473,2981.4678724783485
12:31:30,1,N10,86 St,-73.97823,40.592721,3041.4678724783485
12:04:00,1,Q01,Canal St,-74.00046,40.718383,978.9364807288146
12:06:00,0,Q03,72 St,-73.958424,40.768799,917.0017071804232
12:06:00,0,Q04,86 St,-73.951787,40.777891,1056.3502909323183
12:06:00,0,Q05,96 St,-73.947152,40.784318,1142.537543974068
12:04:30,1,R01,Astoria-Ditmars Blvd,-73.912034,40.775036,1651.9568712538235
12:04:30,1,R03,Astoria Blvd,-73.917843,40.770258,1550.7786534320412
12:04:30,1,R04,30 Av,-73.921479,40.766779,1450.925320098708
12:04:30,1,R05,Broadway,-73.925508,40.76182,1354.3928525662404
12:04:30,1,R06,36 Av,-73.929575,40.756804,1259.5507473030823
12:04:30,1,R08,39 Av-Dutch Kills,-73.932755,40.752882,1154.2307473030824
12:04:30,1,R09,Queensboro Plaza,-73.940202,40.750582,1017.6902067625418
12:04:30,1,R11,Lexington Av/59 St,-73.967258,40.76266,876.958844199871
12:04:30,1,R13,5 Av/59 St,-73.973347,40.764811,771.3504525914793
12:06:00,1,R14,57 St-7 Av,-73.980658,40.764664,625.8896978485728
12:04:30,1,R15,49 St,-73.984139,40.759901,530.4903225806452
12:24:30,1,R16,Times Sq-42 St,-73.986754,40.754672,441.2903225806452
12:04:00,1,R17,34 St-Herald Sq,-73.98795,40.749567,535.3420865920283
12:04:30,1,R18,28 St,-73.988691,40.745494,634.8677873693775
12:04:30,1,R19,23 St,-73.989344,40.741303,716.0508859609268
12:04:00,1,R20,14 St-Union Sq,-73.990568,40.735736,710.8737543106373
13:15:00,1,R21,8 St-NYU,-73.992629,40.730328,811.8581293106374
13:15:00,1,R22,Prince St,-73.997702,40.724329,897.5456293106373
13:15:00,1,R23,Canal St,-74.001775,40.719527,997.3440789230405
12:53:30,1,R24,City Hall,-74.006978,40.713282,957.410580834185
12:03:30,1,R25,Cortlandt St,-74.011029,40.710668,822.7343218413793
12:03:30,1,R26,Rector St,-74.013342,40.70722,932.7124240311604
12:03:30,1,R27,Whitehall St-South Ferry,-74.012994,40.703087,1023.4277524983136
12:03:30,1,R28,Court St,-73.991777,40.6941,1211.8911941031479
13:28:00,1,R29,Jay St-MetroTech,-73.985942,40.69218,1134.3911941031477
13:22:00,1,R30,DeKalb Av,-73.981824,40.690635,1190.5304668463211
13:28:00,1,R31,Atlantic Av-Barclays Ctr,-73.97881,40.683666,1346.044850836315
13:28:00,1,R32,Union St,-73.98311,40.677316,1496.8911941031479
13:28:00,1,R33,4 Av-9 St,-73.988302,40.670847,1619.3911941031479
13:28:00,1,R34,Prospect Av,-73.992872,40.665414,1686.3911941031479
13:28:00,1,R35,25 St,-73.998091,40.660397,1764.3911941031479
13:36:00,1,R36,36 St,-74.003549,40.655144,1730.9071262854168
13:28:00,1,R39,45 St,-74.010006,40.648939,1971.0100411530475
13:28:00,1,R40,53 St,-74.014034,40.645069,2061.8100093330904
12:31:30,1,R41,59 St,-74.017881,40.641362,2121.467872478349
13:28:00,1,R42,Bay Ridge Av,-74.023377,40.634967,2282.277873774546
13:28:00,1,R43,77 St,-74.02551,40.629742,2362.550601047273
13:28:00,1,R44,86 St,-74.028398,40.622687,2538.9017915234635
13:28:00,1,R45,Bay Ridge-95 St,-74.030876,40.616622,2615.9175395549596
13:22:00,1,S01,Franklin Av,-73.955827,40.680596,1634.706466690491
12:09:30,1,S03,Park Pl,-73.957624,40.674772,1757.5814666904907
13:22:00,1,S04,Botanic Garden,-73.959245,40.670343,1865.125083323939
