start_time,ntransfers,stop_id,stop_name,stop_lon,stop_lat,duration
12:07:30,1,101,Van Cortlandt Park-242 St,-73.898583,40.889248,3738.2323736099424
12:07:30,1,103,238 St,-73.90087,40.884667,3633.4460832873615
12:07:30,1,104,231 St,-73.904834,40.878856,3540.847627688906
12:07:30,1,106,Marble Hill-225 St,-73.909831,40.874561,3453.0003516357515
12:07:30,1,107,215 St,-73.915279,40.869444,3363.382683039459
12:07:30,1,108,207 St,-73.918822,40.864621,3274.484615120015
12:07:30,1,109,Dyckman St,-73.925536,40.860531,3174.1718397896184
12:07:30,1,110,191 St,-73.929412,40.855225,3090.327012203412
12:07:30,1,111,181 St,-73.933596,40.849505,2999.296969284957
12:07:30,1,112,168 St-Washington Hts,-73.940133,40.840556,2880.0952525467596
12:07:30,1,113,157 St,-73.94489,40.834041,2927.9036162198167
12:07:30,1,114,145 St,-73.95036,40.826551,2810.6503973356967
12:07:30,1,115,137 St-City College,-73.953676,40.822008,2709.7743289596283
12:07:30,1,116,125 St,-73.958372,40.815581,2614.4493289596285
12:07:30,1,117,116 St-Columbia University,-73.96411,40.807722,2500.2201622929615
12:07:30,1,118,Cathedral Pkwy (110 St),-73.966847,40.803967,2421.2656168384165
12:07:30,1,119,103 St,-73.968379,40.799446,2341.736928313826
12:07:30,1,120,96 St,-73.972323,40.793919,2093.06135715632
12:07:30,1,121,86 St,-73.976218,40.788644,2131.335288969564
12:07:30,1,122,79 St,-73.979917,40.783934,2054.4613052297263
12:07:30,1,123,72 St,-73.98197,40.778453,1920.8039625562578
12:07:30,1,124,66 St-Lincoln Center,-73.982209,40.77344,2009.717684356843
12:07:30,1,125,59 St-Columbus Circle,-73.981929,40.768247,1914.3965461454607
12:07:30,1,126,50 St,-73.983849,40.761728,1975.2115039766045
12:07:30,1,127,Times Sq-42 St,-73.987495,40.75529,1684.8673428379482
12:07:30,1,128,34 St-Penn Station,-73.991057,40.750373,1585.5085642119939
12:07:30,1,129,28 St,-73.993365,40.747215,1847.1360417895667
12:07:30,1,130,23 St,-73.995657,40.744081,1777.9877528161826
12:07:30,1,131,18 St,-73.997871,40.74104,1709.8097225131523
12:07:30,1,132,14 St,-74.000201,40.737826,1425.2228499262797
12:07:30,1,133,Christopher St-Sheridan Sq,-74.002906,40.733422,1648.8331230605622
12:07:30,1,134,Houston St,-74.005367,40.728251,1562.95217067961
12:07:30,1,135,Canal St,-74.006277,40.722854,1467.7120131992951
12:07:30,1,136,Franklin St,-74.006886,40.719318,1403.921499365303
12:07:30,1,137,Chambers St,-74.009266,40.715478,1164.8819408353706
13:35:00,1,138,WTC Cortlandt,-74.012188,40.711835,1254.0086969973922
13:35:00,1,139,Rector St,-74.013783,40.707513,1177.4985755399025
13:35:00,1,142,South Ferry,-74.013664,40.702068,1074.4076664489933
12:01:30,1,201,Wakefield-241 St,-73.85062,40.903125,4659.914059235411
12:01:30,1,204,Nereid Av,-73.854376,40.898379,4362.898245873446
12:01:30,1,205,233 St,-73.857473,40.893193,4272.898245873446
12:01:30,1,206,225 St,-73.860341,40.888022,4182.898245873446
12:01:30,1,207,219 St,-73.862633,40.883895,4092.8982458734463
12:01:30,1,208,Gun Hill Rd,-73.866256,40.87785,3987.8982458734463
12:01:30,1,209,Burke Av,-73.867164,40.871356,4039.3035629840115
12:01:30,1,210,Allerton Av,-73.867352,40.865462,3947.173128201403
12:01:30,1,211,Pelham Pkwy,-73.867615,40.857192,3818.8982458734463
12:01:30,1,212,Bronx Park East,-73.868457,40.848828,3673.8982458734463
12:01:30,1,213,E 180 St,-73.873488,40.841894,3507.694867331838
12:01:30,1,214,West Farms Sq-E Tremont Av,-73.880049,40.840295,3394.264378952827
12:01:30,1,215,174 St,-73.887734,40.837288,3264.178172056275
12:01:30,1,216,Freeman St,-73.891865,40.829993,3144.3405652186684
12:01:30,1,217,Simpson St,-73.893064,40.824073,3033.9592092864646
12:01:30,1,218,Intervale Av,-73.896736,40.822181,2961.0354804729054
12:01:30,1,219,Prospect Av,-73.90177,40.819585,2875.1541245407025
12:01:30,1,220,Jackson Av,-73.907807,40.81649,2783.0953010112908
12:01:30,1,221,3 Av-149 St,-73.917757,40.816109,2661.3869676779577
12:01:30,1,222,149 St-Grand Concourse,-73.926718,40.81841,2546.3272661854203
12:07:30,1,224,135 St,-73.94077,40.814229,2617.1974796052996
12:07:30,1,225,125 St,-73.945495,40.807754,2509.1174796052996
12:07:30,1,226,116 St,-73.949625,40.802098,2413.137887768565
12:07:30,1,227,Central Park North (110 St),-73.951822,40.799075,2344.7654387889734
12:07:30,1,228,Park Place,-74.008811,40.713051,1077.7619408353705
12:21:30,1,229,Fulton St,-74.006571,40.709416,967.5498196232492
13:35:00,1,230,Wall St,-74.0091,40.706821,1040.8204963149785
12:01:30,2,231,Clark St,-73.993086,40.697466,961.2370244172301
13:35:00,1,232,Borough Hall,-73.989998,40.693219,866.1467988533205
12:01:30,2,233,Hoyt St,-73.985065,40.690545,950.6701149154967
12:01:30,2,234,Nevins St,-73.980492,40.688246,986.1467988533205
12:01:30,2,235,Atlantic Av-Barclays Ctr,-73.977666,40.684359,1013.6467988533207
12:07:30,2,236,Bergen St,-73.975098,40.680829,1042.216203186862
12:07:30,2,237,Grand Army Plaza,-73.971046,40.675235,936.5997648306977
12:29:30,2,238,Eastern Pkwy-Brooklyn Museum,-73.964375,40.671987,827.4696278443963
12:08:30,2,239,Franklin Av-Medgar Evers College,-73.958131,40.670682,713.2213519823274
13:20:30,2,241,President St-Medgar Evers College,-73.950683,40.667883,894.8109715406129
13:20:30,2,242,Sterling St,-73.95085,40.662742,987.3926041936741
13:20:30,2,243,Winthrop St,-73.9502,40.656652,1072.81012996687
13:20:30,2,244,Church Av,-73.949575,40.650843,1153.8322294143838
13:20:30,2,245,Beverly Rd,-73.948959,40.645098,1237.2535492113382
13:20:30,2,246,Newkirk Av-Little Haiti,-73.948411,40.639967,1321.035275099663
13:20:30,2,247,Flatbush Av-Brooklyn College,-73.947642,40.632836,1438.4060616165168
12:29:30,2,248,Nostrand Av,-73.950466,40.669847,843.6796773066261
12:29:30,2,249,Kingston Av,-73.942161,40.669399,930.9890298246116
13:20:30,2,250,Crown Hts-Utica Av,-73.932942,40.668897,970.7157203045545
12:06:30,2,251,Sutter Av-Rutland Rd,-73.92261,40.664717,1107.7157203045547
12:06:30,2,252,Saratoga Av,-73.916327,40.661453,1204.249053637888
12:06:30,2,253,Rockaway Av,-73.908946,40.662549,1227.971957222412
12:06:30,2,254,Junius St,-73.902447,40.663515,1141.8520383196967
12:16:30,2,255,Pennsylvania Av,-73.894895,40.664635,1243.1386238890784
12:16:30,2,256,Van Siclen Av,-73.889395,40.665449,1317.1386238890784
12:16:30,2,257,New Lots Av,-73.884079,40.666235,1361.6386238890784
12:07:30,1,301,Harlem-148 St,-73.93647,40.82388,2865.086690131615
12:07:30,1,302,145 St,-73.936245,40.820421,2750.7024796052992
13:26:30,1,401,Woodlawn,-73.878751,40.886037,3887.968824969691
13:26:30,1,402,Mosholu Pkwy,-73.884655,40.87975,3766.3961377450214
13:26:30,1,405,Bedford Park Blvd-Lehman College,-73.890064,40.873412,3628.753896365711
13:26:30,1,406,Kingsbridge Rd,-73.897174,40.86776,3513.6477510212962
13:26:30,1,407,Fordham Rd,-73.901034,40.862803,3422.301345792538
13:26:30,1,408,183 St,-73.903879,40.858407,3341.601999387309
13:26:30,1,409,Burnside Av,-73.907684,40.853453,3248.4298682397684
13:26:30,1,410,176 St,-73.911794,40.84848,3169.0603502047857
13:26:30,1,411,Mt Eden Av,-73.914685,40.844434,3091.3496064031324
13:26:30,1,412,170 St,-73.917791,40.840075,3011.808284089083
13:26:30,1,413,167 St,-73.9214,40.835537,2923.8995703961373
13:26:30,1,414,161 St-Yankee Stadium,-73.925831,40.827994,2794.765772422692
13:26:30,1,415,149 St-Grand Concourse,-73.927351,40.818375,2564.820772422692
13:26:30,1,416,138 St-Grand Concourse,-73.929849,40.813224,2389.1885800540335
12:28:30,1,418,Fulton St,-74.009509,40.710368,973.223353301304
12:28:30,1,419,Wall St,-74.011862,40.707557,1050.4348070457972
12:28:30,1,420,Bowling Green,-74.014065,40.704817,1124.4256327338708
12:28:30,1,423,Borough Hall,-73.990151,40.692404,865.4115052265353
13:51:30,1,501,Eastchester-Dyre Av,-73.830834,40.8883,4283.294907660841
12:01:30,1,502,Baychester Av,-73.838591,40.878663,4152.932270298204
12:01:30,1,503,Gun Hill Rd,-73.846384,40.869526,3994.1634530939023
12:01:30,1,504,Pelham Pkwy,-73.855359,40.858985,3836.8047574417283
12:01:30,1,505,Morris Park,-73.860495,40.854364,3749.1234387604095
13:26:30,1,601,Pelham Bay Park,-73.828121,40.852462,4041.552918125688
13:26:30,1,602,Buhre Av,-73.832569,40.84681,3858.125967771078
13:26:30,1,603,Middletown Rd,-73.836322,40.843863,3749.2926344377447
13:26:30,1,604,Westchester Sq-E Tremont Av,-73.842952,40.839892,3604.5426344377447
13:26:30,1,606,Zerega Av,-73.847036,40.836488,3506.459301104411
13:26:30,1,607,Castle Hill Av,-73.851222,40.834255,3439.125967771078
13:26:30,1,608,Parkchester,-73.860816,40.833226,3283.125967771078
13:26:30,1,609,St Lawrence Av,-73.867618,40.831509,3521.063334255197
13:26:30,1,610,Morrison Av-Soundview,-73.874516,40.829521,3435.9956051715317
13:26:30,1,611,Elder Av,-73.879159,40.828584,3370.8316051715315
13:26:30,1,612,Whitlock Av,-73.886283,40.826525,3264.4916051715313
13:26:30,1,613,Hunts Point Av,-73.890549,40.820948,3026.7413523864625
12:01:30,1,614,Longwood Av,-73.896435,40.816104,3109.033535623167
12:01:30,1,615,E 149 St,-73.904098,40.812118,3007.9252022898336
12:01:30,1,616,E 143 St-St Mary's St,-73.907657,40.808719,2933.0828786383818
12:01:30,1,617,Cypress Av,-73.914042,40.805368,2834.1623765463314
12:01:30,1,618,Brook Av,-73.91924,40.807566,2764.6035530169197
13:26:30,1,619,3 Av-138 St,-73.926138,40.810476,2647.6644293095396
13:26:30,1,621,125 St,-73.937594,40.804138,2220.8072850900053
12:01:30,1,622,116 St,-73.941617,40.798629,2549.878715023826
13:26:30,1,623,110 St,-73.94425,40.79502,2484.801077579681
13:26:30,1,624,103 St,-73.947478,40.7906,2408.4291477551196
13:26:30,1,625,96 St,-73.95107,40.785672,2321.9589723165227
13:26:30,1,626,86 St,-73.955589,40.779492,1936.411601636768
13:26:30,1,627,77 St,-73.959874,40.77362,2145.372844157553
13:26:30,1,628,68 St-Hunter College,-73.96387,40.768141,2055.4988945777213
13:26:30,1,629,59 St,-73.967967,40.762526,1739.262665466555
13:26:30,1,630,51 St,-73.97192,40.757107,1958.5078054329404
13:26:30,1,631,Grand Central-42 St,-73.976848,40.751776,1578.8584101474062
12:01:30,1,632,33 St,-73.982076,40.746081,1744.1873925171678
13:26:30,1,633,28 St,-73.984264,40.74307,1677.331722414075
13:26:30,1,634,23 St,-73.986599,40.739864,1614.0791626871126
13:26:30,1,635,14 St-Union Sq,-73.989951,40.734673,1342.3302411333216
12:01:30,1,636,Astor Pl,-73.99107,40.730054,1399.7767571888307
12:01:30,1,637,Bleecker St,-73.994659,40.725915,1309.060033639343
12:01:30,1,638,Spring St,-73.997141,40.722301,1378.2096935032885
12:01:30,1,639,Canal St,-74.000193,40.718803,1338.4124378369258
13:26:30,1,640,Brooklyn Bridge-City Hall,-74.004131,40.713065,1082.4281432312239
13:35:00,1,701,Flushing-Main St,-73.83003,40.7596,3093.888650095726
13:35:00,1,702,Mets-Willets Point,-73.845625,40.754622,2917.579126286202
13:35:00,1,705,111 St,-73.855334,40.75173,2937.5348811626745
13:35:00,1,706,103 St-Corona Plaza,-73.8627,40.749865,2843.908872684621
13:35:00,1,707,Junction Blvd,-73.869527,40.749145,2673.575539351288
13:35:00,1,708,90 St-Elmhurst Av,-73.876613,40.748408,2728.323858732979
13:35:00,1,709,82 St-Jackson Hts,-73.883697,40.747659,2648.9435770428377
13:35:00,1,710,74 St-Broadway,-73.891394,40.746848,2506.69527772311
13:35:00,1,711,69 St,-73.896403,40.746325,2459.2835130172275
13:35:00,1,712,61 St-Woodside,-73.902984,40.74563,2387.375062313002
13:35:00,1,713,52 St,-73.912549,40.744149,2298.189877127817
13:35:00,1,714,46 St-Bliss St,-73.918435,40.743132,2240.359368653241
13:35:00,1,715,40 St-Lowery St,-73.924016,40.743781,2185.047504246461
13:35:00,1,716,33 St-Rawson St,-73.930997,40.744587,2120.8802687515804
13:35:00,1,718,Queensboro Plaza,-73.940202,40.750582,1994.575539351288
13:35:00,1,719,Court Sq,-73.945264,40.747023,1905.5755393512877
13:35:00,1,720,Hunters Point Av,-73.948916,40.742216,1991.5755393512877
13:35:00,1,721,Vernon Blvd-Jackson Av,-73.953581,40.742626,2019.5755393512877
12:01:30,1,723,Grand Central-42 St,-73.976041,40.751431,1846.5176380219161
13:35:00,1,724,5 Av,-73.981963,40.753821,1820.7213397909586
12:01:30,1,725,Times Sq-42 St,-73.987691,40.755477,1736.4213397909587
13:37:30,1,726,34 St-Hudson Yards,-74.00191,40.755882,1915.559087078709
13:35:00,1,901,Grand Central-42 St,-73.979189,40.752769,1785.1816488704467
12:01:30,2,902,Times Sq-42 St,-73.986229,40.755983,1689.3283155371134
13:19:30,0,A02,Inwood-207 St,-73.919899,40.868072,3205.6657322385736
12:41:30,0,A03,Dyckman St,-73.927271,40.865491,3115.592739537844
12:41:30,0,A05,190 St,-73.93418,40.859022,2992.0003482334964
12:41:30,0,A06,181 St,-73.937969,40.851695,2878.765054115849
12:41:30,0,A07,175 St,-73.939704,40.847391,2782.044624008322
12:01:30,0,A09,168 St,-73.939561,40.840719,2654.606121334525
13:26:30,0,A10,163 St-Amsterdam Av,-73.939892,40.836013,2675.559717173993
13:26:30,0,A11,155 St,-73.941514,40.830518,2593.7263838406598
12:01:30,0,A12,145 St,-73.944216,40.824783,2409.729115986932
12:28:30,0,A14,135 St,-73.947649,40.817894,2331.5649195324127
12:01:30,0,A15,125 St,-73.952343,40.811109,2184.1054600729535
12:21:30,0,A16,116 St,-73.954882,40.805085,2307.9410423036556
12:21:30,0,A17,Cathedral Pkwy (110 St),-73.958161,40.800603,2350.8355808876777
12:21:30,0,A18,103 St,-73.961454,40.796092,2276.9225374094167
12:21:30,0,A19,96 St,-73.964696,40.791642,2188.3906225158
12:21:30,0,A20,86 St,-73.968916,40.785868,2093.4123616462343
12:21:30,0,A21,81 St-Museum of Natural History,-73.972143,40.781433,2001.6123616462341
12:21:30,0,A22,72 St,-73.97641,40.775594,1911.0036659940604
12:01:30,0,A24,59 St-Columbus Circle,-73.981736,40.768296,1671.3337209425188
12:21:30,0,A25,50 St,-73.985984,40.762456,1672.634100776669
12:01:30,0,A27,42 St-Port Authority Bus Terminal,-73.989735,40.757308,1509.3283155371134
12:01:30,0,A28,34 St-Penn Station,-73.993391,40.752287,1413.037992956468
13:35:00,0,A30,23 St,-73.998041,40.745906,1349.7773778980952
12:01:30,0,A31,14 St,-74.00169,40.740893,1262.1996001203174
12:01:30,0,A32,W 4 St-Wash Sq,-74.000495,40.732338,1142.5900763107936
12:41:30,0,A33,Spring St,-74.003739,40.726227,1100.5912078525193
12:01:30,0,A34,Canal St,-74.005229,40.720824,968.0613683655381
12:01:30,0,A36,Chambers St,-74.008585,40.714111,847.7352814090164
12:01:30,0,A38,Fulton St,-74.007691,40.710197,750.2957209694558
12:01:30,0,A40,High St,-73.990531,40.699337,552.5429737167086
12:01:30,0,A41,Jay St-MetroTech,-73.987342,40.692338,413.64679885332055
12:01:30,0,A42,Hoyt-Schermerhorn Sts,-73.985001,40.688484,298.5054945054945
12:08:30,0,A43,Lafayette Av,-73.973946,40.686113,260.908987323743
12:08:30,0,A44,Clinton-Washington Avs,-73.965838,40.683263,177.16949152542372
12:08:30,0,A45,Franklin Av,-73.956848,40.68138,77.65254237288136
13:20:30,0,A46,Nostrand Av,-73.950426,40.680438,0.0
12:04:30,0,A47,Kingston-Throop Avs,-73.940858,40.679921,97.39449541284404
12:06:30,0,A48,Utica Av,-73.930729,40.679364,162.08878504672896
12:06:30,0,A49,Ralph Av,-73.920786,40.678822,281.537616023449
12:06:30,0,A50,Rockaway Av,-73.911946,40.67834,394.13336070430006
12:06:30,0,A51,Broadway Junction,-73.905316,40.678334,385.3445990002173
13:58:30,0,A52,Liberty Av,-73.896548,40.674542,526.3979239552202
13:58:30,0,A53,Van Siclen Av,-73.890358,40.67271,610.5579239552202
13:58:30,0,A54,Shepherd Av,-73.88075,40.67413,715.5579239552202
12:06:30,0,A55,Euclid Av,-73.872106,40.675377,685.6562269071941
12:06:30,0,A57,Grant Av,-73.86505,40.677044,807.8387995213019
12:06:30,0,A59,80 St,-73.858992,40.679371,905.1907995213019
12:06:30,0,A60,88 St,-73.85147,40.679843,1001.1509588838518
12:06:30,0,A61,Rockaway Blvd,-73.843853,40.680429,1091.49619697909
12:16:30,0,A63,104 St,-73.837683,40.681711,1175.1681969790898
13:16:00,0,A64,111 St,-73.832163,40.684331,1261.2993445200736
13:16:00,0,A65,Ozone Park-Lefferts Blvd,-73.825798,40.685951,1350.362635659314
12:01:30,0,B04,21 St-Queensbridge,-73.942836,40.754203,2318.6467988533204
12:01:30,0,B06,Roosevelt Island,-73.95326,40.759145,2184.4123981788916
12:01:30,0,B08,Lexington Av/63 St,-73.966113,40.764629,2048.6467988533204
12:01:30,0,B10,57 St,-73.97745,40.763972,1898.6467988533207
12:07:30,1,B12,9 Av,-73.994324,40.646292,1688.3092071146802
12:07:30,1,B13,Fort Hamilton Pkwy,-73.994304,40.640914,1789.4117712172442
12:07:30,1,B14,50 St,-73.994791,40.63626,1868.4372489242505
12:07:30,1,B15,55 St,-73.995476,40.631435,1968.1952107076902
12:07:30,1,B16,62 St,-73.996895,40.626472,2034.1672386797181
12:07:30,1,B17,71 St,-73.998864,40.619589,2136.657684539591
12:07:30,1,B18,79 St,-74.00061,40.613501,2243.218194093731
12:07:30,1,B19,18 Av,-74.001736,40.607954,2324.811742480828
12:07:30,1,B20,20 Av,-73.998168,40.604556,2406.8052489743345
12:07:30,1,B21,Bay Pkwy,-73.993728,40.601875,2484.350703519789
12:07:30,1,B22,25 Av,-73.986829,40.597704,2603.4603809391438
12:07:30,1,B23,Bay 50 St,-73.983765,40.588841,2519.5811839943062
12:01:30,0,D01,Norwood-205 St,-73.878855,40.874811,3692.7050635581927
12:01:30,0,D03,Bedford Park Blvd,-73.887138,40.873244,3521.2185770717065
12:01:30,0,D04,Kingsbridge Rd,-73.893509,40.866978,3404.0623270717065
12:01:30,0,D05,Fordham Rd,-73.897749,40.861296,3309.530858540238
12:01:30,0,D06,182-183 Sts,-73.900741,40.856093,3222.596951739075
13:51:30,0,D07,Tremont Av,-73.905227,40.85041,3144.481907491287
13:51:30,0,D08,174-175 Sts,-73.910136,40.8459,3064.2062262190793
13:51:30,0,D09,170 St,-73.9134,40.839306,2970.888105457424
13:51:30,0,D10,167 St,-73.91844,40.833771,2859.7124762190797
13:51:30,0,D11,161 St-Yankee Stadium,-73.925651,40.827905,2714.5374762190795
13:51:30,0,D12,155 St,-73.938209,40.830135,2589.809081157351
12:28:30,0,D13,145 St,-73.944216,40.824783,2474.721438790757
12:01:30,0,D14,7 Av,-73.981637,40.762862,1854.9509505481624
12:01:30,0,D15,47-50 Sts-Rockefeller Ctr,-73.981329,40.758663,1750.3670996164853
12:01:30,0,D16,42 St-Bryant Pk,-73.984569,40.754222,1656.6983496164853
12:01:30,0,D17,34 St-Herald Sq,-73.987823,40.749719,1573.4656452139698
12:01:30,0,D18,23 St,-73.992821,40.742878,1458.3136947732594
12:01:30,0,D19,14 St,-73.996209,40.738228,1354.907603402701
12:01:30,0,D20,W 4 St-Wash Sq,-74.000495,40.732338,1263.2070957884875
12:01:30,0,D21,Broadway-Lafayette St,-73.996204,40.725297,1096.831461270721
12:08:30,0,D22,Grand St,-73.993753,40.718267,1327.3519270584488
12:07:30,1,D24,Atlantic Av-Barclays Ctr,-73.97689,40.68446,1080.4689085602197
12:07:30,1,D25,7 Av,-73.972367,40.67705,979.3047237977454
13:20:30,1,D26,Prospect Park,-73.962246,40.661614,614.4314843611257
13:20:30,1,D27,Parkside Av,-73.961495,40.655292,945.8361223328159
13:20:30,1,D28,Church Av,-73.962982,40.650527,944.2061322484496
13:20:30,1,D29,Beverley Rd,-73.964492,40.644031,1051.0778598580841
13:20:30,1,D30,Cortelyou Rd,-73.963891,40.640927,1129.273390584341
13:20:30,1,D31,Newkirk Plaza,-73.962793,40.635082,1115.6489893913067
13:20:30,1,D32,Avenue H,-73.961639,40.62927,1232.4720958682858
13:20:30,1,D33,Avenue J,-73.960803,40.625039,1326.4550504137405
13:20:30,1,D34,Avenue M,-73.959399,40.617618,1437.8461118662544
13:20:30,1,D35,Kings Hwy,-73.957734,40.60867,1353.7813423324833
12:29:30,1,D37,Avenue U,-73.955929,40.5993,1569.2610421679685
12:29:30,1,D38,Neck Rd,-73.955161,40.595246,1668.7971246421953
13:20:30,1,D39,Sheepshead Bay,-73.954155,40.586896,1591.7664169593488
12:29:30,1,D40,Brighton Beach,-73.961376,40.577621,1741.4936896866216
12:29:30,1,D41,Ocean Pkwy,-73.968501,40.576312,1937.7930631545723
12:29:30,1,D42,W 8 St-NY Aquarium,-73.975939,40.576127,2052.244676057798
12:08:30,1,D43,Coney Island-Stillwell Av,-73.981233,40.577422,2132.2002316133535
12:07:30,0,E01,World Trade Center,-74.009781,40.712582,1155.205387398406
12:01:30,0,F01,Jamaica-179 St,-73.783817,40.712646,2958.131148046016
13:07:30,0,F02,169 St,-73.793604,40.71047,2868.131148046016
12:01:30,0,F03,Parsons Blvd,-73.803326,40.707564,2778.131148046016
12:01:30,0,F04,Sutphin Blvd,-73.810708,40.70546,2688.131148046016
12:01:30,0,F05,Briarwood,-73.820574,40.709179,2467.8239230024005
12:01:30,0,F06,Kew Gardens-Union Tpke,-73.831008,40.714441,2588.422417693498
12:01:30,0,F07,75 Av,-73.837324,40.718331,2702.46087923196
12:01:30,0,F09,Court Sq-23 St,-73.946,40.747846,1905.5755393512877
12:01:30,0,F11,Lexington Av/53 St,-73.969055,40.757552,2075.2966535735877
12:01:30,0,F12,5 Av/53 St,-73.975224,40.760167,1982.6126913094367
12:01:30,0,F14,2 Av,-73.989938,40.723402,999.4028898421496
12:01:30,0,F15,Delancey St-Essex St,-73.988114,40.718611,902.5610531074559
12:01:30,0,F16,East Broadway,-73.990173,40.713715,814.3884642749687
12:01:30,0,F18,York St,-73.986751,40.701397,638.6467988533205
12:01:30,0,F20,Bergen St,-73.990862,40.686145,643.0424822578251
12:01:30,0,F21,Carroll St,-73.995048,40.680303,752.3553618191007
12:01:30,0,F22,Smith-9 Sts,-73.995959,40.67358,889.9251942213353
12:01:30,0,F23,4 Av-9 St,-73.989779,40.670272,976.5474164435576
12:01:30,0,F24,7 Av,-73.980305,40.666271,968.6467988533207
12:01:30,0,F25,15 St-Prospect Park,-73.979493,40.660365,1136.5563822576496
12:01:30,0,F26,Fort Hamilton Pkwy,-73.975776,40.650782,1298.2156001347446
12:01:30,0,F27,Church Av,-73.979678,40.644041,1208.6467988533207
12:01:30,0,F29,Ditmas Av,-73.978172,40.636119,1328.6467988533207
12:01:30,0,F30,18 Av,-73.976971,40.629755,1448.6467988533207
12:01:30,0,F31,Avenue I,-73.976127,40.625322,1508.6467988533207
12:01:30,0,F32,Bay Pkwy,-73.975264,40.620769,1568.6467988533207
12:01:30,0,F33,Avenue N,-73.974197,40.61514,1688.6467988533207
12:01:30,0,F34,Avenue P,-73.973022,40.608944,1778.6467988533207
12:01:30,0,F35,Kings Hwy,-73.972361,40.603217,1952.3089208411134
13:38:30,0,F36,Avenue U,-73.973357,40.596063,2060.9099846709005
13:38:30,0,F38,Avenue X,-73.97425,40.58962,2154.1131932270505
12:08:30,1,F39,Neptune Av,-73.974574,40.581011,2268.5851033394097
13:50:30,1,G05,Jamaica Center-Parsons/Archer,-73.801109,40.702147,1981.7492988733209
13:50:30,1,G06,Sutphin Blvd-Archer Av-JFK Airport,-73.807969,40.700486,1921.7492988733209
13:58:30,1,G07,Jamaica-Van Wyck,-73.816859,40.702566,2341.1011507251724
12:01:30,0,G08,Forest Hills-71 Av,-73.844521,40.721691,2800.130382295268
13:19:30,0,G09,67 Av,-73.852719,40.726523,2948.9001219065203
13:19:30,0,G10,63 Dr-Rego Park,-73.861604,40.729846,2959.3589319910966
13:19:30,0,G11,Woodhaven Blvd,-73.869229,40.733106,2855.7287950047953
13:19:30,0,G12,Grand Av-Newtown,-73.877223,40.737015,2732.8537950047953
13:19:30,0,G13,Elmhurst Av,-73.882017,40.742454,2633.3195484294533
12:01:30,0,G14,Jackson Hts-Roosevelt Av,-73.891338,40.746644,2475.0284341302754
12:01:30,0,G15,65 St,-73.898453,40.749669,2595.5881629574315
12:01:30,0,G16,Northern Blvd,-73.906006,40.752885,2501.258266050215
12:01:30,0,G18,46 St,-73.913333,40.756312,2411.258266050215
12:01:30,0,G19,Steinway St,-73.92074,40.756879,2294.3510495553696
12:01:30,0,G20,36 St,-73.928781,40.752039,2174.3510495553696
12:01:30,0,G21,Queens Plaza,-73.937243,40.748973,2028.9428862900634
13:35:00,0,G22,Court Sq,-73.943832,40.746554,1725.5755393512877
13:35:00,0,G24,21 St,-73.949724,40.744065,1636.262562252051
13:35:00,0,G26,Greenpoint Av,-73.954449,40.731352,1494.866112547909
13:35:00,0,G28,Nassau Av,-73.951277,40.724635,1387.946572318024
13:35:00,0,G29,Metropolitan Av,-73.951418,40.712792,1249.2855553688714
13:35:00,0,G30,Broadway,-73.950308,40.706092,1163.5071462779622
13:35:00,0,G31,Flushing Av,-73.950234,40.700377,1071.0582826415987
13:35:00,0,G32,Myrtle-Willoughby Avs,-73.949046,40.694568,984.8878280961442
13:35:00,0,G33,Bedford-Nostrand Avs,-73.953522,40.689627,883.2628280961441
13:35:00,0,G34,Classon Av,-73.96007,40.688873,806.2683529580224
13:35:00,0,G35,Clinton-Washington Avs,-73.966839,40.688089,725.175456783159
13:35:00,0,G36,Fulton St,-73.975375,40.687119,632.8913037776946
13:06:00,0,H01,Aqueduct Racetrack,-73.834058,40.668234,1297.527943010836
12:06:30,0,H02,Aqueduct-N Conduit Av,-73.834058,40.668234,1341.8418230532059
12:06:30,0,H03,Howard Beach-JFK Airport,-73.830301,40.660476,1468.7168318997249
12:06:30,0,H04,Broad Channel,-73.815925,40.608382,1886.6684448029505
12:06:30,0,H06,Beach 67 St,-73.796924,40.590927,2197.957918487161
13:06:00,0,H07,Beach 60 St,-73.788522,40.592374,2301.4052869082134
13:06:00,0,H08,Beach 44 St,-73.776013,40.592943,2404.8877430485645
13:06:00,0,H09,Beach 36 St,-73.768175,40.595398,2502.133357083652
13:06:00,0,H10,Beach 25 St,-73.761353,40.600066,2602.513888057103
13:06:00,0,H11,Far Rockaway-Mott Av,-73.755405,40.603995,2701.68055472377
12:06:30,0,H12,Beach 90 St,-73.813641,40.588034,2137.9684448029507
12:06:30,0,H13,Beach 98 St,-73.820558,40.585307,2216.3684448029503
12:06:30,0,H14,Beach 105 St,-73.827559,40.583209,2292.4795559140616
12:06:30,0,H15,Rockaway Park-Beach 116 St,-73.835592,40.580903,2396.6795559140614
13:50:30,1,J12,121 St,-73.828294,40.700492,1681.7492988733209
13:50:30,1,J13,111 St,-73.836345,40.697418,1810.4961144046006
13:50:30,1,J14,104 St,-73.84433,40.695178,1501.7492988733209
13:50:30,1,J15,Woodhaven Blvd,-73.851576,40.693879,1362.011265666884
13:50:30,1,J16,85 St-Forest Pkwy,-73.86001,40.692435,1371.4757419323246
13:50:30,1,J17,75 St-Elderts Ln,-73.867139,40.691324,1182.011265666884
13:50:30,1,J19,Cypress Hills,-73.87255,40.689941,1169.2257419323246
13:50:30,1,J20,Crescent St,-73.873785,40.683194,1032.011265666884
13:50:30,1,J21,Norwood Av,-73.880039,40.68141,988.0112656668839
13:50:30,1,J22,Cleveland St,-73.884639,40.679947,928.8425066900104
13:50:30,1,J23,Van Siclen Av,-73.891688,40.678024,841.749298873321
13:50:30,1,J24,Alabama Av,-73.898654,40.676992,723.011265666884
13:50:30,1,J27,Broadway Junction,-73.904512,40.679498,610.3445990002173
13:50:30,1,J28,Chauncey St,-73.910456,40.682893,698.761265666884
13:50:30,1,J29,Halsey St,-73.916559,40.68637,829.5898376676599
13:50:30,1,J30,Gates Av,-73.92227,40.68963,844.6779323335506
13:50:30,1,J31,Kosciuszko St,-73.928814,40.693342,1011.7395382664623
12:08:30,1,L01,8 Av,-74.002578,40.739777,1426.0210303266163
13:35:00,1,L02,6 Av,-73.996786,40.737335,1525.916467590197
13:35:00,1,L03,14 St-Union Sq,-73.99073,40.734789,1556.291280914892
13:35:00,1,L05,3 Av,-73.986122,40.732849,1633.4465604179977
13:35:00,1,L06,1 Av,-73.981628,40.730953,1649.050271097111
13:35:00,1,L08,Bedford Av,-73.956872,40.717304,1451.1384169937674
13:35:00,1,L10,Lorimer St,-73.950275,40.714063,1363.2782346229467
13:35:00,1,L11,Graham Av,-73.944053,40.714565,1325.9074139542536
13:58:30,1,L12,Grand St,-73.94067,40.711926,1245.3850258945522
13:58:30,1,L13,Montrose Av,-73.93985,40.707739,1206.9615383500684
13:58:30,1,L14,Morgan Av,-73.933147,40.706152,1139.5520428011068
13:58:30,1,L15,Jefferson St,-73.922913,40.706607,1055.6703859963732
13:58:30,1,L16,DeKalb Av,-73.918425,40.703811,989.9685787674576
13:58:30,1,L17,Myrtle-Wyckoff Avs,-73.911586,40.699814,918.9595153233489
13:58:30,1,L19,Halsey St,-73.904084,40.695602,874.8955422593758
13:58:30,1,L20,Wilson Av,-73.904046,40.688764,757.9171471976474
13:58:30,1,L21,Bushwick Av-Aberdeen St,-73.905249,40.682829,673.5803416420919
12:06:30,1,L22,Broadway Junction,-73.90324,40.678856,602.9834873592871
12:06:30,1,L24,Atlantic Av,-73.903097,40.675345,674.201480438872
12:06:30,1,L25,Sutter Av,-73.901975,40.669367,751.4332986206902
12:06:30,1,L26,Livonia Av,-73.900571,40.664038,810.3886250811712
12:06:30,1,L27,New Lots Av,-73.899232,40.658733,895.6360477615835
12:06:30,1,L28,East 105 St,-73.899485,40.650573,1005.6478478788389
12:06:30,1,L29,Canarsie-Rockaway Pkwy,-73.90185,40.646654,1081.5519169895992
13:50:30,1,M01,Middle Village-Metropolitan Av,-73.889601,40.711396,1544.4110768842127
13:50:30,1,M04,Fresh Pond Rd,-73.895877,40.706186,1427.1280580162882
13:50:30,1,M05,Forest Av,-73.903077,40.704423,1334.5417242811275
13:50:30,1,M06,Seneca Av,-73.90774,40.702762,1240.1774858705317
13:50:30,1,M08,Myrtle-Wyckoff Avs,-73.912385,40.69943,1143.959515323349
13:50:30,1,M09,Knickerbocker Av,-73.919711,40.698664,1239.1583457327056
13:50:30,1,M10,Central Av,-73.927397,40.697857,1176.0034891550415
13:50:30,1,M11,Myrtle Av,-73.935657,40.697207,1011.8445990002173
13:50:30,1,M12,Flushing Av,-73.941126,40.70026,1195.825183908675
13:50:30,1,M13,Lorimer St,-73.947408,40.703869,1287.6073621264968
13:50:30,1,M14,Hewes St,-73.953431,40.70687,1386.3447358638705
12:06:30,1,M16,Marcy Av,-73.957757,40.708359,1260.011265666884
13:01:30,0,M18,Delancey St-Essex St,-73.987437,40.718315,1140.8302844268833
12:01:30,1,M19,Bowery,-73.993915,40.72028,1225.4909997823263
12:28:30,1,M20,Canal St,-73.999892,40.718092,1182.7957209694557
12:28:30,1,M21,Chambers St,-74.003401,40.713243,1076.8499378369258
12:28:30,1,M22,Fulton St,-74.007582,40.710374,975.2957209694558
12:01:30,1,M23,Broad St,-74.011056,40.706476,1041.4623876361225
12:07:30,1,N02,8 Av,-74.011719,40.635064,1863.6467988533204
12:07:30,1,N03,Fort Hamilton Pkwy,-74.005351,40.631386,1958.6467988533207
12:07:30,1,N04,New Utrecht Av,-73.996353,40.624842,2098.646798853321
12:07:30,1,N05,18 Av,-73.990414,40.620671,2188.646798853321
12:07:30,1,N06,20 Av,-73.985026,40.61741,2258.6467988533204
12:07:30,1,N07,Bay Pkwy,-73.981848,40.611815,2348.6467988533204
12:07:30,1,N08,Kings Hwy,-73.980353,40.603923,2468.6467988533204
12:07:30,1,N09,Avenue U,-73.979137,40.597473,2486.2002316133535
12:07:30,1,N10,86 St,-73.97823,40.592721,2426.2002316133535
12:07:30,1,Q01,Canal St,-74.00046,40.718383,1385.4995382323646
13:07:30,0,Q03,72 St,-73.958424,40.768799,2219.2626654665546
13:07:30,0,Q04,86 St,-73.951787,40.777891,2351.2317376315036
13:07:30,0,Q05,96 St,-73.947152,40.784318,2432.2626654665546
12:01:30,1,R01,Astoria-Ditmars Blvd,-73.912034,40.775036,2680.534512030054
12:01:30,1,R03,Astoria Blvd,-73.917843,40.770258,2579.356294208272
12:01:30,1,R04,30 Av,-73.921479,40.766779,2479.5029608749387
12:01:30,1,R05,Broadway,-73.925508,40.76182,2382.970493342471
12:01:30,1,R06,36 Av,-73.929575,40.756804,2288.1283880793135
12:01:30,1,R08,39 Av-Dutch Kills,-73.932755,40.752882,2182.8083880793133
12:01:30,1,R09,Queensboro Plaza,-73.940202,40.750582,2046.2678475387727
12:01:30,1,R11,Lexington Av/59 St,-73.967258,40.76266,1968.777227358111
12:01:30,1,R13,5 Av/59 St,-73.973347,40.764811,2057.22960650992
12:01:30,1,R14,57 St-7 Av,-73.980658,40.764664,2038.927690805041
12:01:30,1,R15,49 St,-73.984139,40.759901,1943.5283155371133
12:01:30,1,R16,Times Sq-42 St,-73.986754,40.754672,1854.3283155371134
13:51:30,1,R17,34 St-Herald Sq,-73.98795,40.749567,1783.9712630709491
13:51:30,1,R18,28 St,-73.988691,40.745494,1748.3068291743316
12:08:30,2,R19,23 St,-73.989344,40.741303,1667.1237305827824
13:51:30,1,R20,14 St-Union Sq,-73.990568,40.735736,1567.3302411333216
13:51:30,1,R21,8 St-NYU,-73.992629,40.730328,1531.2954720085236
13:51:30,1,R22,Prince St,-73.997702,40.724329,1448.4829720085236
13:51:30,1,R23,Canal St,-74.001775,40.719527,1347.3291258546776
13:51:30,1,R24,City Hall,-74.006978,40.713282,1195.7768870487073
13:51:30,1,R25,Cortlandt St,-74.011029,40.710668,1085.6127079442297
13:51:30,1,R26,Rector St,-74.013342,40.70722,961.137396178723
13:51:30,1,R27,Whitehall St-South Ferry,-74.012994,40.703087,894.4076664489932
13:51:30,1,R28,Court St,-73.991777,40.6941,626.1467988533205
12:07:30,1,R29,Jay St-MetroTech,-73.985942,40.69218,548.6467988533205
12:07:30,1,R30,DeKalb Av,-73.981824,40.690635,646.1467988533205
12:07:30,1,R31,Atlantic Av-Barclays Ctr,-73.97881,40.683666,788.6467988533205
12:07:30,1,R32,Union St,-73.98311,40.677316,911.1467988533205
12:07:30,1,R33,4 Av-9 St,-73.988302,40.670847,1033.6467988533207
12:07:30,1,R34,Prospect Av,-73.992872,40.665414,1100.6467988533207
12:07:30,1,R35,25 St,-73.998091,40.660397,1178.6467988533207
12:07:30,1,R36,36 St,-74.003549,40.655144,1303.6467988533207
12:07:30,1,R39,45 St,-74.010006,40.648939,1481.9616959711652
12:07:30,1,R40,53 St,-74.014034,40.645069,1577.146219780689
12:07:30,1,R41,59 St,-74.017881,40.641362,1708.6467988533207
12:07:30,1,R42,Bay Ridge Av,-74.023377,40.634967,1833.7650784488949
12:07:30,1,R43,77 St,-74.02551,40.629742,1914.037805721622
12:07:30,1,R44,86 St,-74.028398,40.622687,2090.3889961978125
12:07:30,1,R45,Bay Ridge-95 St,-74.030876,40.616622,2167.4047442293086
13:20:30,1,S01,Franklin Av,-73.955827,40.680596,257.6525423728813
13:20:30,1,S03,Park Pl,-73.957624,40.674772,380.5275423728813
13:20:30,1,S04,Botanic Garden,-73.959245,40.670343,472.12379205343336
