start_time,ntransfers,stop_id,stop_name,stop_lon,stop_lat,duration
13:50:00,1,101,Van Cortlandt Park-242 St,-73.898583,40.889248,5034.252945935963
12:50:00,1,103,238 St,-73.90087,40.884667,4929.4666556133825
12:50:00,1,104,231 St,-73.904834,40.878856,4836.868200014927
12:50:00,1,106,Marble Hill-225 St,-73.909831,40.874561,4749.020923961774
12:50:00,1,107,215 St,-73.915279,40.869444,4659.403255365481
12:50:00,1,108,207 St,-73.918822,40.864621,4570.505187446039
12:50:00,1,109,Dyckman St,-73.925536,40.860531,4470.192412115642
12:50:00,1,110,191 St,-73.929412,40.855225,4386.347584529435
12:50:00,1,111,181 St,-73.933596,40.849505,4295.31754161098
12:50:00,1,112,168 St-Washington Hts,-73.940133,40.840556,4176.1158248727825
12:50:00,1,113,157 St,-73.94489,40.834041,4275.434790390023
12:50:00,1,114,145 St,-73.95036,40.826551,4166.2103730007175
12:50:00,1,115,137 St-City College,-73.953676,40.822008,4065.3343046246487
12:50:00,1,116,125 St,-73.958372,40.815581,3967.4306579287118
12:50:00,1,117,116 St-Columbia University,-73.96411,40.807722,3843.0547455199526
12:50:00,1,118,Cathedral Pkwy (110 St),-73.966847,40.803967,3776.825592503436
12:50:00,1,119,103 St,-73.968379,40.799446,3696.058013493809
13:20:00,1,120,96 St,-73.972323,40.793919,3427.134491888133
13:20:00,1,121,86 St,-73.976218,40.788644,3480.280285035728
13:20:00,1,122,79 St,-73.979917,40.783934,3398.617363687413
13:20:00,1,123,72 St,-73.98197,40.778453,3247.6000091295127
13:00:00,1,124,66 St-Lincoln Center,-73.982209,40.77344,3215.55982833049
13:30:00,1,125,59 St-Columbus Circle,-73.981929,40.768247,3138.211513723749
13:30:00,1,126,50 St,-73.983849,40.761728,3143.703601757402
12:10:00,1,127,Times Sq-42 St,-73.987495,40.75529,3011.5127207901396
12:10:00,1,128,34 St-Penn Station,-73.991057,40.750373,2986.7846232333063
12:20:00,1,129,28 St,-73.993365,40.747215,3167.9985955622196
12:20:00,1,130,23 St,-73.995657,40.744081,3098.8503065888353
12:20:00,1,131,18 St,-73.997871,40.74104,3030.672276285805
12:10:00,1,132,14 St,-74.000201,40.737826,2819.3474113346
12:30:00,1,133,Christopher St-Sheridan Sq,-74.002906,40.733422,3039.2022849523823
12:30:00,1,134,Houston St,-74.005367,40.728251,2956.1061311062285
12:30:00,1,135,Canal St,-74.006277,40.722854,2869.0984090985066
12:30:00,1,136,Franklin St,-74.006886,40.719318,2804.90549571268
12:10:00,1,137,Chambers St,-74.009266,40.715478,2527.142148176705
12:10:00,1,138,WTC Cortlandt,-74.012188,40.711835,2705.304935214867
12:10:00,1,139,Rector St,-74.013783,40.707513,2628.794813757377
12:10:00,1,142,South Ferry,-74.013664,40.702068,2525.7039046664677
13:30:00,1,201,Wakefield-241 St,-73.85062,40.903125,6066.567217288469
13:30:00,1,204,Nereid Av,-73.854376,40.898379,5769.551403926505
13:30:00,1,205,233 St,-73.857473,40.893193,5679.551403926505
13:30:00,1,206,225 St,-73.860341,40.888022,5589.551403926505
13:30:00,1,207,219 St,-73.862633,40.883895,5499.551403926505
13:30:00,1,208,Gun Hill Rd,-73.866256,40.87785,5394.551403926505
13:30:00,1,209,Burke Av,-73.867164,40.871356,5405.493032013381
13:30:00,1,210,Allerton Av,-73.867352,40.865462,5313.362597230772
13:30:00,1,211,Pelham Pkwy,-73.867615,40.857192,5209.014771143816
13:30:00,1,212,Bronx Park East,-73.868457,40.848828,5080.5514039265045
13:30:00,1,213,E 180 St,-73.873488,40.841894,4873.884336361207
12:10:00,1,214,West Farms Sq-E Tremont Av,-73.880049,40.840295,4800.917537005886
12:10:00,1,215,174 St,-73.887734,40.837288,4670.831330109334
12:10:00,1,216,Freeman St,-73.891865,40.829993,4550.9937232717275
12:10:00,1,217,Simpson St,-73.893064,40.824073,4440.612367339524
13:30:00,1,218,Intervale Av,-73.896736,40.822181,4367.688638525964
13:30:00,1,219,Prospect Av,-73.90177,40.819585,4281.807282593762
12:10:00,1,220,Jackson Av,-73.907807,40.81649,4189.74845906435
13:30:00,1,221,3 Av-149 St,-73.917757,40.816109,4068.0401257310164
12:10:00,1,222,149 St-Grand Concourse,-73.926718,40.81841,3952.980424238479
13:20:00,1,224,135 St,-73.94077,40.814229,3972.735733381342
13:20:00,1,225,125 St,-73.945495,40.807754,3864.943825866891
13:20:00,1,226,116 St,-73.949625,40.802098,3766.8339992772962
13:20:00,1,227,Central Park North (110 St),-73.951822,40.799075,3690.2149516582485
12:10:00,1,228,Park Place,-74.008811,40.713051,2439.885603674087
12:10:00,1,229,Fulton St,-74.006571,40.709416,2332.2887450353437
12:10:00,1,230,Wall St,-74.0091,40.706821,2259.1787973913647
12:10:00,1,231,Clark St,-73.993086,40.697466,2065.078797391365
12:10:00,1,232,Borough Hall,-73.989998,40.693219,1951.3876979149247
12:10:00,1,233,Hoyt St,-73.985065,40.690545,1866.8643818527485
12:10:00,1,234,Nevins St,-73.980492,40.688246,1771.8535122875312
12:10:00,1,235,Atlantic Av-Barclays Ctr,-73.977666,40.684359,1691.848357648356
12:20:00,1,236,Bergen St,-73.975098,40.680829,1769.0184607411395
12:20:00,1,237,Grand Army Plaza,-73.971046,40.675235,1881.1267081638198
12:20:00,1,238,Eastern Pkwy-Brooklyn Museum,-73.964375,40.671987,1991.1420927792046
12:10:00,1,239,Franklin Av-Medgar Evers College,-73.958131,40.670682,2011.297125005451
12:30:00,1,241,President St-Medgar Evers College,-73.950683,40.667883,2230.700794730222
12:30:00,1,242,Sterling St,-73.95085,40.662742,2326.164431093858
12:30:00,1,243,Winthrop St,-73.9502,40.656652,2418.632321002115
12:30:00,1,244,Church Av,-73.949575,40.650843,2500.88920173606
12:30:00,1,245,Beverly Rd,-73.948959,40.645098,2585.93920173606
12:30:00,1,246,Newkirk Av-Little Haiti,-73.948411,40.639967,2697.5904179306967
12:30:00,1,247,Flatbush Av-Brooklyn College,-73.947642,40.632836,2814.9612044475507
12:30:00,1,248,Nostrand Av,-73.950466,40.669847,2168.0759331238687
12:30:00,1,249,Kingston Av,-73.942161,40.669399,2264.468089986614
12:10:00,1,250,Crown Hts-Utica Av,-73.932942,40.668897,2346.698859217383
12:30:00,1,251,Sutter Av-Rutland Rd,-73.92261,40.664717,2470.556002074526
12:30:00,1,252,Saratoga Av,-73.916327,40.661453,2575.1442373686436
12:30:00,1,253,Rockaway Av,-73.908946,40.662549,2664.085413839232
12:30:00,1,254,Junius St,-73.902447,40.663515,2745.928551094134
12:30:00,1,255,Pennsylvania Av,-73.894895,40.664635,2843.1442373686436
12:30:00,1,256,Van Siclen Av,-73.889395,40.665449,2917.6540412902127
12:30:00,1,257,New Lots Av,-73.884079,40.666235,3012.7694259055975
12:10:00,1,301,Harlem-148 St,-73.93647,40.82388,4241.929580317523
12:10:00,1,302,145 St,-73.936245,40.820421,4109.694797708827
13:50:00,1,401,Woodlawn,-73.878751,40.886037,5203.516015552042
13:50:00,1,402,Mosholu Pkwy,-73.884655,40.87975,5081.943328327372
12:30:00,1,405,Bedford Park Blvd-Lehman College,-73.890064,40.873412,4944.301086948061
12:30:00,1,406,Kingsbridge Rd,-73.897174,40.86776,4832.811816561795
12:30:00,1,407,Fordham Rd,-73.901034,40.862803,4748.299521479828
12:30:00,1,408,183 St,-73.903879,40.858407,4668.491358214522
12:30:00,1,409,Burnside Av,-73.907684,40.853453,4573.093017965559
12:30:00,1,410,176 St,-73.911794,40.84848,4484.607540787136
12:30:00,1,411,Mt Eden Av,-73.914685,40.844434,4406.896796985484
12:30:00,1,412,170 St,-73.917791,40.840075,4327.355474671434
12:30:00,1,413,167 St,-73.9214,40.835537,4239.446760978489
12:30:00,1,414,161 St-Yankee Stadium,-73.925831,40.827994,4131.450945078907
12:30:00,1,415,149 St-Grand Concourse,-73.927351,40.818375,3948.5308664958266
12:10:00,1,416,138 St-Grand Concourse,-73.929849,40.813224,3795.8417381070917
12:10:00,1,418,Fulton St,-74.009509,40.710368,2356.9334473744384
12:10:00,1,419,Wall St,-74.011862,40.707557,2279.7219936299452
12:10:00,1,420,Bowling Green,-74.014065,40.704817,2205.7311679418717
12:10:00,1,423,Borough Hall,-73.990151,40.692404,1937.0825192932225
13:30:00,1,501,Eastchester-Dyre Av,-73.830834,40.8883,5649.484376690209
13:30:00,1,502,Baychester Av,-73.838591,40.878663,5519.121739327572
13:30:00,1,503,Gun Hill Rd,-73.846384,40.869526,5360.35292212327
13:30:00,1,504,Pelham Pkwy,-73.855359,40.858985,5202.994226471096
13:30:00,1,505,Morris Park,-73.860495,40.854364,5115.312907789778
13:10:00,1,601,Pelham Bay Park,-73.828121,40.852462,5448.206076178747
13:10:00,1,602,Buhre Av,-73.832569,40.84681,5264.779125824136
13:10:00,1,603,Middletown Rd,-73.836322,40.843863,5155.945792490803
13:10:00,1,604,Westchester Sq-E Tremont Av,-73.842952,40.839892,5011.195792490804
13:10:00,1,606,Zerega Av,-73.847036,40.836488,4913.11245915747
13:10:00,1,607,Castle Hill Av,-73.851222,40.834255,4845.779125824137
12:30:00,1,608,Parkchester,-73.860816,40.833226,4689.779125824137
12:30:00,1,609,St Lawrence Av,-73.867618,40.831509,4927.716492308256
12:30:00,1,610,Morrison Av-Soundview,-73.874516,40.829521,4842.648763224591
12:30:00,1,611,Elder Av,-73.879159,40.828584,4777.484763224591
12:30:00,1,612,Whitlock Av,-73.886283,40.826525,4671.144763224591
12:30:00,1,613,Hunts Point Av,-73.890549,40.820948,4433.394510439522
12:10:00,1,614,Longwood Av,-73.896435,40.816104,4515.686693676225
12:10:00,1,615,E 149 St,-73.904098,40.812118,4414.578360342892
12:10:00,1,616,E 143 St-St Mary's St,-73.907657,40.808719,4339.73603669144
12:10:00,1,617,Cypress Av,-73.914042,40.805368,4240.815534599389
12:10:00,1,618,Brook Av,-73.91924,40.807566,4171.256711069977
12:10:00,1,619,3 Av-138 St,-73.926138,40.810476,4054.3175873625983
12:10:00,1,621,125 St,-73.937594,40.804138,3627.460443143063
12:10:00,1,622,116 St,-73.941617,40.798629,3794.8929183044875
12:10:00,1,623,110 St,-73.94425,40.79502,3714.942041111505
12:10:00,1,624,103 St,-73.947478,40.7906,3638.5701112869438
12:10:00,1,625,96 St,-73.95107,40.785672,3552.099935848347
12:10:00,1,626,86 St,-73.955589,40.779492,3343.0647596898257
12:10:00,1,627,77 St,-73.959874,40.77362,3356.9543646031607
12:10:00,1,628,68 St-Hunter College,-73.96387,40.768141,3267.3293646031607
12:10:00,1,629,59 St,-73.967967,40.762526,3145.9158235196132
12:10:00,1,630,51 St,-73.97192,40.757107,3074.407720407957
12:10:00,1,631,Grand Central-42 St,-73.976848,40.751776,2966.767860268097
12:00:00,1,632,33 St,-73.982076,40.746081,2858.7369324330452
12:00:00,1,633,28 St,-73.984264,40.74307,2791.8812623299527
12:00:00,1,634,23 St,-73.986599,40.739864,2728.6287026029904
12:10:00,1,635,14 St-Union Sq,-73.989951,40.734673,2590.0170187541935
12:00:00,1,636,Astor Pl,-73.99107,40.730054,2514.326297104709
14:00:00,1,637,Bleecker St,-73.994659,40.725915,2423.609573555221
14:00:00,1,638,Spring St,-73.997141,40.722301,2490.3133992259623
12:10:00,1,639,Canal St,-74.000193,40.718803,2416.536372198935
12:10:00,1,640,Brooklyn Bridge-City Hall,-74.004131,40.713065,2467.889394511002
14:00:00,1,701,Flushing-Main St,-73.83003,40.7596,4510.662269375227
14:00:00,1,702,Mets-Willets Point,-73.845625,40.754622,4334.352745565703
12:20:00,1,705,111 St,-73.855334,40.75173,4375.767473792762
12:20:00,1,706,103 St-Corona Plaza,-73.8627,40.749865,4282.1414653147085
14:00:00,1,707,Junction Blvd,-73.869527,40.749145,4111.808131981375
12:20:00,1,708,90 St-Elmhurst Av,-73.876613,40.748408,4160.793966168331
12:20:00,1,709,82 St-Jackson Hts,-73.883697,40.747659,4081.413684478191
12:00:00,1,710,74 St-Broadway,-73.891394,40.746848,3939.1653851584633
12:00:00,1,711,69 St,-73.896403,40.746325,3891.7536204525804
14:00:00,1,712,61 St-Woodside,-73.902984,40.74563,3819.8451697483556
12:00:00,1,713,52 St,-73.912549,40.744149,3701.627312277078
12:00:00,1,714,46 St-Bliss St,-73.918435,40.743132,3647.9337189623147
12:00:00,1,715,40 St-Lowery St,-73.924016,40.743781,3596.56324542471
12:00:00,1,716,33 St-Rawson St,-73.930997,40.744587,3528.28299064764
12:00:00,1,718,Queensboro Plaza,-73.940202,40.750582,3385.8081303124445
12:00:00,1,719,Court Sq,-73.945264,40.747023,3274.6884721927863
12:00:00,1,720,Hunters Point Av,-73.948916,40.742216,3180.8923289420977
12:00:00,1,721,Vernon Blvd-Jackson Av,-73.953581,40.742626,3107.970580137072
12:00:00,1,723,Grand Central-42 St,-73.976041,40.751431,2893.2269903934825
14:00:00,1,724,5 Av,-73.981963,40.753821,2837.798418964911
12:00:00,1,725,Times Sq-42 St,-73.987691,40.755477,2888.298418964911
12:00:00,1,726,34 St-Hudson Yards,-74.00191,40.755882,3018.298418964911
13:20:00,1,901,Grand Central-42 St,-73.979189,40.752769,3073.2269903934825
13:20:00,1,902,Times Sq-42 St,-73.986229,40.755983,2977.8204133179106
13:00:00,0,A02,Inwood-207 St,-73.919899,40.868072,4501.686304564598
13:00:00,0,A03,Dyckman St,-73.927271,40.865491,4411.613311863867
13:00:00,0,A05,190 St,-73.93418,40.859022,4288.020920559519
13:00:00,0,A06,181 St,-73.937969,40.851695,4174.785626441872
13:00:00,0,A07,175 St,-73.939704,40.847391,4078.065196334345
13:00:00,0,A09,168 St,-73.939561,40.840719,3950.626693660548
12:10:00,0,A10,163 St-Amsterdam Av,-73.939892,40.836013,3881.2644969394382
12:10:00,0,A11,155 St,-73.941514,40.830518,3799.4311636061043
12:20:00,0,A12,145 St,-73.944216,40.824783,3675.240687415628
12:20:00,0,A14,135 St,-73.947649,40.817894,3561.7486239235645
12:50:00,0,A15,125 St,-73.952343,40.811109,3389.810239838398
12:00:00,0,A16,116 St,-73.954882,40.805085,3513.6458220691
13:00:00,0,A17,Cathedral Pkwy (110 St),-73.958161,40.800603,3598.320955398308
13:00:00,0,A18,103 St,-73.961454,40.796092,3644.3370806067305
13:00:00,0,A19,96 St,-73.964696,40.791642,3554.3049090827312
13:00:00,0,A20,86 St,-73.968916,40.785868,3457.7022549061153
13:00:00,0,A21,81 St-Museum of Natural History,-73.972143,40.781433,3361.6755882394486
13:00:00,0,A22,72 St,-73.97641,40.775594,3272.7955882394485
12:50:00,0,A24,59 St-Columbus Circle,-73.981736,40.768296,2913.211513723749
12:50:00,0,A25,50 St,-73.985984,40.762456,3113.842382397298
14:00:00,0,A27,42 St-Port Authority Bus Terminal,-73.989735,40.757308,2987.279134300866
12:00:00,1,A28,34 St-Penn Station,-73.993391,40.752287,2890.9888117202213
12:30:00,1,A30,23 St,-73.998041,40.745906,2797.8040243096934
13:10:00,1,A31,14 St,-74.00169,40.740893,2706.1343814525503
13:10:00,1,A32,W 4 St-Wash Sq,-74.000495,40.732338,2594.011574435007
13:00:00,1,A33,Spring St,-74.003739,40.726227,2699.590146067937
13:10:00,1,A34,Canal St,-74.005229,40.720824,2590.0524803786125
13:10:00,1,A36,Chambers St,-74.008585,40.714111,2478.242135551026
13:10:00,1,A38,Fulton St,-74.007691,40.710197,2378.7647742316854
13:10:00,1,A40,High St,-73.990531,40.699337,2195.1908611882072
13:40:00,1,A41,Jay St-MetroTech,-73.987342,40.692338,2070.703904666468
13:20:00,1,A42,Hoyt-Schermerhorn Sts,-73.985001,40.688484,2082.307601024775
12:10:00,1,A43,Lafayette Av,-73.973946,40.686113,2321.5070597261065
13:20:00,1,A44,Clinton-Washington Avs,-73.965838,40.683263,2406.170696089743
13:20:00,1,A45,Franklin Av,-73.956848,40.68138,2512.2956960897427
13:20:00,1,A46,Nostrand Av,-73.950426,40.680438,2484.350703519789
12:10:00,1,A47,Kingston-Throop Avs,-73.940858,40.679921,2584.704870186455
13:20:00,1,A48,Utica Av,-73.930729,40.679364,2655.17092823889
12:10:00,1,A49,Ralph Av,-73.920786,40.678822,2765.888319543238
12:10:00,1,A50,Rockaway Av,-73.911946,40.67834,2878.484064224089
13:20:00,1,A51,Broadway Junction,-73.905316,40.678334,2889.360872372968
13:20:00,1,A52,Liberty Av,-73.896548,40.674542,3010.748627475009
13:20:00,1,A53,Van Siclen Av,-73.890358,40.67271,3094.908627475009
13:20:00,1,A54,Shepherd Av,-73.88075,40.67413,3199.908627475009
13:20:00,1,A55,Euclid Av,-73.872106,40.675377,3209.601994222325
13:20:00,1,A57,Grant Av,-73.86505,40.677044,3331.7845668364334
13:20:00,1,A59,80 St,-73.858992,40.679371,3429.1365668364333
13:20:00,1,A60,88 St,-73.85147,40.679843,3525.0967261989836
13:20:00,1,A61,Rockaway Blvd,-73.843853,40.680429,3615.4419642942216
13:10:00,1,A63,104 St,-73.837683,40.681711,3699.1139642942217
13:10:00,1,A64,111 St,-73.832163,40.684331,3785.245111835205
13:10:00,1,A65,Ozone Park-Lefferts Blvd,-73.825798,40.685951,3874.3084029744455
12:20:00,0,B04,21 St-Queensbridge,-73.942836,40.754203,3437.798418964911
12:20:00,0,B06,Roosevelt Island,-73.95326,40.759145,3317.798418964911
12:20:00,0,B08,Lexington Av/63 St,-73.966113,40.764629,3167.798418964911
12:20:00,0,B10,57 St,-73.97745,40.763972,3017.798418964911
12:00:00,0,B12,9 Av,-73.994324,40.646292,796.0414964051084
12:00:00,0,B13,Fort Hamilton Pkwy,-73.994304,40.640914,694.9389323025443
12:00:00,0,B14,50 St,-73.994791,40.63626,615.9134545955379
12:00:00,0,B15,55 St,-73.995476,40.631435,516.1554928120985
12:00:00,0,B16,62 St,-73.996895,40.626472,443.7175387899487
12:00:00,0,B17,71 St,-73.998864,40.619589,345.3484911709011
12:00:00,0,B18,79 St,-74.00061,40.613501,241.13250942605777
12:00:00,0,B19,18 Av,-74.001736,40.607954,159.53896103896102
12:00:00,0,B20,20 Av,-73.998168,40.604556,77.54545454545455
12:00:00,0,B21,Bay Pkwy,-73.993728,40.601875,0.0
12:04:00,0,B22,25 Av,-73.986829,40.597704,99.30857142857143
12:04:00,0,B23,Bay 50 St,-73.983765,40.588841,244.00043189368773
12:00:00,0,D01,Norwood-205 St,-73.878855,40.874811,4808.09405076306
12:00:00,0,D03,Bedford Park Blvd,-73.887138,40.873244,4636.607564276574
12:00:00,0,D04,Kingsbridge Rd,-73.893509,40.866978,4519.4513142765745
12:00:00,0,D05,Fordham Rd,-73.897749,40.861296,4424.919845745106
12:00:00,0,D06,182-183 Sts,-73.900741,40.856093,4337.9859389439425
12:50:00,0,D07,Tremont Av,-73.905227,40.85041,4259.870894696154
12:50:00,0,D08,174-175 Sts,-73.910136,40.8459,4215.468191882372
12:50:00,0,D09,170 St,-73.9134,40.839306,4109.2117816259615
12:50:00,0,D10,167 St,-73.91844,40.833771,4004.2924267872518
12:50:00,0,D11,161 St-Yankee Stadium,-73.925651,40.827905,3886.9114744063
12:50:00,0,D12,155 St,-73.938209,40.830135,3768.711474406299
12:50:00,0,D13,145 St,-73.944216,40.824783,3625.2114744062997
12:50:00,0,D14,7 Av,-73.981637,40.762862,2811.051019896588
12:00:00,0,D15,47-50 Sts-Rockefeller Ctr,-73.981329,40.758663,2706.467168964911
12:00:00,0,D16,42 St-Bryant Pk,-73.984569,40.754222,2612.798418964911
12:00:00,0,D17,34 St-Herald Sq,-73.987823,40.749719,2529.5657145623954
13:00:00,0,D18,23 St,-73.992821,40.742878,2791.1916901065943
13:00:00,0,D19,14 St,-73.996209,40.738228,2681.0476678532655
12:00:00,0,D20,W 4 St-Wash Sq,-74.000495,40.732338,2354.011574435007
12:00:00,0,D21,Broadway-Lafayette St,-73.996204,40.725297,2211.381001186599
12:00:00,0,D22,Grand St,-73.993753,40.718267,2074.7709382935172
12:30:00,0,D24,Atlantic Av-Barclays Ctr,-73.97689,40.68446,1687.9658079524484
12:10:00,1,D25,7 Av,-73.972367,40.67705,1824.0887129803814
12:30:00,0,D26,Prospect Park,-73.962246,40.661614,1890.9358437689941
12:30:00,0,D27,Parkside Av,-73.961495,40.655292,1915.8951817317588
12:04:00,0,D28,Church Av,-73.962982,40.650527,1759.41898983641
12:04:00,0,D29,Beverley Rd,-73.964492,40.644031,1754.9891918537007
12:04:00,0,D30,Cortelyou Rd,-73.963891,40.640927,1694.9358585203674
12:04:00,0,D31,Newkirk Plaza,-73.962793,40.635082,1579.8634342808543
12:04:00,0,D32,Avenue H,-73.961639,40.62927,1639.620130164336
12:04:00,0,D33,Avenue J,-73.960803,40.625039,1570.132630164336
12:04:00,0,D34,Avenue M,-73.959399,40.617618,1466.0146814463874
12:04:00,0,D35,Kings Hwy,-73.957734,40.60867,1331.7078787252988
12:04:00,0,D37,Avenue U,-73.955929,40.5993,1256.8412120586322
12:04:00,0,D38,Neck Rd,-73.955161,40.595246,1157.3051295844054
12:04:00,0,D39,Sheepshead Bay,-73.954155,40.586896,1035.3412120586322
12:04:00,0,D40,Brighton Beach,-73.961376,40.577621,908.5783254606941
12:04:00,0,D41,Ocean Pkwy,-73.968501,40.576312,825.7885527334214
12:34:00,0,D42,W 8 St-NY Aquarium,-73.975939,40.576127,696.1147176079734
12:04:00,0,D43,Coney Island-Stillwell Av,-73.981233,40.577422,451.38138427464014
13:40:00,1,E01,World Trade Center,-74.009781,40.712582,2689.2317574102017
12:00:00,0,F01,Jamaica-179 St,-73.783817,40.712646,4901.642758587553
12:20:00,0,F02,169 St,-73.793604,40.71047,4811.642758587553
12:20:00,0,F03,Parsons Blvd,-73.803326,40.707564,4721.642758587553
12:20:00,0,F04,Sutphin Blvd,-73.810708,40.70546,4697.7984189649105
12:20:00,0,F05,Briarwood,-73.820574,40.709179,4577.7984189649105
14:00:00,0,F06,Kew Gardens-Union Tpke,-73.831008,40.714441,4457.7984189649105
12:20:00,0,F07,75 Av,-73.837324,40.718331,4367.7984189649105
14:00:00,0,F09,Court Sq-23 St,-73.946,40.747846,3379.661598039358
14:00:00,0,F11,Lexington Av/53 St,-73.969055,40.757552,3176.090169467929
14:00:00,0,F12,5 Av/53 St,-73.975224,40.760167,3076.9064959985412
14:00:00,0,F14,2 Av,-73.989938,40.723402,2505.6991280596244
12:20:00,1,F15,Delancey St-Essex St,-73.988114,40.718611,2408.8572913249304
12:20:00,1,F16,East Broadway,-73.990173,40.713715,2320.684702492443
13:50:00,1,F18,York St,-73.986751,40.701397,2160.703904666468
12:30:00,1,F20,Bergen St,-73.990862,40.686145,1958.609597633147
12:30:00,1,F21,Carroll St,-73.995048,40.680303,1859.025893577398
13:20:00,1,F22,Smith-9 Sts,-73.995959,40.67358,1722.7395828743602
12:34:00,0,F23,4 Av-9 St,-73.989779,40.670272,1639.2738965998506
14:00:00,1,F24,7 Av,-73.980305,40.666271,1757.207229933184
12:34:00,0,F25,15 St-Prospect Park,-73.979493,40.660365,1876.947664485383
12:34:00,0,F26,Fort Hamilton Pkwy,-73.975776,40.650782,1940.440243979006
12:34:00,0,F27,Church Av,-73.979678,40.644041,1834.0838083354417
12:34:00,0,F29,Ditmas Av,-73.978172,40.636119,1688.0480509413067
12:34:00,0,F30,18 Av,-73.976971,40.629755,1571.0480509413067
12:34:00,0,F31,Avenue I,-73.976127,40.625322,1497.620076992158
12:34:00,0,F32,Bay Pkwy,-73.975264,40.620769,1407.0480509413067
12:34:00,0,F33,Avenue N,-73.974197,40.61514,1326.7266505962189
12:34:00,0,F34,Avenue P,-73.973022,40.608944,1245.099784924577
12:34:00,0,F35,Kings Hwy,-73.972361,40.603217,1150.38138427464
12:34:00,0,F36,Avenue U,-73.973357,40.596063,1033.7147176079734
12:34:00,0,F38,Avenue X,-73.97425,40.58962,946.38138427464
12:34:00,0,F39,Neptune Av,-73.974574,40.581011,811.38138427464
13:00:00,0,G05,Jamaica Center-Parsons/Archer,-73.801109,40.702147,4466.100002393109
14:00:00,0,G06,Sutphin Blvd-Archer Av-JFK Airport,-73.807969,40.700486,4406.100002393109
14:00:00,0,G07,Jamaica-Van Wyck,-73.816859,40.702566,4758.087756216761
14:00:00,0,G08,Forest Hills-71 Av,-73.844521,40.721691,4247.7984189649105
13:00:00,0,G09,67 Av,-73.852719,40.726523,4383.128853747519
13:00:00,0,G10,63 Dr-Rego Park,-73.861604,40.729846,4469.311779481403
13:00:00,0,G11,Woodhaven Blvd,-73.869229,40.733106,4374.737866437925
13:00:00,0,G12,Grand Av-Newtown,-73.877223,40.737015,4272.650909916186
13:00:00,0,G13,Elmhurst Av,-73.882017,40.742454,4172.900909916187
14:00:00,0,G14,Jackson Hts-Roosevelt Av,-73.891338,40.746644,3827.798418964911
13:00:00,0,G15,65 St,-73.898453,40.749669,4069.6742216455013
12:10:00,0,G16,Northern Blvd,-73.906006,40.752885,3975.344324738285
12:10:00,0,G18,46 St,-73.913333,40.756312,3885.344324738285
12:10:00,0,G19,Steinway St,-73.92074,40.756879,3768.43710824344
12:10:00,0,G20,36 St,-73.928781,40.752039,3648.43710824344
14:00:00,0,G21,Queens Plaza,-73.937243,40.748973,3503.0289449781335
12:20:00,1,G22,Court Sq,-73.943832,40.746554,3289.6032558283177
14:00:00,1,G24,21 St,-73.949724,40.744065,3200.2902787290814
12:20:00,1,G26,Greenpoint Av,-73.954449,40.731352,3048.801835332439
12:20:00,1,G28,Nassau Av,-73.951277,40.724635,2951.974288795054
12:20:00,1,G29,Metropolitan Av,-73.951418,40.712792,2813.313271845901
12:20:00,1,G30,Broadway,-73.950308,40.706092,2721.7757090175564
12:20:00,1,G31,Flushing Av,-73.950234,40.700377,2635.0859991186285
12:20:00,1,G32,Myrtle-Willoughby Avs,-73.949046,40.694568,2548.915544573174
12:20:00,1,G33,Bedford-Nostrand Avs,-73.953522,40.689627,2441.726682571756
12:20:00,1,G34,Classon Av,-73.96007,40.688873,2359.7992214318597
12:20:00,1,G35,Clinton-Washington Avs,-73.966839,40.688089,2275.933242050416
12:20:00,1,G36,Fulton St,-73.975375,40.687119,2177.4870882042624
12:20:00,1,H01,Aqueduct Racetrack,-73.834058,40.668234,3821.4737103259677
13:20:00,1,H02,Aqueduct-N Conduit Av,-73.834058,40.668234,3826.192526572994
13:20:00,1,H03,Howard Beach-JFK Airport,-73.830301,40.660476,3963.17482745795
13:20:00,1,H04,Broad Channel,-73.815925,40.608382,4391.595880089529
13:20:00,1,H06,Beach 67 St,-73.796924,40.590927,4686.604729647051
13:20:00,1,H07,Beach 60 St,-73.788522,40.592374,4798.797712103192
13:20:00,1,H08,Beach 44 St,-73.776013,40.592943,4912.113027418507
13:20:00,1,H09,Beach 36 St,-73.768175,40.595398,5007.488027418507
13:20:00,1,H10,Beach 25 St,-73.761353,40.600066,5121.6844559899355
13:20:00,1,H11,Far Rockaway-Mott Av,-73.755405,40.603995,5195.147418952898
13:50:00,1,H12,Beach 90 St,-73.813641,40.588034,4661.914212118083
13:50:00,1,H13,Beach 98 St,-73.820558,40.585307,4740.314212118084
13:50:00,1,H14,Beach 105 St,-73.827559,40.583209,4816.425323229195
13:50:00,1,H15,Rockaway Park-Beach 116 St,-73.835592,40.580903,4920.625323229195
12:00:00,2,J12,121 St,-73.828294,40.700492,4166.100002393109
13:10:00,2,J13,111 St,-73.836345,40.697418,4328.429482161895
13:10:00,2,J14,104 St,-73.84433,40.695178,3986.100002393109
13:10:00,2,J15,Woodhaven Blvd,-73.851576,40.693879,3885.957032982015
13:10:00,2,J16,85 St-Forest Pkwy,-73.86001,40.692435,3895.421509247455
13:10:00,2,J17,75 St-Elderts Ln,-73.867139,40.691324,3705.9570329820153
13:10:00,2,J19,Cypress Hills,-73.87255,40.689941,3693.1715092474556
13:10:00,2,J20,Crescent St,-73.873785,40.683194,3555.9570329820153
13:10:00,2,J21,Norwood Av,-73.880039,40.68141,3476.1000023931097
13:10:00,2,J22,Cleveland St,-73.884639,40.679947,3452.788274005142
13:10:00,2,J23,Van Siclen Av,-73.891688,40.678024,3326.1000023931097
13:10:00,2,J24,Alabama Av,-73.898654,40.676992,3246.9570329820153
13:10:00,2,J27,Broadway Junction,-73.904512,40.679498,3134.290366315349
13:10:00,2,J28,Chauncey St,-73.910456,40.682893,3222.7070329820153
12:00:00,2,J29,Halsey St,-73.916559,40.68637,3353.5356049827915
12:00:00,2,J30,Gates Av,-73.92227,40.68963,3368.6236996486823
12:30:00,0,J31,Kosciuszko St,-73.928814,40.693342,3378.4170160447784
12:00:00,1,L01,8 Av,-74.002578,40.739777,2863.4990860375055
12:00:00,1,L02,6 Av,-73.996786,40.737335,2746.085403698932
12:00:00,1,L03,14 St-Union Sq,-73.99073,40.734789,2669.7872670529696
13:20:00,1,L05,3 Av,-73.986122,40.732849,2746.942546556075
13:20:00,1,L06,1 Av,-73.981628,40.730953,2775.1758798894084
13:20:00,1,L08,Bedford Av,-73.956872,40.717304,2973.087733992752
13:20:00,1,L10,Lorimer St,-73.950275,40.714063,3035.5715149382822
13:20:00,1,L11,Graham Av,-73.944053,40.714565,3070.3359593827267
13:20:00,1,L12,Grand St,-73.94067,40.711926,3150.081182312663
13:20:00,1,L13,Montrose Av,-73.93985,40.707739,3186.103194891279
13:20:00,1,L14,Morgan Av,-73.933147,40.706152,3259.2977067601223
13:20:00,1,L15,Jefferson St,-73.922913,40.706607,3343.179363564856
13:20:00,1,L16,DeKalb Av,-73.918425,40.703811,3408.881170793772
13:20:00,1,L17,Myrtle-Wyckoff Avs,-73.911586,40.699814,3442.9052826384805
12:00:00,2,L19,Halsey St,-73.904084,40.695602,3398.8413095745072
13:20:00,2,L20,Wilson Av,-73.904046,40.688764,3281.862914512779
13:20:00,2,L21,Bushwick Av-Aberdeen St,-73.905249,40.682829,3197.526108957223
13:20:00,2,L22,Broadway Junction,-73.90324,40.678856,3126.9292546744186
13:20:00,2,L24,Atlantic Av,-73.903097,40.675345,3198.1472477540033
13:20:00,2,L25,Sutter Av,-73.901975,40.669367,3133.637529422307
13:20:00,2,L26,Livonia Av,-73.900571,40.664038,3075.928551094134
13:20:00,2,L27,New Lots Av,-73.899232,40.658733,3125.028551094134
13:20:00,2,L28,East 105 St,-73.899485,40.650573,3221.7549661884736
13:50:00,2,L29,Canarsie-Rockaway Pkwy,-73.90185,40.646654,3346.819155377663
13:00:00,0,M01,Middle Village-Metropolitan Av,-73.889601,40.711396,4015.3034611751273
12:40:00,0,M04,Fresh Pond Rd,-73.895877,40.706186,3873.790127841794
13:00:00,0,M05,Forest Av,-73.903077,40.704423,3765.6322331049523
12:40:00,0,M06,Seneca Av,-73.90774,40.702762,3671.2679946943563
12:40:00,0,M08,Myrtle-Wyckoff Avs,-73.912385,40.69943,3589.04040848746
12:10:00,0,M09,Knickerbocker Av,-73.919711,40.698664,3479.709239656291
12:40:00,0,M10,Central Av,-73.927397,40.697857,3387.5285944950006
12:10:00,0,M11,Myrtle Av,-73.935657,40.697207,3223.369704340176
12:10:00,0,M12,Flushing Av,-73.941126,40.70026,3224.3531087645983
12:10:00,0,M13,Lorimer St,-73.947408,40.703869,3132.5709305467763
12:10:00,0,M14,Hewes St,-73.953431,40.70687,3033.833556809403
12:10:00,0,M16,Marcy Av,-73.957757,40.708359,2942.223556809403
12:10:00,0,M18,Delancey St-Essex St,-73.987437,40.718315,2580.3811325669785
12:00:00,1,M19,Bowery,-73.993915,40.72028,2500.2453300978427
12:00:00,1,M20,Canal St,-73.999892,40.718092,2402.257525219794
12:00:00,1,M21,Chambers St,-74.003401,40.713243,2509.619704340176
12:00:00,1,M22,Fulton St,-74.007582,40.710374,2597.108711784234
12:00:00,1,M23,Broad St,-74.011056,40.706476,2663.803448626339
13:40:00,1,N02,8 Av,-74.011719,40.635064,885.1834648400704
13:40:00,1,N03,Fort Hamilton Pkwy,-74.005351,40.631386,797.3061078339975
13:30:00,1,N04,New Utrecht Av,-73.996353,40.624842,675.1834648400705
12:00:00,1,N05,18 Av,-73.990414,40.620671,754.8061078339975
12:00:00,1,N06,20 Av,-73.985026,40.61741,835.1834648400705
12:00:00,1,N07,Bay Pkwy,-73.981848,40.611815,925.1834648400705
12:00:00,1,N08,Kings Hwy,-73.980353,40.603923,1021.1802849366892
12:00:00,1,N09,Avenue U,-73.979137,40.597473,928.4535407506427
12:00:00,1,N10,86 St,-73.97823,40.592721,845.9091620524179
14:00:00,0,Q01,Canal St,-74.00046,40.718383,2176.536372198935
14:00:00,0,Q03,72 St,-73.958424,40.768799,3305.4289127764523
14:00:00,0,Q04,86 St,-73.951787,40.777891,3457.8268185356146
14:00:00,0,Q05,96 St,-73.947152,40.784318,3530.9647495700974
13:40:00,0,R01,Astoria-Ditmars Blvd,-73.912034,40.775036,4067.074796472656
13:40:00,0,R03,Astoria Blvd,-73.917843,40.770258,3965.8965786508734
13:40:00,0,R04,30 Av,-73.921479,40.766779,3866.0432453175404
13:40:00,0,R05,Broadway,-73.925508,40.76182,3769.510777785073
13:40:00,0,R06,36 Av,-73.929575,40.756804,3674.668672521915
13:40:00,0,R08,39 Av-Dutch Kills,-73.932755,40.752882,3569.3486725219154
13:40:00,0,R09,Queensboro Plaza,-73.940202,40.750582,3432.8081319813746
13:20:00,0,R11,Lexington Av/59 St,-73.967258,40.76266,3275.1655927814686
13:20:00,0,R13,5 Av/59 St,-73.973347,40.764811,3183.5620424856106
14:00:00,0,R14,57 St-7 Av,-73.980658,40.764664,3014.316903444602
14:00:00,0,R15,49 St,-73.984139,40.759901,2922.2346145013425
14:00:00,0,R16,Times Sq-42 St,-73.986754,40.754672,2797.8204133179106
14:00:00,0,R17,34 St-Herald Sq,-73.98795,40.749567,2687.0994830853524
13:20:00,0,R18,28 St,-73.988691,40.745494,2836.711036153195
12:10:00,0,R19,23 St,-73.989344,40.741303,2780.6197167208597
14:00:00,0,R20,14 St-Union Sq,-73.990568,40.735736,2455.826227271399
12:30:00,0,R21,8 St-NYU,-73.992629,40.730328,2640.1317603661805
12:30:00,0,R22,Prince St,-73.997702,40.724329,2534.003188937609
12:30:00,0,R23,Canal St,-74.001775,40.719527,2420.246046080466
12:30:00,0,R24,City Hall,-74.006978,40.713282,2574.0254578451722
12:30:00,0,R25,Cortlandt St,-74.011029,40.710668,2472.669813757377
12:30:00,0,R26,Rector St,-74.013342,40.70722,2377.5789046664677
12:30:00,0,R27,Whitehall St-South Ferry,-74.012994,40.703087,2293.2039046664677
12:30:00,0,R28,Court St,-73.991777,40.6941,2013.203904666468
12:30:00,0,R29,Jay St-MetroTech,-73.985942,40.69218,1935.7039046664681
12:30:00,0,R30,DeKalb Av,-73.981824,40.690635,1655.4825039898194
12:00:00,0,R31,Atlantic Av-Barclays Ctr,-73.97881,40.683666,1466.848357648356
12:00:00,0,R32,Union St,-73.98311,40.677316,1523.4054755472189
12:20:00,0,R33,4 Av-9 St,-73.988302,40.670847,1414.2738965998506
12:20:00,0,R34,Prospect Av,-73.992872,40.665414,1316.9918453177993
12:20:00,0,R35,25 St,-73.998091,40.660397,1169.889281215235
12:00:00,0,R36,36 St,-74.003549,40.655144,1021.3642812152351
12:00:00,0,R39,45 St,-74.010006,40.648939,1259.8061078339974
12:00:00,1,R40,53 St,-74.014034,40.645069,1179.8061078339974
13:40:00,1,R41,59 St,-74.017881,40.641362,1065.1834648400704
12:00:00,0,R42,Bay Ridge Av,-74.023377,40.634967,1225.9934661362681
12:00:00,0,R43,77 St,-74.02551,40.629742,1306.2661934089954
12:00:00,0,R44,86 St,-74.028398,40.622687,1482.6173838851857
12:00:00,0,R45,Bay Ridge-95 St,-74.030876,40.616622,1559.633131916682
12:00:00,0,S01,Franklin Av,-73.955827,40.680596,2475.9290735151117
12:00:00,0,S03,Park Pl,-73.957624,40.674772,2375.952329329065
12:00:00,0,S04,Botanic Garden,-73.959245,40.670343,2226.6813815268674
