start_time,ntransfers,stop_id,stop_name,stop_lon,stop_lat,duration
13:34:00,1,101,Van Cortlandt Park-242 St,-73.898583,40.889248,6164.829086541537
12:34:00,1,103,238 St,-73.90087,40.884667,6039.018275730727
12:34:00,1,104,231 St,-73.904834,40.878856,5935.385988735211
12:34:00,1,106,Marble Hill-225 St,-73.909831,40.874561,5837.904006753229
12:34:00,1,107,215 St,-73.915279,40.869444,5749.111213960436
12:34:00,1,108,207 St,-73.918822,40.864621,5659.388270237492
12:34:00,1,109,Dyckman St,-73.925536,40.860531,5559.075494907096
12:34:00,1,110,191 St,-73.929412,40.855225,5475.230667320889
12:34:00,1,111,181 St,-73.933596,40.849505,5384.200624402434
12:34:00,1,112,168 St-Washington Hts,-73.940133,40.840556,5264.998907664236
12:34:00,1,113,157 St,-73.94489,40.834041,5165.679942146995
12:34:00,1,114,145 St,-73.95036,40.826551,5048.4267232628745
12:34:00,1,115,137 St-City College,-73.953676,40.822008,4947.550654886806
12:34:00,1,116,125 St,-73.958372,40.815581,4852.225654886805
12:34:00,1,117,116 St-Columbia University,-73.96411,40.807722,4737.996488220138
12:34:00,1,118,Cathedral Pkwy (110 St),-73.966847,40.803967,4659.041942765593
12:34:00,1,119,103 St,-73.968379,40.799446,4579.513254241003
12:34:00,1,120,96 St,-73.972323,40.793919,4330.837683083497
12:34:00,1,121,86 St,-73.976218,40.788644,4369.11161489674
12:34:00,1,122,79 St,-73.979917,40.783934,4292.237631156903
12:34:00,1,123,72 St,-73.98197,40.778453,4163.786662675333
13:46:30,1,124,66 St-Lincoln Center,-73.982209,40.77344,4279.188618515409
13:46:30,1,125,59 St-Columbus Circle,-73.981929,40.768247,4276.224482968146
13:46:30,1,126,50 St,-73.983849,40.761728,4172.555310035816
12:34:00,1,127,Times Sq-42 St,-73.987495,40.75529,3938.4024818843727
12:34:00,1,128,34 St-Penn Station,-73.991057,40.750373,3837.043507525398
12:34:00,1,129,28 St,-73.993365,40.747215,3878.640570356428
12:34:00,1,130,23 St,-73.995657,40.744081,3809.4922813830435
12:34:00,1,131,18 St,-73.997871,40.74104,3741.314251080013
12:34:00,1,132,14 St,-74.000201,40.737826,3666.7273784931403
12:34:00,1,133,Christopher St-Sheridan Sq,-74.002906,40.733422,3757.4496007153625
12:34:00,1,134,Houston St,-74.005367,40.728251,3843.3305530963153
12:34:00,1,135,Canal St,-74.006277,40.722854,3891.4400494946212
12:34:00,1,136,Franklin St,-74.006886,40.719318,3827.6495356606297
12:34:00,1,137,Chambers St,-74.009266,40.715478,3576.388235443564
13:46:30,1,138,WTC Cortlandt,-74.012188,40.711835,3677.736733292719
13:46:30,1,139,Rector St,-74.013783,40.707513,3601.2266118352286
13:46:30,1,142,South Ferry,-74.013664,40.702068,3498.1357027443196
12:34:00,1,201,Wakefield-241 St,-73.85062,40.903125,6911.974099730838
12:34:00,1,204,Nereid Av,-73.854376,40.898379,6614.958286368874
12:34:00,1,205,233 St,-73.857473,40.893193,6524.958286368874
12:34:00,1,206,225 St,-73.860341,40.888022,6434.958286368874
12:34:00,1,207,219 St,-73.862633,40.883895,6344.958286368874
12:34:00,1,208,Gun Hill Rd,-73.866256,40.87785,6239.958286368874
12:34:00,1,209,Burke Av,-73.867164,40.871356,6230.804656408571
12:34:00,1,210,Allerton Av,-73.867352,40.865462,6138.674221625962
12:34:00,1,211,Pelham Pkwy,-73.867615,40.857192,6034.326395539006
12:34:00,1,212,Bronx Park East,-73.868457,40.848828,5909.500308582484
12:34:00,1,213,E 180 St,-73.873488,40.841894,5699.195960756397
12:34:00,1,214,West Farms Sq-E Tremont Av,-73.880049,40.840295,5646.324419448254
12:34:00,1,215,174 St,-73.887734,40.837288,5516.238212551703
12:34:00,1,216,Freeman St,-73.891865,40.829993,5396.400605714096
12:34:00,1,217,Simpson St,-73.893064,40.824073,5286.019249781893
12:34:00,1,218,Intervale Av,-73.896736,40.822181,5213.095520968333
12:34:00,1,219,Prospect Av,-73.90177,40.819585,5127.21416503613
12:34:00,1,220,Jackson Av,-73.907807,40.81649,5035.155341506718
12:34:00,1,221,3 Av-149 St,-73.917757,40.816109,4913.447008173385
12:34:00,1,222,149 St-Grand Concourse,-73.926718,40.81841,4795.581995704045
12:34:00,1,224,135 St,-73.94077,40.814229,4854.973805532475
12:34:00,1,225,125 St,-73.945495,40.807754,4746.893805532475
12:34:00,1,226,116 St,-73.949625,40.802098,4650.914213695741
12:34:00,1,227,Central Park North (110 St),-73.951822,40.799075,4582.541764716149
12:34:00,1,228,Park Place,-74.008811,40.713051,3489.268235443564
13:19:00,1,229,Fulton St,-74.006571,40.709416,3379.056114231443
12:34:00,1,230,Wall St,-74.0091,40.706821,3452.3267909231727
12:14:00,2,231,Clark St,-73.993086,40.697466,3397.5116441266346
12:14:00,2,232,Borough Hall,-73.989998,40.693219,3302.4214185627247
12:14:00,2,233,Hoyt St,-73.985065,40.690545,3386.944734624901
12:14:00,2,234,Nevins St,-73.980492,40.688246,3422.4214185627247
12:14:00,2,235,Atlantic Av-Barclays Ctr,-73.977666,40.684359,3449.9214185627247
12:14:00,2,236,Bergen St,-73.975098,40.680829,3527.091521655508
12:14:00,2,237,Grand Army Plaza,-73.971046,40.675235,3436.806949045942
12:14:00,2,238,Eastern Pkwy-Brooklyn Museum,-73.964375,40.671987,3327.6768120596407
12:14:00,2,239,Franklin Av-Medgar Evers College,-73.958131,40.670682,3213.4285361975717
12:14:00,2,241,President St-Medgar Evers College,-73.950683,40.667883,3395.018155755857
12:14:00,2,242,Sterling St,-73.95085,40.662742,3487.5997884089184
12:14:00,2,243,Winthrop St,-73.9502,40.656652,3573.0173141821138
12:14:00,2,244,Church Av,-73.949575,40.650843,3654.0394136296277
12:14:00,2,245,Beverly Rd,-73.948959,40.645098,3737.460733426582
12:14:00,2,246,Newkirk Av-Little Haiti,-73.948411,40.639967,3821.2424593149067
12:14:00,2,247,Flatbush Av-Brooklyn College,-73.947642,40.632836,3938.61324583176
12:14:00,2,248,Nostrand Av,-73.950466,40.669847,3343.8868615218703
12:34:00,2,249,Kingston Av,-73.942161,40.669399,3246.502519141288
12:34:00,2,250,Crown Hts-Utica Av,-73.932942,40.668897,3166.9657544354054
12:34:00,2,251,Sutter Av-Rutland Rd,-73.92261,40.664717,3037.745648469372
12:34:00,2,252,Saratoga Av,-73.916327,40.661453,2937.1289818027053
12:34:00,2,253,Rockaway Av,-73.908946,40.662549,2853.962315136039
13:19:00,2,254,Junius St,-73.902447,40.663515,2767.8423962333236
13:19:00,2,255,Pennsylvania Av,-73.894895,40.664635,2869.1289818027053
13:19:00,2,256,Van Siclen Av,-73.889395,40.665449,2943.1289818027053
13:19:00,2,257,New Lots Av,-73.884079,40.666235,2987.6289818027053
13:34:00,1,301,Harlem-148 St,-73.93647,40.82388,5102.863016058791
13:34:00,1,302,145 St,-73.936245,40.820421,4988.478805532475
13:19:00,1,401,Woodlawn,-73.878751,40.886037,6150.272117528339
13:19:00,1,402,Mosholu Pkwy,-73.884655,40.87975,6004.777272167514
13:19:00,1,405,Bedford Park Blvd-Lehman College,-73.890064,40.873412,5883.266782657024
13:19:00,1,406,Kingsbridge Rd,-73.897174,40.86776,5748.7177630491815
13:19:00,1,407,Fordham Rd,-73.901034,40.862803,5657.371357820423
13:19:00,1,408,183 St,-73.903879,40.858407,5576.672011415194
13:19:00,1,409,Burnside Av,-73.907684,40.853453,5483.499880267654
13:19:00,1,410,176 St,-73.911794,40.84848,5409.14893365848
13:19:00,1,411,Mt Eden Av,-73.914685,40.844434,5333.403835619264
13:19:00,1,412,170 St,-73.917791,40.840075,5255.880959802271
13:19:00,1,413,167 St,-73.9214,40.835537,5175.3503475573725
13:19:00,1,414,161 St-Yankee Stadium,-73.925831,40.827994,5029.835784450577
13:19:00,1,415,149 St-Grand Concourse,-73.927351,40.818375,4799.8907844505775
13:19:00,1,416,138 St-Grand Concourse,-73.929849,40.813224,4630.575971607659
13:19:00,1,418,Fulton St,-74.009509,40.710368,3384.729647909498
13:19:00,1,419,Wall St,-74.011862,40.707557,3461.9411016539916
13:19:00,1,420,Bowling Green,-74.014065,40.704817,3535.931927342065
12:14:00,2,423,Borough Hall,-73.990151,40.692404,3301.6861249359395
13:19:00,1,501,Eastchester-Dyre Av,-73.830834,40.8883,6474.7960010853985
12:34:00,1,502,Baychester Av,-73.838591,40.878663,6344.433363722762
12:34:00,1,503,Gun Hill Rd,-73.846384,40.869526,6185.66454651846
12:34:00,1,504,Pelham Pkwy,-73.855359,40.858985,6028.305850866286
12:34:00,1,505,Morris Park,-73.860495,40.854364,5940.624532184968
13:19:00,1,601,Pelham Bay Park,-73.828121,40.852462,6293.612958621115
13:19:00,1,602,Buhre Av,-73.832569,40.84681,6110.186008266504
13:19:00,1,603,Middletown Rd,-73.836322,40.843863,6001.352674933171
13:19:00,1,604,Westchester Sq-E Tremont Av,-73.842952,40.839892,5856.602674933172
13:19:00,1,606,Zerega Av,-73.847036,40.836488,5758.519341599838
13:19:00,1,607,Castle Hill Av,-73.851222,40.834255,5691.186008266505
13:19:00,1,608,Parkchester,-73.860816,40.833226,5535.186008266505
13:19:00,1,609,St Lawrence Av,-73.867618,40.831509,5773.123374750625
13:19:00,1,610,Morrison Av-Soundview,-73.874516,40.829521,5688.055645666959
13:19:00,1,611,Elder Av,-73.879159,40.828584,5622.891645666959
13:19:00,1,612,Whitlock Av,-73.886283,40.826525,5516.551645666959
13:19:00,1,613,Hunts Point Av,-73.890549,40.820948,5278.80139288189
12:34:00,1,614,Longwood Av,-73.896435,40.816104,5361.093576118594
12:34:00,1,615,E 149 St,-73.904098,40.812118,5259.98524278526
12:34:00,1,616,E 143 St-St Mary's St,-73.907657,40.808719,5185.1429191338075
12:34:00,1,617,Cypress Av,-73.914042,40.805368,5086.222417041758
12:34:00,1,618,Brook Av,-73.91924,40.807566,5016.663593512346
13:19:00,1,619,3 Av-138 St,-73.926138,40.810476,4899.724469804966
13:19:00,1,621,125 St,-73.937594,40.804138,4472.867325585432
12:34:00,1,622,116 St,-73.941617,40.798629,4799.266181179041
13:19:00,1,623,110 St,-73.94425,40.79502,4719.315303986058
13:19:00,1,624,103 St,-73.947478,40.7906,4642.943374161497
13:19:00,1,625,96 St,-73.95107,40.785672,4556.473198722901
13:19:00,1,626,86 St,-73.955589,40.779492,4188.471642132195
13:19:00,1,627,77 St,-73.959874,40.77362,4361.3276274777145
13:19:00,1,628,68 St-Hunter College,-73.96387,40.768141,4271.7026274777145
13:19:00,1,629,59 St,-73.967967,40.762526,3991.322705961982
13:19:00,1,630,51 St,-73.97192,40.757107,4078.780983282511
13:19:00,1,631,Grand Central-42 St,-73.976848,40.751776,3830.918450642833
12:34:00,1,632,33 St,-73.982076,40.746081,3841.0039179923842
13:19:00,1,633,28 St,-73.984264,40.74307,3770.106190719657
13:19:00,1,634,23 St,-73.986599,40.739864,3694.3334634469297
13:19:00,1,635,14 St-Union Sq,-73.989951,40.734673,3594.3902816287477
13:19:00,1,636,Astor Pl,-73.99107,40.730054,3670.0810032782324
13:19:00,1,637,Bleecker St,-73.994659,40.725915,3760.7977268277205
13:19:00,1,638,Spring St,-73.997141,40.722301,3748.1206700074663
13:19:00,1,639,Canal St,-74.000193,40.718803,3684.668289055085
13:19:00,1,640,Brooklyn Bridge-City Hall,-74.004131,40.713065,3493.9344378394176
13:19:00,1,701,Flushing-Main St,-73.83003,40.7596,5101.844659656465
13:46:30,1,702,Mets-Willets Point,-73.845625,40.754622,4925.535135846942
13:19:00,1,705,111 St,-73.855334,40.75173,4945.490890723414
13:19:00,1,706,103 St-Corona Plaza,-73.8627,40.749865,4851.864882245361
13:19:00,1,707,Junction Blvd,-73.869527,40.749145,4681.531548912028
13:19:00,1,708,90 St-Elmhurst Av,-73.876613,40.748408,4736.279868293719
13:19:00,1,709,82 St-Jackson Hts,-73.883697,40.747659,4656.899586603578
13:19:00,1,710,74 St-Broadway,-73.891394,40.746848,4514.651287283851
13:19:00,1,711,69 St,-73.896403,40.746325,4467.239522577968
13:19:00,1,712,61 St-Woodside,-73.902984,40.74563,4395.331071873743
13:19:00,1,713,52 St,-73.912549,40.744149,4306.145886688557
13:19:00,1,714,46 St-Bliss St,-73.918435,40.743132,4248.315378213982
13:19:00,1,715,40 St-Lowery St,-73.924016,40.743781,4193.003513807202
13:19:00,1,716,33 St-Rawson St,-73.930997,40.744587,4128.83627831232
13:19:00,1,718,Queensboro Plaza,-73.940202,40.750582,4002.5315489120276
13:19:00,1,719,Court Sq,-73.945264,40.747023,3913.5315489120276
13:19:00,1,720,Hunters Point Av,-73.948916,40.742216,3999.5315489120276
13:19:00,1,721,Vernon Blvd-Jackson Av,-73.953581,40.742626,4027.5315489120276
12:34:00,1,723,Grand Central-42 St,-73.976041,40.751431,4066.589039392723
12:34:00,1,724,5 Av,-73.981963,40.753821,4164.260257038641
13:34:00,1,725,Times Sq-42 St,-73.987691,40.755477,4088.120147987856
12:14:00,1,726,34 St-Hudson Yards,-74.00191,40.755882,4254.857750190706
12:34:00,1,901,Grand Central-42 St,-73.979189,40.752769,4021.589039392723
12:34:00,1,902,Times Sq-42 St,-73.986229,40.755983,4041.0271237340107
12:34:00,0,A02,Inwood-207 St,-73.919899,40.868072,5695.07852144328
12:34:00,0,A03,Dyckman St,-73.927271,40.865491,5605.00552874255
12:34:00,0,A05,190 St,-73.93418,40.859022,5481.413137438201
12:34:00,0,A06,181 St,-73.937969,40.851695,5368.1778433205545
12:34:00,0,A07,175 St,-73.939704,40.847391,5271.457413213027
12:34:00,0,A09,168 St,-73.939561,40.840719,5144.01891053923
13:19:00,0,A10,163 St-Amsterdam Av,-73.939892,40.836013,5136.647126511804
13:19:00,0,A11,155 St,-73.941514,40.830518,5050.668403107548
12:34:00,0,A12,145 St,-73.944216,40.824783,4899.141905191637
13:19:00,0,A14,135 St,-73.947649,40.817894,4820.9777087371185
12:34:00,0,A15,125 St,-73.952343,40.811109,4673.5182492776585
13:19:00,0,A16,116 St,-73.954882,40.805085,4797.353831508361
12:34:00,0,A17,Cathedral Pkwy (110 St),-73.958161,40.800603,4747.51513680174
12:34:00,0,A18,103 St,-73.961454,40.796092,4673.602093323479
12:34:00,0,A19,96 St,-73.964696,40.791642,4585.070178429861
12:34:00,0,A20,86 St,-73.968916,40.785868,4490.091917560296
12:34:00,0,A21,81 St-Museum of Natural History,-73.972143,40.781433,4398.291917560296
12:34:00,0,A22,72 St,-73.97641,40.775594,4307.683221908122
12:34:00,0,A24,59 St-Columbus Circle,-73.981736,40.768296,4160.746510147224
12:34:00,0,A25,50 St,-73.985984,40.762456,4069.3136566907306
12:34:00,0,A27,42 St-Port Authority Bus Terminal,-73.989735,40.757308,3965.358101135175
12:34:00,0,A28,34 St-Penn Station,-73.993391,40.752287,3853.3293930012037
13:19:00,0,A30,23 St,-73.998041,40.745906,3746.456933812157
12:34:00,0,A31,14 St,-74.00169,40.740893,3658.879156034379
12:34:00,0,A32,W 4 St-Wash Sq,-74.000495,40.732338,3539.2696322248553
12:34:00,0,A33,Spring St,-74.003739,40.726227,3497.270763766581
12:34:00,0,A34,Canal St,-74.005229,40.720824,3387.2993351951523
12:34:00,0,A36,Chambers St,-74.008585,40.714111,3274.2552175480932
12:34:00,0,A38,Fulton St,-74.007691,40.710197,3161.80201557765
12:34:00,0,A40,High St,-73.990531,40.699337,2977.125398662227
12:34:00,0,A41,Jay St-MetroTech,-73.987342,40.692338,2849.9214185627247
12:34:00,0,A42,Hoyt-Schermerhorn Sts,-73.985001,40.688484,2729.646537046137
12:34:00,0,A43,Lafayette Av,-73.973946,40.686113,2752.700995998866
12:34:00,0,A44,Clinton-Washington Avs,-73.965838,40.683263,2668.037359635229
12:34:00,0,A45,Franklin Av,-73.956848,40.68138,2561.9123596352297
12:34:00,0,A46,Nostrand Av,-73.950426,40.680438,2396.6795559140614
12:34:00,0,A47,Kingston-Throop Avs,-73.940858,40.679921,2386.781500586022
12:34:00,0,A48,Utica Av,-73.930729,40.679364,2234.5907708673326
13:19:00,0,A49,Ralph Av,-73.920786,40.678822,2349.361563670749
13:19:00,0,A50,Rockaway Av,-73.911946,40.67834,2240.464174383228
12:14:00,0,A51,Broadway Junction,-73.905316,40.678334,2011.334956913844
13:19:00,0,A52,Liberty Av,-73.896548,40.674542,2046.9270580642253
13:19:00,0,A53,Van Siclen Av,-73.890358,40.67271,1960.5532262885242
13:19:00,0,A54,Shepherd Av,-73.88075,40.67413,1855.3195814287112
12:14:00,0,A55,Euclid Av,-73.872106,40.675377,1711.0233290068675
12:14:00,0,A57,Grant Av,-73.86505,40.677044,1588.8407563927597
12:14:00,0,A59,80 St,-73.858992,40.679371,1491.4887563927598
12:14:00,0,A60,88 St,-73.85147,40.679843,1395.5285970302098
12:14:00,0,A61,Rockaway Blvd,-73.843853,40.680429,1305.1833589349717
13:01:00,0,A63,104 St,-73.837683,40.681711,1388.8553589349715
13:01:00,0,A64,111 St,-73.832163,40.684331,1474.9865064759551
13:01:00,0,A65,Ozone Park-Lefferts Blvd,-73.825798,40.685951,1564.0497976151958
13:19:00,0,B04,21 St-Queensbridge,-73.942836,40.754203,4583.093128329491
13:19:00,0,B06,Roosevelt Island,-73.95326,40.759145,4436.472438674318
13:19:00,0,B08,Lexington Av/63 St,-73.966113,40.764629,4212.47554084602
13:19:00,0,B10,57 St,-73.97745,40.763972,4176.72737849314
12:14:00,1,B12,9 Av,-73.994324,40.646292,4124.583826824084
12:14:00,1,B13,Fort Hamilton Pkwy,-73.994304,40.640914,4225.686390926648
12:14:00,1,B14,50 St,-73.994791,40.63626,4304.7118686336535
12:14:00,1,B15,55 St,-73.995476,40.631435,4404.469830417093
12:14:00,1,B16,62 St,-73.996895,40.626472,4470.441858389121
12:14:00,1,B17,71 St,-73.998864,40.619589,4572.932304248994
12:14:00,1,B18,79 St,-74.00061,40.613501,4679.492813803134
12:14:00,1,B19,18 Av,-74.001736,40.607954,4761.086362190231
12:14:00,1,B20,20 Av,-73.998168,40.604556,4843.079868683737
12:14:00,1,B21,Bay Pkwy,-73.993728,40.601875,4920.625323229192
12:14:00,1,B22,25 Av,-73.986829,40.597704,5039.735000648547
12:14:00,1,B23,Bay 50 St,-73.983765,40.588841,5005.835956327232
12:14:00,0,D01,Norwood-205 St,-73.878855,40.874811,6182.117852762898
12:14:00,0,D03,Bedford Park Blvd,-73.887138,40.873244,6010.631366276411
12:14:00,0,D04,Kingsbridge Rd,-73.893509,40.866978,5893.475116276411
12:14:00,0,D05,Fordham Rd,-73.897749,40.861296,5798.9436477449435
12:14:00,0,D06,182-183 Sts,-73.900741,40.856093,5712.009740943779
12:34:00,0,D07,Tremont Av,-73.905227,40.85041,5633.894696695992
12:34:00,0,D08,174-175 Sts,-73.910136,40.8459,5553.619015423786
12:34:00,0,D09,170 St,-73.9134,40.839306,5460.300894662129
12:34:00,0,D10,167 St,-73.91844,40.833771,5349.125265423785
12:34:00,0,D11,161 St-Yankee Stadium,-73.925651,40.827905,5203.950265423785
12:34:00,0,D12,155 St,-73.938209,40.830135,5079.2218703620565
12:34:00,0,D13,145 St,-73.944216,40.824783,4964.134227995462
12:34:00,0,D14,7 Av,-73.981637,40.762862,4251.630506462223
13:34:00,0,D15,47-50 Sts-Rockefeller Ctr,-73.981329,40.758663,4038.332939826176
13:34:00,0,D16,42 St-Bryant Pk,-73.984569,40.754222,3945.8609772093537
13:34:00,0,D17,34 St-Herald Sq,-73.987823,40.749719,3869.0852762747745
13:19:00,0,D18,23 St,-73.992821,40.742878,3758.343492237216
13:19:00,0,D19,14 St,-73.996209,40.738228,3681.7273784931403
13:34:00,0,D20,W 4 St-Wash Sq,-74.000495,40.732338,3710.15412072119
13:19:00,0,D21,Broadway-Lafayette St,-73.996204,40.725297,3550.5129165361554
13:19:00,0,D22,Grand St,-73.993753,40.718267,3763.626546767853
12:14:00,1,D24,Atlantic Av-Barclays Ctr,-73.97689,40.68446,3504.196944855546
12:14:00,1,D25,7 Av,-73.972367,40.67705,3479.5119080129894
12:34:00,1,D26,Prospect Park,-73.962246,40.661614,3100.686256694053
12:34:00,1,D27,Parkside Av,-73.961495,40.655292,3432.0908946657432
12:34:00,1,D28,Church Av,-73.962982,40.650527,3444.4133164636937
12:34:00,1,D29,Beverley Rd,-73.964492,40.644031,3551.285044073328
12:34:00,1,D30,Cortelyou Rd,-73.963891,40.640927,3629.480574799585
12:34:00,1,D31,Newkirk Plaza,-73.962793,40.635082,3615.856173606551
12:34:00,1,D32,Avenue H,-73.961639,40.62927,3732.6792800835296
12:34:00,1,D33,Avenue J,-73.960803,40.625039,3826.662234628984
12:34:00,1,D34,Avenue M,-73.959399,40.617618,3938.0532960814985
12:34:00,1,D35,Kings Hwy,-73.957734,40.60867,3853.988526547727
13:34:00,1,D37,Avenue U,-73.955929,40.5993,4069.468226383212
13:34:00,1,D38,Neck Rd,-73.955161,40.595246,4169.004308857439
12:34:00,1,D39,Sheepshead Bay,-73.954155,40.586896,4091.973601174592
13:34:00,1,D40,Brighton Beach,-73.961376,40.577621,4241.700873901866
12:14:00,1,D41,Ocean Pkwy,-73.968501,40.576312,4424.0478354874995
12:14:00,1,D42,W 8 St-NY Aquarium,-73.975939,40.576127,4538.499448390725
12:14:00,1,D43,Coney Island-Stillwell Av,-73.981233,40.577422,4618.455003946281
13:19:00,0,E01,World Trade Center,-74.009781,40.712582,3564.0035992304797
13:19:00,1,F01,Jamaica-179 St,-73.783817,40.712646,4587.752773913382
13:19:00,1,F02,169 St,-73.793604,40.71047,4497.752773913382
13:19:00,1,F03,Parsons Blvd,-73.803326,40.707564,4407.752773913382
13:19:00,1,F04,Sutphin Blvd,-73.810708,40.70546,4317.752773913382
13:19:00,1,F05,Briarwood,-73.820574,40.709179,4097.445548869767
13:34:00,1,F06,Kew Gardens-Union Tpke,-73.831008,40.714441,4218.044043560865
13:19:00,1,F07,75 Av,-73.837324,40.718331,4332.082505099327
13:34:00,0,F09,Court Sq-23 St,-73.946,40.747846,3913.5315489120276
13:34:00,0,F11,Lexington Av/53 St,-73.969055,40.757552,4117.102977483456
13:34:00,0,F12,5 Av/53 St,-73.975224,40.760167,4189.950082058256
13:19:00,0,F14,2 Av,-73.989938,40.723402,3453.084345107584
13:19:00,0,F15,Delancey St-Essex St,-73.988114,40.718611,3344.9214185627247
13:19:00,0,F16,East Broadway,-73.990173,40.713715,3254.9214185627247
13:19:00,0,F18,York St,-73.986751,40.701397,3074.9214185627247
13:34:00,0,F20,Bergen St,-73.990862,40.686145,3074.1835247984673
13:34:00,0,F21,Carroll St,-73.995048,40.680303,3200.0264567356403
13:34:00,0,F22,Smith-9 Sts,-73.995959,40.67358,3327.161873402307
13:34:00,0,F23,4 Av-9 St,-73.989779,40.670272,3419.778453713188
13:34:00,0,F24,7 Av,-73.980305,40.666271,3404.9214185627247
13:34:00,0,F25,15 St-Prospect Park,-73.979493,40.660365,3572.831001967054
13:34:00,0,F26,Fort Hamilton Pkwy,-73.975776,40.650782,3734.490219844149
13:34:00,0,F27,Church Av,-73.979678,40.644041,3644.9214185627247
13:34:00,0,F29,Ditmas Av,-73.978172,40.636119,3764.9214185627247
13:34:00,0,F30,18 Av,-73.976971,40.629755,3884.9214185627247
13:34:00,0,F31,Avenue I,-73.976127,40.625322,3944.9214185627247
13:34:00,0,F32,Bay Pkwy,-73.975264,40.620769,4004.9214185627247
13:34:00,0,F33,Avenue N,-73.974197,40.61514,4124.921418562724
13:34:00,0,F34,Avenue P,-73.973022,40.608944,4214.921418562724
13:34:00,0,F35,Kings Hwy,-73.972361,40.603217,4388.583540550516
12:14:00,0,F36,Avenue U,-73.973357,40.596063,4497.1846043803025
12:14:00,0,F38,Avenue X,-73.97425,40.58962,4590.387812936452
13:19:00,0,F39,Neptune Av,-73.974574,40.581011,4704.859723048812
13:19:00,1,G05,Jamaica Center-Parsons/Archer,-73.801109,40.702147,3611.3709247406873
13:19:00,1,G06,Sutphin Blvd-Archer Av-JFK Airport,-73.807969,40.700486,3551.3709247406873
13:34:00,1,G07,Jamaica-Van Wyck,-73.816859,40.702566,3970.7227765925395
13:34:00,1,G08,Forest Hills-71 Av,-73.844521,40.721691,4429.752008162635
12:14:00,1,G09,67 Av,-73.852719,40.726523,4578.521747773888
12:14:00,1,G10,63 Dr-Rego Park,-73.861604,40.729846,4690.314851222164
12:14:00,1,G11,Woodhaven Blvd,-73.869229,40.733106,4784.888764265643
12:34:00,0,G12,Grand Av-Newtown,-73.877223,40.737015,4740.809804565536
12:34:00,0,G13,Elmhurst Av,-73.882017,40.742454,4641.275557990193
13:34:00,0,G14,Jackson Hts-Roosevelt Av,-73.891338,40.746644,4482.984443691016
12:34:00,0,G15,65 St,-73.898453,40.749669,4603.544172518171
12:14:00,1,G16,Northern Blvd,-73.906006,40.752885,4509.214275610954
12:14:00,1,G18,46 St,-73.913333,40.756312,4419.214275610954
12:14:00,1,G19,Steinway St,-73.92074,40.756879,4302.3070591161095
12:14:00,1,G20,36 St,-73.928781,40.752039,4182.3070591161095
13:34:00,0,G21,Queens Plaza,-73.937243,40.748973,4036.898895850803
13:19:00,0,G22,Court Sq,-73.943832,40.746554,3702.6130045543905
13:19:00,0,G24,21 St,-73.949724,40.744065,3636.750685713811
13:19:00,0,G26,Greenpoint Av,-73.954449,40.731352,3428.9274812939216
13:19:00,0,G28,Nassau Av,-73.951277,40.724635,3334.564843931284
13:19:00,0,G29,Metropolitan Av,-73.951418,40.712792,3202.4828767181693
13:19:00,0,G30,Broadway,-73.950308,40.706092,3303.0643984573
13:19:00,0,G31,Flushing Av,-73.950234,40.700377,3389.458993051894
13:19:00,0,G32,Myrtle-Willoughby Avs,-73.949046,40.694568,3448.0939383621258
13:19:00,0,G33,Bedford-Nostrand Avs,-73.953522,40.689627,3336.1638308352444
13:19:00,0,G34,Classon Av,-73.96007,40.688873,3254.236369695348
13:19:00,0,G35,Clinton-Washington Avs,-73.966839,40.688089,3170.3703903139044
13:19:00,0,G36,Fulton St,-73.975375,40.687119,3071.9242364677507
12:14:00,0,H01,Aqueduct Racetrack,-73.834058,40.668234,1099.1516129032257
12:14:00,0,H02,Aqueduct-N Conduit Av,-73.834058,40.668234,1022.5182795698923
12:14:00,0,H03,Howard Beach-JFK Airport,-73.830301,40.660476,927.9627240143368
12:04:00,0,H04,Broad Channel,-73.815925,40.608382,476.76016209110287
13:46:30,0,H06,Beach 67 St,-73.796924,40.590927,821.3005847953217
13:46:30,0,H07,Beach 60 St,-73.788522,40.592374,924.7479532163743
13:46:30,0,H08,Beach 44 St,-73.776013,40.592943,1028.230409356725
13:46:30,0,H09,Beach 36 St,-73.768175,40.595398,1125.476023391813
13:46:30,0,H10,Beach 25 St,-73.761353,40.600066,1225.8565543652642
13:46:30,0,H11,Far Rockaway-Mott Av,-73.755405,40.603995,1325.023221031931
12:04:00,0,H12,Beach 90 St,-73.813641,40.588034,258.7111111111111
12:04:00,0,H13,Beach 98 St,-73.820558,40.585307,180.31111111111113
12:04:00,0,H14,Beach 105 St,-73.827559,40.583209,76.875
13:01:00,0,H15,Rockaway Park-Beach 116 St,-73.835592,40.580903,0.0
13:19:00,1,J12,121 St,-73.828294,40.700492,3311.3709247406873
13:19:00,1,J13,111 St,-73.836345,40.697418,3436.4864723182277
13:19:00,1,J14,104 St,-73.84433,40.695178,3131.3709247406873
13:19:00,1,J15,Woodhaven Blvd,-73.851576,40.693879,2988.001623580511
13:19:00,1,J16,85 St-Forest Pkwy,-73.86001,40.692435,2997.466099845951
13:19:00,1,J17,75 St-Elderts Ln,-73.867139,40.691324,2808.001623580511
13:19:00,1,J19,Cypress Hills,-73.87255,40.689941,2795.216099845951
13:19:00,1,J20,Crescent St,-73.873785,40.683194,2658.001623580511
13:19:00,1,J21,Norwood Av,-73.880039,40.68141,2614.0016235805106
13:19:00,1,J22,Cleveland St,-73.884639,40.679947,2554.8328646036375
13:19:00,1,J23,Van Siclen Av,-73.891688,40.678024,2471.3709247406873
13:19:00,1,J24,Alabama Av,-73.898654,40.676992,2349.001623580511
13:19:00,1,J27,Broadway Junction,-73.904512,40.679498,2236.334956913844
12:14:00,1,J28,Chauncey St,-73.910456,40.682893,2324.7516235805106
12:14:00,1,J29,Halsey St,-73.916559,40.68637,2455.5801955812867
12:14:00,1,J30,Gates Av,-73.92227,40.68963,2470.6682902471775
12:14:00,1,J31,Kosciuszko St,-73.928814,40.693342,2637.7298961800893
12:14:00,1,L01,8 Av,-74.002578,40.739777,3583.34913327291
12:14:00,1,L02,6 Av,-73.996786,40.737335,3456.7273784931403
12:14:00,1,L03,14 St-Union Sq,-73.99073,40.734789,3380.4292418471773
12:14:00,1,L05,3 Av,-73.986122,40.732849,3303.273962344072
12:14:00,1,L06,1 Av,-73.981628,40.730953,3275.0406290107385
12:14:00,1,L08,Bedford Av,-73.956872,40.717304,3077.128774907395
12:14:00,1,L10,Lorimer St,-73.950275,40.714063,2989.2685925365745
12:14:00,1,L11,Graham Av,-73.944053,40.714565,2951.897771867881
12:14:00,1,L12,Grand St,-73.94067,40.711926,2871.37538380818
12:14:00,1,L13,Montrose Av,-73.93985,40.707739,2832.9518962636957
12:14:00,1,L14,Morgan Av,-73.933147,40.706152,2765.542400714734
12:14:00,1,L15,Jefferson St,-73.922913,40.706607,2681.6607439100003
12:14:00,1,L16,DeKalb Av,-73.918425,40.703811,2615.9589366810847
12:14:00,1,L17,Myrtle-Wyckoff Avs,-73.911586,40.699814,2544.9498732369757
12:14:00,1,L19,Halsey St,-73.904084,40.695602,2500.8859001730025
12:14:00,1,L20,Wilson Av,-73.904046,40.688764,2383.9075051112745
12:14:00,1,L21,Bushwick Av-Aberdeen St,-73.905249,40.682829,2299.570699555719
12:14:00,1,L22,Broadway Junction,-73.90324,40.678856,2228.973845272914
12:14:00,1,L24,Atlantic Av,-73.903097,40.675345,2300.191838352499
12:14:00,1,L25,Sutter Av,-73.901975,40.669367,2377.423656534317
12:14:00,1,L26,Livonia Av,-73.900571,40.664038,2436.378982994798
12:14:00,1,L27,New Lots Av,-73.899232,40.658733,2521.62640567521
12:14:00,1,L28,East 105 St,-73.899485,40.650573,2631.6382057924657
12:14:00,1,L29,Canarsie-Rockaway Pkwy,-73.90185,40.646654,2707.542274903226
13:34:00,1,M01,Middle Village-Metropolitan Av,-73.889601,40.711396,3170.4014347978396
13:34:00,1,M04,Fresh Pond Rd,-73.895877,40.706186,3053.118415929915
13:34:00,1,M05,Forest Av,-73.903077,40.704423,2960.5320821947544
13:34:00,1,M06,Seneca Av,-73.90774,40.702762,2866.1678437841583
13:34:00,1,M08,Myrtle-Wyckoff Avs,-73.912385,40.69943,2769.9498732369757
12:14:00,1,M09,Knickerbocker Av,-73.919711,40.698664,2865.1487036463323
13:34:00,1,M10,Central Av,-73.927397,40.697857,2801.993847068669
12:14:00,1,M11,Myrtle Av,-73.935657,40.697207,2637.8349569138445
12:14:00,1,M12,Flushing Av,-73.941126,40.70026,2821.815541822302
12:14:00,1,M13,Lorimer St,-73.947408,40.703869,2913.5977200401235
12:14:00,1,M14,Hewes St,-73.953431,40.70687,3012.335093777497
12:14:00,1,M16,Marcy Av,-73.957757,40.708359,2886.001623580511
12:14:00,1,M18,Delancey St-Essex St,-73.987437,40.718315,3267.5849569138445
12:14:00,1,M19,Bowery,-73.993915,40.72028,3344.668290247178
12:14:00,1,M20,Canal St,-73.999892,40.718092,3447.168290247178
13:19:00,1,M21,Chambers St,-74.003401,40.713243,3524.1362406097937
12:14:00,1,M22,Fulton St,-74.007582,40.710374,3392.6272585738657
12:14:00,1,M23,Broad St,-74.011056,40.706476,3465.767883573866
12:14:00,1,N02,8 Av,-74.011719,40.635064,4299.921418562724
12:14:00,1,N03,Fort Hamilton Pkwy,-74.005351,40.631386,4394.921418562724
12:14:00,1,N04,New Utrecht Av,-73.996353,40.624842,4534.921418562724
12:14:00,1,N05,18 Av,-73.990414,40.620671,4624.921418562724
12:14:00,1,N06,20 Av,-73.985026,40.61741,4694.921418562724
12:14:00,1,N07,Bay Pkwy,-73.981848,40.611815,4784.921418562724
12:14:00,1,N08,Kings Hwy,-73.980353,40.603923,4904.921418562724
12:14:00,1,N09,Avenue U,-73.979137,40.597473,4972.455003946281
12:14:00,1,N10,86 St,-73.97823,40.592721,4912.455003946281
12:14:00,1,Q01,Canal St,-74.00046,40.718383,3684.668289055085
12:34:00,0,Q03,72 St,-73.958424,40.768799,4345.954922289318
12:34:00,0,Q04,86 St,-73.951787,40.777891,4464.444613010967
12:34:00,0,Q05,96 St,-73.947152,40.784318,4555.687037253392
12:14:00,2,R01,Astoria-Ditmars Blvd,-73.912034,40.775036,4688.490521590794
12:14:00,2,R03,Astoria Blvd,-73.917843,40.770258,4587.312303769011
12:14:00,2,R04,30 Av,-73.921479,40.766779,4487.458970435679
12:14:00,2,R05,Broadway,-73.925508,40.76182,4390.926502903211
12:14:00,2,R06,36 Av,-73.929575,40.756804,4296.084397640053
12:14:00,2,R08,39 Av-Dutch Kills,-73.932755,40.752882,4190.764397640052
12:14:00,2,R09,Queensboro Plaza,-73.940202,40.750582,4054.2238570995123
12:14:00,2,R11,Lexington Av/59 St,-73.967258,40.76266,4220.837267853538
12:14:00,2,R13,5 Av/59 St,-73.973347,40.764811,4240.164292205837
12:14:00,1,R14,57 St-7 Av,-73.980658,40.764664,4034.299375042911
12:14:00,1,R15,49 St,-73.984139,40.759901,4001.7403780472537
13:34:00,1,R16,Times Sq-42 St,-73.986754,40.754672,3861.0271237340107
12:14:00,2,R17,34 St-Herald Sq,-73.98795,40.749567,3760.9902816287477
12:14:00,2,R18,28 St,-73.988691,40.745494,3761.3128168400153
12:14:00,2,R19,23 St,-73.989344,40.741303,3680.1297182484664
12:14:00,2,R20,14 St-Union Sq,-73.990568,40.735736,3594.3902816287477
13:34:00,1,R21,8 St-NYU,-73.992629,40.730328,3695.3746566287477
13:34:00,1,R22,Prince St,-73.997702,40.724329,3781.062156628748
13:34:00,1,R23,Canal St,-74.001775,40.719527,3783.6037455640812
13:34:00,1,R24,City Hall,-74.006978,40.713282,3632.051506758111
13:34:00,1,R25,Cortlandt St,-74.011029,40.710668,3521.8873276536337
13:34:00,1,R26,Rector St,-74.013342,40.70722,3384.865432474049
13:34:00,1,R27,Whitehall St-South Ferry,-74.012994,40.703087,3318.1357027443196
13:34:00,1,R28,Court St,-73.991777,40.6941,3062.4214185627247
12:14:00,1,R29,Jay St-MetroTech,-73.985942,40.69218,2984.9214185627247
13:19:00,1,R30,DeKalb Av,-73.981824,40.690635,3082.4214185627247
12:14:00,1,R31,Atlantic Av-Barclays Ctr,-73.97881,40.683666,3224.9214185627247
12:14:00,1,R32,Union St,-73.98311,40.677316,3347.4214185627247
12:14:00,1,R33,4 Av-9 St,-73.988302,40.670847,3469.9214185627243
12:14:00,1,R34,Prospect Av,-73.992872,40.665414,3536.9214185627243
12:14:00,1,R35,25 St,-73.998091,40.660397,3614.9214185627243
12:14:00,1,R36,36 St,-74.003549,40.655144,3739.9214185627243
12:14:00,1,R39,45 St,-74.010006,40.648939,3918.236315680569
12:14:00,1,R40,53 St,-74.014034,40.645069,4013.4208394900925
12:14:00,1,R41,59 St,-74.017881,40.641362,4144.921418562724
12:14:00,1,R42,Bay Ridge Av,-74.023377,40.634967,4270.039698158299
12:14:00,1,R43,77 St,-74.02551,40.629742,4350.312425431026
12:14:00,1,R44,86 St,-74.028398,40.622687,4521.927155364408
12:14:00,1,R45,Bay Ridge-95 St,-74.030876,40.616622,4603.679363938713
12:34:00,1,S01,Franklin Av,-73.955827,40.680596,2741.9123596352297
12:34:00,1,S03,Park Pl,-73.957624,40.674772,2864.7873596352297
12:34:00,1,S04,Botanic Garden,-73.959245,40.670343,2972.3309762686777
