start_time,ntransfers,stop_id,stop_name,stop_lon,stop_lat,duration
14:00:00,1,101,Van Cortlandt Park-242 St,-73.898583,40.889248,4128.047755997497
12:48:30,1,103,238 St,-73.90087,40.884667,4002.2369451866866
12:48:30,1,104,231 St,-73.904834,40.878856,3898.604658191171
12:48:30,1,106,Marble Hill-225 St,-73.909831,40.874561,3801.122676209189
12:48:30,1,107,215 St,-73.915279,40.869444,3712.329883416396
12:48:30,1,108,207 St,-73.918822,40.864621,3622.6069396934527
12:48:30,1,109,Dyckman St,-73.925536,40.860531,3522.294164363056
12:48:30,1,110,191 St,-73.929412,40.855225,3438.449336776849
12:48:30,1,111,181 St,-73.933596,40.849505,3347.419293858394
12:48:30,1,112,168 St-Washington Hts,-73.940133,40.840556,3228.2175771201973
12:48:30,1,113,157 St,-73.94489,40.834041,3128.898611602956
12:48:30,1,114,145 St,-73.95036,40.826551,3011.645392718836
12:48:30,1,115,137 St-City College,-73.953676,40.822008,2910.7693243427675
12:48:30,1,116,125 St,-73.958372,40.815581,2815.4443243427677
12:48:30,1,117,116 St-Columbia University,-73.96411,40.807722,2701.2151576761007
12:48:30,1,118,Cathedral Pkwy (110 St),-73.966847,40.803967,2622.2606122215557
12:48:30,1,119,103 St,-73.968379,40.799446,2542.731923696965
12:00:00,2,120,96 St,-73.972323,40.793919,2294.056352539459
12:00:00,2,121,86 St,-73.976218,40.788644,2332.330284352703
12:00:00,2,122,79 St,-73.979917,40.783934,2255.4563006128656
12:00:00,2,123,72 St,-73.98197,40.778453,2127.005332131296
12:00:00,2,124,66 St-Lincoln Center,-73.982209,40.77344,2242.407287971372
12:00:00,2,125,59 St-Columbus Circle,-73.981929,40.768247,2239.443152424108
12:00:00,2,126,50 St,-73.983849,40.761728,2135.773979491777
12:00:00,2,127,Times Sq-42 St,-73.987495,40.75529,1901.6211513403355
12:00:00,2,128,34 St-Penn Station,-73.991057,40.750373,1800.262176981361
12:00:00,2,129,28 St,-73.993365,40.747215,1841.8592398123901
12:00:00,2,130,23 St,-73.995657,40.744081,1772.710950839006
12:00:00,2,131,18 St,-73.997871,40.74104,1704.5329205359756
12:00:00,2,132,14 St,-74.000201,40.737826,1629.946047949103
12:00:00,2,133,Christopher St-Sheridan Sq,-74.002906,40.733422,1720.6682701713253
12:00:00,2,134,Houston St,-74.005367,40.728251,1806.5492225522776
12:00:00,2,135,Canal St,-74.006277,40.722854,1901.410077059684
12:00:00,2,136,Franklin St,-74.006886,40.719318,1965.5798938665846
12:00:00,2,137,Chambers St,-74.009266,40.715478,1903.9330609361161
12:00:00,2,138,WTC Cortlandt,-74.012188,40.711835,2115.4926962344953
12:00:00,2,139,Rector St,-74.013783,40.707513,2192.0028176919855
12:00:00,2,142,South Ferry,-74.013664,40.702068,2295.0937267828945
12:00:00,2,201,Wakefield-241 St,-73.85062,40.903125,4875.1927691867995
12:00:00,2,204,Nereid Av,-73.854376,40.898379,4578.176955824835
12:00:00,2,205,233 St,-73.857473,40.893193,4488.176955824835
12:00:00,2,206,225 St,-73.860341,40.888022,4398.176955824835
12:00:00,2,207,219 St,-73.862633,40.883895,4308.176955824835
12:00:00,2,208,Gun Hill Rd,-73.866256,40.87785,4203.176955824835
12:00:00,2,209,Burke Av,-73.867164,40.871356,4194.023325864533
12:00:00,2,210,Allerton Av,-73.867352,40.865462,4101.892891081925
12:00:00,2,211,Pelham Pkwy,-73.867615,40.857192,3997.545064994968
12:00:00,2,212,Bronx Park East,-73.868457,40.848828,3872.7189780384465
12:00:00,2,213,E 180 St,-73.873488,40.841894,3662.41463021236
12:00:00,2,214,West Farms Sq-E Tremont Av,-73.880049,40.840295,3609.543088904216
12:00:00,2,215,174 St,-73.887734,40.837288,3479.456882007664
12:00:00,2,216,Freeman St,-73.891865,40.829993,3359.6192751700573
12:00:00,2,217,Simpson St,-73.893064,40.824073,3249.237919237854
12:00:00,2,218,Intervale Av,-73.896736,40.822181,3176.314190424295
12:00:00,2,219,Prospect Av,-73.90177,40.819585,3090.4328344920914
12:00:00,2,220,Jackson Av,-73.907807,40.81649,2998.3740109626797
12:00:00,2,221,3 Av-149 St,-73.917757,40.816109,2876.6656776293466
12:00:00,2,222,149 St-Grand Concourse,-73.926718,40.81841,2758.8006651600085
12:00:00,2,224,135 St,-73.94077,40.814229,2818.192474988439
12:00:00,2,225,125 St,-73.945495,40.807754,2710.112474988439
12:00:00,2,226,116 St,-73.949625,40.802098,2614.1328831517044
12:00:00,2,227,Central Park North (110 St),-73.951822,40.799075,2545.7604341721126
12:00:00,2,228,Park Place,-74.008811,40.713051,1992.4069570400122
12:00:00,2,229,Fulton St,-74.006571,40.709416,2004.5078554887446
12:00:00,2,230,Wall St,-74.0091,40.706821,2077.778532180474
12:00:00,2,231,Clark St,-73.993086,40.697466,2261.326680328622
12:00:00,1,232,Borough Hall,-73.989998,40.693219,2316.670423501618
12:00:00,1,233,Hoyt St,-73.985065,40.690545,2401.1937395637947
12:00:00,1,234,Nevins St,-73.980492,40.688246,2421.7921119861003
12:00:00,2,235,Atlantic Av-Barclays Ctr,-73.977666,40.684359,2331.614334208323
12:00:00,1,236,Bergen St,-73.975098,40.680829,2383.358489171847
12:00:00,2,237,Grand Army Plaza,-73.971046,40.675235,2287.142802897337
12:00:00,2,238,Eastern Pkwy-Brooklyn Museum,-73.964375,40.671987,2184.162410740474
12:10:00,2,239,Franklin Av-Medgar Evers College,-73.958131,40.670682,2017.8321119861002
12:00:00,2,241,President St-Medgar Evers College,-73.950683,40.667883,2235.8062105680974
12:00:00,2,242,Sterling St,-73.95085,40.662742,2326.277364414251
12:00:00,2,243,Winthrop St,-73.9502,40.656652,2411.4297453666322
12:00:00,2,244,Church Av,-73.949575,40.650843,2493.282018093905
12:00:00,2,245,Beverly Rd,-73.948959,40.645098,2574.7159803580557
12:00:00,2,246,Newkirk Av-Little Haiti,-73.948411,40.639967,2660.7159803580557
12:00:00,2,247,Flatbush Av-Brooklyn College,-73.947642,40.632836,2778.052822463319
12:10:00,2,248,Nostrand Av,-73.950466,40.669847,1947.4761362306704
12:10:00,2,249,Kingston Av,-73.942161,40.669399,1849.747054406895
12:10:00,2,250,Crown Hts-Utica Av,-73.932942,40.668897,1768.8532101371559
12:10:00,2,251,Sutter Av-Rutland Rd,-73.92261,40.664717,1644.9960672800132
12:10:00,2,252,Saratoga Av,-73.916327,40.661453,1540.4078319858957
12:10:00,2,253,Rockaway Av,-73.908946,40.662549,1451.4666555153074
12:39:00,2,254,Junius St,-73.902447,40.663515,1369.6235182604055
12:39:00,2,255,Pennsylvania Av,-73.894895,40.664635,1466.8392045349153
12:39:00,2,256,Van Siclen Av,-73.889395,40.665449,1541.3490084564837
12:39:00,2,257,New Lots Av,-73.884079,40.666235,1612.1235182604055
12:00:00,2,301,Harlem-148 St,-73.93647,40.82388,3066.081685514754
12:00:00,2,302,145 St,-73.936245,40.820421,2951.6974749884384
12:48:30,1,401,Woodlawn,-73.878751,40.886037,4113.490786984302
12:48:30,1,402,Mosholu Pkwy,-73.884655,40.87975,3967.9959416234765
12:48:30,1,405,Bedford Park Blvd-Lehman College,-73.890064,40.873412,3846.485452112987
12:48:30,1,406,Kingsbridge Rd,-73.897174,40.86776,3711.936432505144
12:48:30,1,407,Fordham Rd,-73.901034,40.862803,3620.5900272763856
12:48:30,1,408,183 St,-73.903879,40.858407,3539.890680871157
12:48:30,1,409,Burnside Av,-73.907684,40.853453,3446.718549723616
12:48:30,1,410,176 St,-73.911794,40.84848,3372.3676031144423
12:48:30,1,411,Mt Eden Av,-73.914685,40.844434,3296.622505075227
12:48:30,1,412,170 St,-73.917791,40.840075,3219.0996292582336
12:48:30,1,413,167 St,-73.9214,40.835537,3138.5690170133357
12:48:30,1,414,161 St-Yankee Stadium,-73.925831,40.827994,2993.0544539065395
12:48:30,1,415,149 St-Grand Concourse,-73.927351,40.818375,2763.1094539065393
12:00:00,2,416,138 St-Grand Concourse,-73.929849,40.813224,2593.7946410636227
12:00:00,2,418,Fulton St,-74.009509,40.710368,1889.5384790571736
12:00:00,2,419,Wall St,-74.011862,40.707557,1968.504491049342
12:00:00,2,420,Bowling Green,-74.014065,40.704817,2042.4953167374158
12:39:00,1,423,Borough Hall,-73.990151,40.692404,2310.7250464671456
12:00:00,2,501,Eastchester-Dyre Av,-73.830834,40.8883,4438.014670541362
12:00:00,2,502,Baychester Av,-73.838591,40.878663,4307.652033178724
12:00:00,2,503,Gun Hill Rd,-73.846384,40.869526,4148.8832159744225
12:00:00,2,504,Pelham Pkwy,-73.855359,40.858985,3991.5245203222494
12:00:00,2,505,Morris Park,-73.860495,40.854364,3903.8432016409306
14:00:00,1,601,Pelham Bay Park,-73.828121,40.852462,4256.831628077077
14:00:00,1,602,Buhre Av,-73.832569,40.84681,4073.404677722466
14:00:00,1,603,Middletown Rd,-73.836322,40.843863,3964.571344389133
14:00:00,1,604,Westchester Sq-E Tremont Av,-73.842952,40.839892,3819.8213443891336
14:00:00,1,606,Zerega Av,-73.847036,40.836488,3721.7380110558
14:00:00,1,607,Castle Hill Av,-73.851222,40.834255,3654.404677722467
12:48:30,1,608,Parkchester,-73.860816,40.833226,3498.404677722467
12:48:30,1,609,St Lawrence Av,-73.867618,40.831509,3736.342044206586
12:48:30,1,610,Morrison Av-Soundview,-73.874516,40.829521,3651.2743151229206
12:48:30,1,611,Elder Av,-73.879159,40.828584,3586.1103151229204
12:48:30,1,612,Whitlock Av,-73.886283,40.826525,3479.7703151229202
12:00:00,2,613,Hunts Point Av,-73.890549,40.820948,3242.020062337852
12:00:00,2,614,Longwood Av,-73.896435,40.816104,3324.312245574556
12:00:00,2,615,E 149 St,-73.904098,40.812118,3223.203912241223
12:00:00,2,616,E 143 St-St Mary's St,-73.907657,40.808719,3148.3615885897707
12:00:00,2,617,Cypress Av,-73.914042,40.805368,3049.4410864977203
12:00:00,2,618,Brook Av,-73.91924,40.807566,2979.882262968309
12:00:00,2,619,3 Av-138 St,-73.926138,40.810476,2862.9431392609285
12:00:00,2,621,125 St,-73.937594,40.804138,2436.085995041394
12:00:00,2,622,116 St,-73.941617,40.798629,2762.4848506350054
12:00:00,2,623,110 St,-73.94425,40.79502,2682.5339734420227
12:00:00,2,624,103 St,-73.947478,40.7906,2606.162043617461
12:00:00,2,625,96 St,-73.95107,40.785672,2519.6918681788648
12:00:00,2,626,86 St,-73.955589,40.779492,2151.690311588157
12:00:00,2,627,77 St,-73.959874,40.77362,2324.546296933678
12:00:00,2,628,68 St-Hunter College,-73.96387,40.768141,2234.9212969336786
12:00:00,2,629,59 St,-73.967967,40.762526,1954.5413754179442
12:00:00,2,630,51 St,-73.97192,40.757107,2041.9996527384749
12:00:00,2,631,Grand Central-42 St,-73.976848,40.751776,1794.1371200987953
12:00:00,2,632,33 St,-73.982076,40.746081,1804.222587448347
12:48:30,1,633,28 St,-73.984264,40.74307,1733.3248601756197
12:48:30,1,634,23 St,-73.986599,40.739864,1657.5521329028925
12:48:30,1,635,14 St-Union Sq,-73.989951,40.734673,1557.6089510847107
12:48:30,1,636,Astor Pl,-73.99107,40.730054,1633.2996727341954
12:18:00,1,637,Bleecker St,-73.994659,40.725915,1724.0163962836834
12:18:00,1,638,Spring St,-73.997141,40.722301,1760.7061365952395
12:18:00,1,639,Canal St,-74.000193,40.718803,1697.2537556428586
12:18:00,1,640,Brooklyn Bridge-City Hall,-74.004131,40.713065,1778.8162556428586
12:30:00,1,701,Flushing-Main St,-73.83003,40.7596,3065.0633291124277
12:30:00,1,702,Mets-Willets Point,-73.845625,40.754622,2888.753805302904
12:30:00,1,705,111 St,-73.855334,40.75173,2908.7095601793762
12:30:00,1,706,103 St-Corona Plaza,-73.8627,40.749865,2815.0835517013234
12:30:00,1,707,Junction Blvd,-73.869527,40.749145,2644.75021836799
12:30:00,1,708,90 St-Elmhurst Av,-73.876613,40.748408,2699.4985377496805
12:30:00,1,709,82 St-Jackson Hts,-73.883697,40.747659,2620.11825605954
12:00:00,3,710,74 St-Broadway,-73.891394,40.746848,2477.8699567398116
12:00:00,3,711,69 St,-73.896403,40.746325,2430.4581920339297
12:00:00,3,712,61 St-Woodside,-73.902984,40.74563,2358.549741329704
12:00:00,3,713,52 St,-73.912549,40.744149,2269.3645561445187
12:00:00,3,714,46 St-Bliss St,-73.918435,40.743132,2211.5340476699425
12:00:00,3,715,40 St-Lowery St,-73.924016,40.743781,2156.222183263163
12:00:00,3,716,33 St-Rawson St,-73.930997,40.744587,2092.0549477682825
12:00:00,3,718,Queensboro Plaza,-73.940202,40.750582,1965.7502183679896
12:00:00,1,719,Court Sq,-73.945264,40.747023,1876.7502183679896
12:00:00,3,720,Hunters Point Av,-73.948916,40.742216,1962.7502183679894
12:00:00,1,721,Vernon Blvd-Jackson Av,-73.953581,40.742626,1990.7502183679894
12:00:00,1,723,Grand Central-42 St,-73.976041,40.751431,2029.807708848686
12:00:00,3,724,5 Av,-73.981963,40.753821,2127.4789264946035
12:00:00,1,725,Times Sq-42 St,-73.987691,40.755477,2051.338817443819
12:00:00,1,726,34 St-Hudson Yards,-74.00191,40.755882,2218.0764196466685
12:00:00,3,901,Grand Central-42 St,-73.979189,40.752769,1984.807708848686
12:00:00,2,902,Times Sq-42 St,-73.986229,40.755983,2004.245793189974
13:10:00,0,A02,Inwood-207 St,-73.919899,40.868072,3625.834329643379
13:10:00,0,A03,Dyckman St,-73.927271,40.865491,3535.761336942649
13:10:00,0,A05,190 St,-73.93418,40.859022,3412.1689456383015
13:10:00,0,A06,181 St,-73.937969,40.851695,3298.933651520654
13:10:00,0,A07,175 St,-73.939704,40.847391,3202.213221413127
13:10:00,0,A09,168 St,-73.939561,40.840719,3074.7747187393306
12:00:00,0,A10,163 St-Amsterdam Av,-73.939892,40.836013,3095.728314578798
12:00:00,0,A11,155 St,-73.941514,40.830518,3013.894981245465
12:00:00,0,A12,145 St,-73.944216,40.824783,2829.897713391737
12:00:00,0,A14,135 St,-73.947649,40.817894,2751.7335169372177
13:00:00,0,A15,125 St,-73.952343,40.811109,2604.2740574777586
12:00:00,0,A16,116 St,-73.954882,40.805085,2728.1096397084607
13:10:00,0,A17,Cathedral Pkwy (110 St),-73.958161,40.800603,2776.381811054539
13:10:00,0,A18,103 St,-73.961454,40.796092,2692.662802790076
13:10:00,0,A19,96 St,-73.964696,40.791642,2608.1546060687647
13:10:00,0,A20,86 St,-73.968916,40.785868,2508.526506895211
13:10:00,0,A21,81 St-Museum of Natural History,-73.972143,40.781433,2412.784840228544
13:10:00,0,A22,72 St,-73.97641,40.775594,2319.384840228544
13:00:00,0,A24,59 St-Columbus Circle,-73.981736,40.768296,2091.5023183473236
13:00:00,0,A25,50 St,-73.985984,40.762456,2070.057862827414
12:00:00,2,A27,42 St-Port Authority Bus Terminal,-73.989735,40.757308,1929.496912941918
12:00:00,2,A28,34 St-Penn Station,-73.993391,40.752287,1833.206590361273
12:00:00,2,A30,23 St,-73.998041,40.745906,1769.7783293463667
12:48:30,1,A31,14 St,-74.00169,40.740893,1678.108686489224
12:00:00,2,A32,W 4 St-Wash Sq,-74.000495,40.732338,1790.2314935067677
13:30:00,1,A33,Spring St,-74.003739,40.726227,1897.301668945364
13:00:00,1,A34,Canal St,-74.005229,40.720824,1962.635873566091
12:00:00,1,A36,Chambers St,-74.008585,40.714111,1989.6933172745116
12:00:00,1,A38,Fulton St,-74.007691,40.710197,1892.2537568349514
12:00:00,1,A40,High St,-73.990531,40.699337,2007.5739007644538
12:00:00,1,A41,Jay St-MetroTech,-73.987342,40.692338,1864.1704235016184
12:00:00,2,A42,Hoyt-Schermerhorn Sts,-73.985001,40.688484,1760.0950391483636
12:00:00,2,A43,Lafayette Av,-73.973946,40.686113,1783.1494981010928
12:00:00,2,A44,Clinton-Washington Avs,-73.965838,40.683263,1698.4858617374566
12:00:00,2,A45,Franklin Av,-73.956848,40.68138,1592.3608617374566
12:00:00,2,A46,Nostrand Av,-73.950426,40.680438,1427.1280580162882
12:00:00,2,A47,Kingston-Throop Avs,-73.940858,40.679921,1417.2300026882488
12:00:00,2,A48,Utica Av,-73.930729,40.679364,1265.0392729695593
12:00:00,2,A49,Ralph Av,-73.920786,40.678822,1224.3281006635443
12:00:00,2,A50,Rockaway Av,-73.911946,40.67834,1125.8818196718087
12:00:00,1,A51,Broadway Junction,-73.905316,40.678334,1041.783459016071
12:00:00,1,A52,Liberty Av,-73.896548,40.674542,1175.7428086095667
12:00:00,1,A53,Van Siclen Av,-73.890358,40.67271,1270.9216703981847
12:00:00,1,A54,Shepherd Av,-73.88075,40.67413,1374.994841129892
12:00:00,2,A55,Euclid Av,-73.872106,40.675377,1342.0950869230476
12:00:00,2,A57,Grant Av,-73.86505,40.677044,1464.2776595371556
12:00:00,2,A59,80 St,-73.858992,40.679371,1561.6296595371555
12:00:00,2,A60,88 St,-73.85147,40.679843,1657.5898188997053
12:00:00,2,A61,Rockaway Blvd,-73.843853,40.680429,1747.9350569949436
12:00:00,2,A63,104 St,-73.837683,40.681711,1831.6070569949434
12:00:00,2,A64,111 St,-73.832163,40.684331,1917.738204535927
12:00:00,2,A65,Ozone Park-Lefferts Blvd,-73.825798,40.685951,2006.8014956751676
12:30:00,0,B04,21 St-Queensbridge,-73.942836,40.754203,2546.3117977854536
12:30:00,0,B06,Roosevelt Island,-73.95326,40.759145,2399.6911081302815
12:00:00,2,B08,Lexington Av/63 St,-73.966113,40.764629,2175.6942103019833
12:30:00,0,B10,57 St,-73.97745,40.763972,2139.946047949103
13:40:00,0,B12,9 Av,-73.994324,40.646292,3077.748631436686
13:40:00,0,B13,Fort Hamilton Pkwy,-73.994304,40.640914,3178.85119553925
13:40:00,0,B14,50 St,-73.994791,40.63626,3257.8766732462564
13:40:00,0,B15,55 St,-73.995476,40.631435,3357.6346350296963
13:40:00,0,B16,62 St,-73.996895,40.626472,3423.6066630017244
13:40:00,0,B17,71 St,-73.998864,40.619589,3526.097108861597
13:40:00,0,B18,79 St,-74.00061,40.613501,3632.6576184157375
13:40:00,0,B19,18 Av,-74.001736,40.607954,3714.251166802834
13:40:00,0,B20,20 Av,-73.998168,40.604556,3796.2446732963404
13:40:00,0,B21,Bay Pkwy,-73.993728,40.601875,3873.790127841795
13:40:00,0,B22,25 Av,-73.986829,40.597704,3992.8998052611496
13:40:00,0,B23,Bay 50 St,-73.983765,40.588841,4036.2844584294603
12:00:00,0,D01,Norwood-205 St,-73.878855,40.874811,4112.873660962998
12:00:00,0,D03,Bedford Park Blvd,-73.887138,40.873244,3941.387174476511
12:00:00,0,D04,Kingsbridge Rd,-73.893509,40.866978,3824.2309244765115
12:00:00,0,D05,Fordham Rd,-73.897749,40.861296,3729.699455945043
12:00:00,0,D06,182-183 Sts,-73.900741,40.856093,3642.76554914388
13:00:00,0,D07,Tremont Av,-73.905227,40.85041,3564.650504896092
13:00:00,0,D08,174-175 Sts,-73.910136,40.8459,3484.374823623885
13:00:00,0,D09,170 St,-73.9134,40.839306,3391.056702862229
13:00:00,0,D10,167 St,-73.91844,40.833771,3279.8810736238847
13:00:00,0,D11,161 St-Yankee Stadium,-73.925651,40.827905,3134.7060736238845
13:00:00,0,D12,155 St,-73.938209,40.830135,3009.977678562156
13:00:00,0,D13,145 St,-73.944216,40.824783,2894.890036195562
13:00:00,0,D14,7 Av,-73.981637,40.762862,2205.074787778685
12:00:00,0,D15,47-50 Sts-Rockefeller Ctr,-73.981329,40.758663,2001.5516092821395
12:00:00,0,D16,42 St-Bryant Pk,-73.984569,40.754222,1909.079646665317
12:00:00,0,D17,34 St-Herald Sq,-73.987823,40.749719,1832.3039457307375
12:18:00,0,D18,23 St,-73.992821,40.742878,1721.562161693179
12:18:00,0,D19,14 St,-73.996209,40.738228,1644.946047949103
12:00:00,0,D20,W 4 St-Wash Sq,-74.000495,40.732338,1722.7395873089636
12:18:00,0,D21,Broadway-Lafayette St,-73.996204,40.725297,1570.902378006638
12:39:00,0,D22,Grand St,-73.993753,40.718267,1944.518221863674
12:00:00,0,D24,Atlantic Av-Barclays Ctr,-73.97689,40.68446,2376.9098846341617
12:00:00,0,D25,7 Av,-73.972367,40.67705,2509.9604101152167
12:00:00,0,D26,Prospect Park,-73.962246,40.661614,2131.1347587962796
12:00:00,0,D27,Parkside Av,-73.961495,40.655292,2462.53939676797
12:00:00,0,D28,Church Av,-73.962982,40.650527,2474.8618185659207
12:00:00,0,D29,Beverley Rd,-73.964492,40.644031,2581.733546175555
12:00:00,0,D30,Cortelyou Rd,-73.963891,40.640927,2659.9290769018126
12:00:00,0,D31,Newkirk Plaza,-73.962793,40.635082,2646.3046757087777
12:00:00,0,D32,Avenue H,-73.961639,40.62927,2763.127782185757
12:00:00,0,D33,Avenue J,-73.960803,40.625039,2857.1107367312115
12:00:00,0,D34,Avenue M,-73.959399,40.617618,2968.501798183726
12:10:00,0,D35,Kings Hwy,-73.957734,40.60867,2884.4370286499543
13:40:00,0,D37,Avenue U,-73.955929,40.5993,3099.9167284854398
13:40:00,0,D38,Neck Rd,-73.955161,40.595246,3199.4528109596667
12:10:00,0,D39,Sheepshead Bay,-73.954155,40.586896,3122.42210327682
13:40:00,0,D40,Brighton Beach,-73.961376,40.577621,3272.1493760040926
13:40:00,0,D41,Ocean Pkwy,-73.968501,40.576312,3454.496337589727
13:40:00,0,D42,W 8 St-NY Aquarium,-73.975939,40.576127,3568.9479504929523
13:40:00,0,D43,Coney Island-Stillwell Av,-73.981233,40.577422,3648.903506048508
12:00:00,1,E01,World Trade Center,-74.009781,40.712582,2139.340137601419
12:18:00,0,F01,Jamaica-179 St,-73.783817,40.712646,3308.1653081887657
13:30:00,0,F02,169 St,-73.793604,40.71047,3218.1653081887657
13:30:00,0,F03,Parsons Blvd,-73.803326,40.707564,3128.1653081887657
13:30:00,0,F04,Sutphin Blvd,-73.810708,40.70546,3038.1653081887657
13:30:00,0,F05,Briarwood,-73.820574,40.709179,2817.8580831451504
14:00:00,0,F06,Kew Gardens-Union Tpke,-73.831008,40.714441,2938.4565778362485
14:00:00,0,F07,75 Av,-73.837324,40.718331,2982.7394226707866
13:10:00,0,F09,Court Sq-23 St,-73.946,40.747846,1876.7502183679896
13:10:00,0,F11,Lexington Av/53 St,-73.969055,40.757552,2080.3216469394183
13:10:00,0,F12,5 Av/53 St,-73.975224,40.760167,2153.16875151422
12:18:00,0,F14,2 Av,-73.989938,40.723402,1616.0104282926338
12:18:00,0,F15,Delancey St-Essex St,-73.988114,40.718611,1505.1704235016182
12:00:00,1,F16,East Broadway,-73.990173,40.713715,1586.1704235016184
12:00:00,1,F18,York St,-73.986751,40.701397,1729.8370901682852
12:00:00,1,F20,Bergen St,-73.990862,40.686145,2003.1899514162478
12:00:00,1,F21,Carroll St,-73.995048,40.680303,2129.0328833534204
12:00:00,1,F22,Smith-9 Sts,-73.995959,40.67358,2256.1683000200874
12:00:00,1,F23,4 Av-9 St,-73.989779,40.670272,2348.7848803309685
12:00:00,1,F24,7 Av,-73.980305,40.666271,2300.170423501618
12:00:00,1,F25,15 St-Prospect Park,-73.979493,40.660365,2468.0800069059474
12:00:00,1,F26,Fort Hamilton Pkwy,-73.975776,40.650782,2629.739224783042
12:00:00,1,F27,Church Av,-73.979678,40.644041,2540.170423501618
12:00:00,1,F29,Ditmas Av,-73.978172,40.636119,2660.170423501618
12:00:00,1,F30,18 Av,-73.976971,40.629755,2780.170423501618
12:00:00,1,F31,Avenue I,-73.976127,40.625322,2840.170423501618
12:00:00,1,F32,Bay Pkwy,-73.975264,40.620769,2900.170423501618
12:00:00,1,F33,Avenue N,-73.974197,40.61514,3020.170423501618
12:00:00,1,F34,Avenue P,-73.973022,40.608944,3110.170423501618
12:00:00,1,F35,Kings Hwy,-73.972361,40.603217,3283.832545489411
12:00:00,1,F36,Avenue U,-73.973357,40.596063,3392.4336093191982
12:00:00,1,F38,Avenue X,-73.97425,40.58962,3485.6368178753482
13:10:00,0,F39,Neptune Av,-73.974574,40.581011,3600.1087279877074
14:00:00,0,G05,Jamaica Center-Parsons/Archer,-73.801109,40.702147,2331.783459016071
14:00:00,0,G06,Sutphin Blvd-Archer Av-JFK Airport,-73.807969,40.700486,2271.783459016071
14:00:00,0,G07,Jamaica-Van Wyck,-73.816859,40.702566,2691.1353108679227
14:00:00,0,G08,Forest Hills-71 Av,-73.844521,40.721691,2874.3013274326913
14:00:00,0,G09,67 Av,-73.852719,40.726523,3023.071067043944
13:10:00,0,G10,63 Dr-Rego Park,-73.861604,40.729846,2930.5336110077988
13:10:00,0,G11,Woodhaven Blvd,-73.869229,40.733106,2826.9034740214975
13:10:00,0,G12,Grand Av-Newtown,-73.877223,40.737015,2704.0284740214975
13:10:00,0,G13,Elmhurst Av,-73.882017,40.742454,2604.494227446155
13:10:00,0,G14,Jackson Hts-Roosevelt Av,-73.891338,40.746644,2446.203113146977
13:10:00,0,G15,65 St,-73.898453,40.749669,2566.762841974133
13:10:00,0,G16,Northern Blvd,-73.906006,40.752885,2472.4329450669165
12:18:00,0,G18,46 St,-73.913333,40.756312,2382.4329450669165
12:18:00,0,G19,Steinway St,-73.92074,40.756879,2265.5257285720713
12:18:00,0,G20,36 St,-73.928781,40.752039,2145.5257285720713
13:10:00,0,G21,Queens Plaza,-73.937243,40.748973,2000.1175653067653
12:10:00,2,G22,Court Sq,-73.943832,40.746554,1665.8316740103535
12:10:00,2,G24,21 St,-73.949724,40.744065,1599.9693551697737
12:10:00,2,G26,Greenpoint Av,-73.954449,40.731352,1392.1461507498843
12:10:00,2,G28,Nassau Av,-73.951277,40.724635,1297.783513387247
12:10:00,2,G29,Metropolitan Av,-73.951418,40.712792,1165.701546174132
12:00:00,2,G30,Broadway,-73.950308,40.706092,1266.2830679132626
12:00:00,2,G31,Flushing Av,-73.950234,40.700377,1352.6776625078571
12:00:00,2,G32,Myrtle-Willoughby Avs,-73.949046,40.694568,1434.4019868321814
12:00:00,2,G33,Bedford-Nostrand Avs,-73.953522,40.689627,1546.3320943590631
12:00:00,2,G34,Classon Av,-73.96007,40.688873,1628.2595554989596
12:00:00,2,G35,Clinton-Washington Avs,-73.966839,40.688089,1712.1255348804027
12:00:00,2,G36,Fulton St,-73.975375,40.687119,1810.5716887265567
13:40:00,1,H01,Aqueduct Racetrack,-73.834058,40.668234,1953.9668030266896
13:40:00,1,H02,Aqueduct-N Conduit Av,-73.834058,40.668234,2027.035855966265
13:40:00,1,H03,Howard Beach-JFK Airport,-73.830301,40.660476,2125.1556919155787
13:40:00,1,H04,Broad Channel,-73.815925,40.608382,2543.1073048188046
13:40:00,1,H06,Beach 67 St,-73.796924,40.590927,2854.396778503015
13:40:00,1,H07,Beach 60 St,-73.788522,40.592374,2957.8441469240674
13:40:00,1,H08,Beach 44 St,-73.776013,40.592943,3061.326603064418
13:40:00,1,H09,Beach 36 St,-73.768175,40.595398,3158.572217099506
13:40:00,1,H10,Beach 25 St,-73.761353,40.600066,3258.952748072957
13:40:00,1,H11,Far Rockaway-Mott Av,-73.755405,40.603995,3358.1194147396236
13:40:00,1,H12,Beach 90 St,-73.813641,40.588034,2794.4073048188047
13:40:00,1,H13,Beach 98 St,-73.820558,40.585307,2872.8073048188044
13:40:00,1,H14,Beach 105 St,-73.827559,40.583209,2948.9184159299157
13:40:00,1,H15,Rockaway Park-Beach 116 St,-73.835592,40.580903,3053.1184159299155
14:00:00,0,J12,121 St,-73.828294,40.700492,2031.783459016071
14:00:00,0,J13,111 St,-73.836345,40.697418,2194.112938784857
14:00:00,0,J14,104 St,-73.84433,40.695178,1851.783459016071
14:00:00,0,J15,Woodhaven Blvd,-73.851576,40.693879,1761.783459016071
14:00:00,0,J16,85 St-Forest Pkwy,-73.86001,40.692435,1766.0146013759736
14:00:00,0,J17,75 St-Elderts Ln,-73.867139,40.691324,1581.783459016071
14:00:00,0,J19,Cypress Hills,-73.87255,40.689941,1563.7646013759736
14:00:00,0,J20,Crescent St,-73.873785,40.683194,1431.783459016071
14:00:00,0,J21,Norwood Av,-73.880039,40.68141,1341.783459016071
14:00:00,0,J22,Cleveland St,-73.884639,40.679947,1346.9629794358902
14:00:00,0,J23,Van Siclen Av,-73.891688,40.678024,1191.783459016071
14:00:00,0,J24,Alabama Av,-73.898654,40.676992,1131.783459016071
13:30:00,0,J27,Broadway Junction,-73.904512,40.679498,1028.4650717460972
13:30:00,0,J28,Chauncey St,-73.910456,40.682893,963.5037568349516
13:30:00,0,J29,Halsey St,-73.916559,40.68637,938.9174294896421
13:30:00,0,J30,Gates Av,-73.92227,40.68963,817.5870901682849
13:30:00,0,J31,Kosciuszko St,-73.928814,40.693342,756.7677288908399
12:00:00,1,L01,8 Av,-74.002578,40.739777,1511.0560527268644
12:00:00,1,L02,6 Av,-73.996786,40.737335,1419.946047949103
12:00:00,1,L03,14 St-Union Sq,-73.99073,40.734789,1343.6479113031403
12:00:00,1,L05,3 Av,-73.986122,40.732849,1266.4926318000348
12:00:00,1,L06,1 Av,-73.981628,40.730953,1238.2592984667015
12:00:00,1,L08,Bedford Av,-73.956872,40.717304,1040.347444363358
12:00:00,1,L10,Lorimer St,-73.950275,40.714063,952.4872619925374
12:00:00,1,L11,Graham Av,-73.944053,40.714565,915.1164413238442
12:00:00,1,L12,Grand St,-73.94067,40.711926,834.5940532641428
12:00:00,1,L13,Montrose Av,-73.93985,40.707739,796.1705657196588
12:00:00,1,L14,Morgan Av,-73.933147,40.706152,728.7610701706974
12:00:00,1,L15,Jefferson St,-73.922913,40.706607,636.7789453564685
12:00:00,1,L16,DeKalb Av,-73.918425,40.703811,577.5481761256993
12:00:00,1,L17,Myrtle-Wyckoff Avs,-73.911586,40.699814,508.16854269293924
12:10:00,1,L19,Halsey St,-73.904084,40.695602,552.2325157569123
12:10:00,1,L20,Wilson Av,-73.904046,40.688764,669.2109108186407
12:10:00,1,L21,Bushwick Av-Aberdeen St,-73.905249,40.682829,753.5477163741963
12:10:00,1,L22,Broadway Junction,-73.90324,40.678856,803.4650717460971
12:10:00,1,L24,Atlantic Av,-73.903097,40.675345,911.5422322399243
12:10:00,1,L25,Sutter Av,-73.901975,40.669367,981.914539932232
12:10:00,1,L26,Livonia Av,-73.900571,40.664038,1039.6235182604055
12:10:00,1,L27,New Lots Av,-73.899232,40.658733,1088.7235182604056
12:10:00,1,L28,East 105 St,-73.899485,40.650573,1185.449933354745
12:10:00,1,L29,Canarsie-Rockaway Pkwy,-73.90185,40.646654,1310.5141225439345
12:10:00,0,M01,Middle Village-Metropolitan Av,-73.889601,40.711396,117.28301886792453
12:10:00,0,M04,Fresh Pond Rd,-73.895877,40.706186,0.0
12:00:00,0,M05,Forest Av,-73.903077,40.704423,78.54857142857144
12:00:00,0,M06,Seneca Av,-73.90774,40.702762,173.61107142857145
12:00:00,0,M08,Myrtle-Wyckoff Avs,-73.912385,40.69943,283.16854269293924
12:00:00,0,M09,Knickerbocker Av,-73.919711,40.698664,378.367373102296
12:00:00,0,M10,Central Av,-73.927397,40.697857,486.26153334679384
12:00:00,0,M11,Myrtle Av,-73.935657,40.697207,602.5078020035103
12:00:00,0,M12,Flushing Av,-73.941126,40.70026,719.6308542820891
12:00:00,0,M13,Lorimer St,-73.947408,40.703869,816.0628542820891
12:00:00,0,M14,Hewes St,-73.953431,40.70687,913.1454989101883
12:00:00,0,M16,Marcy Av,-73.957757,40.708359,898.5870901682849
12:00:00,0,M18,Delancey St-Essex St,-73.987437,40.718315,1280.1704235016182
12:10:00,0,M19,Bowery,-73.993915,40.72028,1357.2537568349514
12:10:00,0,M20,Canal St,-73.999892,40.718092,1459.7537568349514
12:10:00,0,M21,Chambers St,-74.003401,40.713243,1555.3370901682847
12:10:00,0,M22,Fulton St,-74.007582,40.710374,1667.2537568349514
12:10:00,0,M23,Broad St,-74.011056,40.706476,1733.420423501618
12:00:00,0,N02,8 Av,-74.011719,40.635064,3152.4185824194333
12:00:00,0,N03,Fort Hamilton Pkwy,-74.005351,40.631386,3295.8636691246356
12:00:00,0,N04,New Utrecht Av,-73.996353,40.624842,3432.152686465676
12:00:00,0,N05,18 Av,-73.990414,40.620671,3524.424362766254
12:00:00,0,N06,20 Av,-73.985026,40.61741,3603.5464557895098
12:00:00,0,N07,Bay Pkwy,-73.981848,40.611815,3699.9742014542494
12:00:00,0,N08,Kings Hwy,-73.980353,40.603923,3809.2213278910313
12:00:00,0,N09,Avenue U,-73.979137,40.597473,3901.948072077078
12:00:00,0,N10,86 St,-73.97823,40.592721,3942.9035060485076
12:00:00,2,Q01,Canal St,-74.00046,40.718383,1697.2537556428586
12:00:00,0,Q03,72 St,-73.958424,40.768799,2309.1735917452825
12:00:00,0,Q04,86 St,-73.951787,40.777891,2427.6632824669323
12:00:00,0,Q05,96 St,-73.947152,40.784318,2518.9057067093563
12:00:00,1,R01,Astoria-Ditmars Blvd,-73.912034,40.775036,2651.709191046756
12:00:00,1,R03,Astoria Blvd,-73.917843,40.770258,2550.530973224974
12:00:00,1,R04,30 Av,-73.921479,40.766779,2450.6776398916404
12:00:00,1,R05,Broadway,-73.925508,40.76182,2354.1451723591726
12:00:00,1,R06,36 Av,-73.929575,40.756804,2259.303067096015
12:00:00,1,R08,39 Av-Dutch Kills,-73.932755,40.752882,2153.983067096015
12:00:00,1,R09,Queensboro Plaza,-73.940202,40.750582,2017.4425265554744
12:00:00,2,R11,Lexington Av/59 St,-73.967258,40.76266,2184.0559373095
12:00:00,3,R13,5 Av/59 St,-73.973347,40.764811,2203.3829616617995
12:00:00,2,R14,57 St-7 Av,-73.980658,40.764664,1997.5180444988746
12:00:00,2,R15,49 St,-73.984139,40.759901,1964.9590475032164
12:00:00,2,R16,Times Sq-42 St,-73.986754,40.754672,1824.245793189974
12:00:00,2,R17,34 St-Herald Sq,-73.98795,40.749567,1724.2089510847109
12:00:00,2,R18,28 St,-73.988691,40.745494,1724.5314862959783
12:00:00,2,R19,23 St,-73.989344,40.741303,1643.3483877044291
12:00:00,2,R20,14 St-Union Sq,-73.990568,40.735736,1557.6089510847107
12:00:00,2,R21,8 St-NYU,-73.992629,40.730328,1658.593326084711
12:10:00,1,R22,Prince St,-73.997702,40.724329,1744.280826084711
12:10:00,1,R23,Canal St,-74.001775,40.719527,1817.2537556428586
12:00:00,1,R24,City Hall,-74.006978,40.713282,1962.7460633351664
12:00:00,1,R25,Cortlandt St,-74.011029,40.710668,2077.1888114267695
12:00:00,1,R26,Rector St,-74.013342,40.70722,2174.0610826442153
12:00:00,0,R27,Whitehall St-South Ferry,-74.012994,40.703087,2258.4360826442153
12:00:00,0,R28,Court St,-73.991777,40.6941,2076.670423501618
12:00:00,0,R29,Jay St-MetroTech,-73.985942,40.69218,1999.1704235016184
12:00:00,2,R30,DeKalb Av,-73.981824,40.690635,2096.6704235016186
13:40:00,0,R31,Atlantic Av-Barclays Ctr,-73.97881,40.683666,2239.1704235016186
12:00:00,0,R32,Union St,-73.98311,40.677316,2361.670423501618
12:00:00,0,R33,4 Av-9 St,-73.988302,40.670847,2484.170423501618
12:00:00,0,R34,Prospect Av,-73.992872,40.665414,2551.170423501618
12:00:00,0,R35,25 St,-73.998091,40.660397,2629.170423501618
13:40:00,0,R36,36 St,-74.003549,40.655144,2693.0862231753263
12:00:00,0,R39,45 St,-74.010006,40.648939,2891.5509661937454
12:00:00,0,R40,53 St,-74.014034,40.645069,2980.7754559896634
12:00:00,0,R41,59 St,-74.017881,40.641362,2985.1427203504677
12:00:00,0,R42,Bay Ridge Av,-74.023377,40.634967,3145.952721646665
12:00:00,0,R43,77 St,-74.02551,40.629742,3226.2254489193924
12:00:00,0,R44,86 St,-74.028398,40.622687,3402.576639395583
13:40:00,0,R45,Bay Ridge-95 St,-74.030876,40.616622,3479.592387427079
12:00:00,3,S01,Franklin Av,-73.955827,40.680596,1772.3608617374566
12:00:00,3,S03,Park Pl,-73.957624,40.674772,1895.2358617374564
12:00:00,3,S04,Botanic Garden,-73.959245,40.670343,2002.7794783709048
