start_time,ntransfers,stop_id,stop_name,stop_lon,stop_lat,duration
12:55:30,1,101,Van Cortlandt Park-242 St,-73.898583,40.889248,3940.0780437139147
12:55:30,1,103,238 St,-73.90087,40.884667,3814.267232903104
12:55:30,1,104,231 St,-73.904834,40.878856,3710.634945907588
12:55:30,1,106,Marble Hill-225 St,-73.909831,40.874561,3613.1529639256064
12:55:30,1,107,215 St,-73.915279,40.869444,3524.3601711328133
12:55:30,1,108,207 St,-73.918822,40.864621,3434.63722740987
12:55:30,1,109,Dyckman St,-73.925536,40.860531,3334.3244520794733
12:55:30,1,110,191 St,-73.929412,40.855225,3250.4796244932663
12:55:30,1,111,181 St,-73.933596,40.849505,3159.449581574812
12:55:30,1,112,168 St-Washington Hts,-73.940133,40.840556,3040.2478648366146
12:55:30,1,113,157 St,-73.94489,40.834041,2940.928899319373
12:55:30,1,114,145 St,-73.95036,40.826551,2823.675680435253
12:55:30,1,115,137 St-City College,-73.953676,40.822008,2722.7996120591847
12:55:30,1,116,125 St,-73.958372,40.815581,2627.474612059185
12:55:30,1,117,116 St-Columbia University,-73.96411,40.807722,2513.2454453925184
12:55:30,1,118,Cathedral Pkwy (110 St),-73.966847,40.803967,2434.290899937973
12:55:30,1,119,103 St,-73.968379,40.799446,2354.7622114133824
12:55:30,1,120,96 St,-73.972323,40.793919,2106.0866402558763
13:17:00,1,121,86 St,-73.976218,40.788644,2144.3605720691203
13:17:00,1,122,79 St,-73.979917,40.783934,2067.486588329283
12:55:30,1,123,72 St,-73.98197,40.778453,1939.0356198477134
13:17:00,1,124,66 St-Lincoln Center,-73.982209,40.77344,2054.4375756877894
12:03:30,2,125,59 St-Columbus Circle,-73.981929,40.768247,2051.4734401405253
12:03:30,2,126,50 St,-73.983849,40.761728,1947.8042672081942
12:55:30,1,127,Times Sq-42 St,-73.987495,40.75529,1713.651439056753
12:55:30,1,128,34 St-Penn Station,-73.991057,40.750373,1612.2924646977785
12:03:30,2,129,28 St,-73.993365,40.747215,1653.8895275288075
12:03:30,2,130,23 St,-73.995657,40.744081,1584.7412385554235
12:03:30,2,131,18 St,-73.997871,40.74104,1516.5632082523932
12:03:30,2,132,14 St,-74.000201,40.737826,1441.9763356655205
12:17:00,1,133,Christopher St-Sheridan Sq,-74.002906,40.733422,1532.6985578877427
12:17:00,1,134,Houston St,-74.005367,40.728251,1618.579510268695
12:17:00,1,135,Canal St,-74.006277,40.722854,1713.4403647761014
12:03:30,2,136,Franklin St,-74.006886,40.719318,1777.610181583002
12:03:30,2,137,Chambers St,-74.009266,40.715478,1715.9633486525336
12:03:30,2,138,WTC Cortlandt,-74.012188,40.711835,1927.5229839509127
12:03:30,2,139,Rector St,-74.013783,40.707513,2004.033105408403
12:03:30,2,142,South Ferry,-74.013664,40.702068,2096.8551944587116
13:47:00,1,201,Wakefield-241 St,-73.85062,40.903125,4687.223056903216
13:47:00,1,204,Nereid Av,-73.854376,40.898379,4390.207243541252
13:47:00,1,205,233 St,-73.857473,40.893193,4300.207243541252
13:47:00,1,206,225 St,-73.860341,40.888022,4210.207243541252
13:47:00,1,207,219 St,-73.862633,40.883895,4120.207243541252
13:47:00,1,208,Gun Hill Rd,-73.866256,40.87785,4015.2072435412524
13:47:00,1,209,Burke Av,-73.867164,40.871356,4006.0536135809507
13:47:00,1,210,Allerton Av,-73.867352,40.865462,3913.9231787983417
13:47:00,1,211,Pelham Pkwy,-73.867615,40.857192,3809.5753527113857
13:47:00,1,212,Bronx Park East,-73.868457,40.848828,3684.7492657548637
13:47:00,1,213,E 180 St,-73.873488,40.841894,3474.444917928777
12:03:30,2,214,West Farms Sq-E Tremont Av,-73.880049,40.840295,3421.573376620633
12:03:30,2,215,174 St,-73.887734,40.837288,3291.4871697240815
12:03:30,2,216,Freeman St,-73.891865,40.829993,3171.6495628864745
12:03:30,2,217,Simpson St,-73.893064,40.824073,3061.2682069542716
13:47:00,1,218,Intervale Av,-73.896736,40.822181,2988.3444781407125
13:47:00,1,219,Prospect Av,-73.90177,40.819585,2902.463122208509
12:03:30,2,220,Jackson Av,-73.907807,40.81649,2810.4042986790973
13:47:00,1,221,3 Av-149 St,-73.917757,40.816109,2688.6959653457643
12:03:30,2,222,149 St-Grand Concourse,-73.926718,40.81841,2570.8309528764257
12:55:30,1,224,135 St,-73.94077,40.814229,2630.222762704856
12:55:30,1,225,125 St,-73.945495,40.807754,2522.142762704856
12:55:30,1,226,116 St,-73.949625,40.802098,2426.1631708681216
12:55:30,1,227,Central Park North (110 St),-73.951822,40.799075,2357.79072188853
12:03:30,2,228,Park Place,-74.008811,40.713051,1720.6390885153623
12:03:30,2,229,Fulton St,-74.006571,40.709416,1610.426967303241
13:07:00,1,230,Wall St,-74.0091,40.706821,1683.6976439949703
13:07:00,1,231,Clark St,-73.993086,40.697466,1867.2457921431185
12:07:00,1,232,Borough Hall,-73.989998,40.693219,1922.5895353161147
12:07:00,1,233,Hoyt St,-73.985065,40.690545,2007.1128513782908
12:07:00,1,234,Nevins St,-73.980492,40.688246,2037.0630772005602
12:07:00,1,235,Atlantic Av-Barclays Ctr,-73.977666,40.684359,2070.089535316115
12:07:00,1,236,Bergen St,-73.975098,40.680829,2147.2596384088984
12:07:00,1,237,Grand Army Plaza,-73.971046,40.675235,2099.173090613754
12:03:30,2,238,Eastern Pkwy-Brooklyn Museum,-73.964375,40.671987,1996.1926984568915
12:21:00,2,239,Franklin Av-Medgar Evers College,-73.958131,40.670682,1829.8623997025177
12:03:30,2,241,President St-Medgar Evers College,-73.950683,40.667883,2047.8364982845146
12:03:30,2,242,Sterling St,-73.95085,40.662742,2138.3076521306684
12:03:30,2,243,Winthrop St,-73.9502,40.656652,2223.4600330830494
12:03:30,2,244,Church Av,-73.949575,40.650843,2305.3123058103224
12:03:30,2,245,Beverly Rd,-73.948959,40.645098,2386.746268074473
12:03:30,2,246,Newkirk Av-Little Haiti,-73.948411,40.639967,2472.746268074473
12:03:30,2,247,Flatbush Av-Brooklyn College,-73.947642,40.632836,2590.083110179736
12:21:00,2,248,Nostrand Av,-73.950466,40.669847,1759.5064239470878
13:42:30,2,249,Kingston Av,-73.942161,40.669399,1661.777342123312
13:42:30,2,250,Crown Hts-Utica Av,-73.932942,40.668897,1580.8834978535733
13:42:30,2,251,Sutter Av-Rutland Rd,-73.92261,40.664717,1457.0263549964304
13:42:30,2,252,Saratoga Av,-73.916327,40.661453,1352.4381197023129
13:42:30,2,253,Rockaway Av,-73.908946,40.662549,1263.4969432317248
13:22:30,2,254,Junius St,-73.902447,40.663515,1181.6538059768227
13:22:30,2,255,Pennsylvania Av,-73.894895,40.664635,1278.8694922513325
13:22:30,2,256,Van Siclen Av,-73.889395,40.665449,1353.3792961729011
13:22:30,2,257,New Lots Av,-73.884079,40.666235,1424.1538059768227
12:03:30,2,301,Harlem-148 St,-73.93647,40.82388,2878.1119732311718
12:03:30,2,302,145 St,-73.936245,40.820421,2763.7277627048556
12:55:30,1,401,Woodlawn,-73.878751,40.886037,3925.521074700718
12:55:30,1,402,Mosholu Pkwy,-73.884655,40.87975,3780.0262293398932
12:55:30,1,405,Bedford Park Blvd-Lehman College,-73.890064,40.873412,3658.515739829404
12:55:30,1,406,Kingsbridge Rd,-73.897174,40.86776,3523.966720221561
12:55:30,1,407,Fordham Rd,-73.901034,40.862803,3432.6203149928033
12:55:30,1,408,183 St,-73.903879,40.858407,3351.9209685875744
12:55:30,1,409,Burnside Av,-73.907684,40.853453,3258.7488374400336
12:55:30,1,410,176 St,-73.911794,40.84848,3184.39789083086
12:55:30,1,411,Mt Eden Av,-73.914685,40.844434,3108.6527927916445
12:55:30,1,412,170 St,-73.917791,40.840075,3031.129916974651
12:55:30,1,413,167 St,-73.9214,40.835537,2950.5993047297534
12:55:30,1,414,161 St-Yankee Stadium,-73.925831,40.827994,2805.084741622957
12:55:30,1,415,149 St-Grand Concourse,-73.927351,40.818375,2575.139741622957
12:03:30,2,416,138 St-Grand Concourse,-73.929849,40.813224,2405.82492878004
12:17:00,1,418,Fulton St,-74.009509,40.710368,1495.45759087167
12:17:00,1,419,Wall St,-74.011862,40.707557,1574.4236028638381
12:17:00,1,420,Bowling Green,-74.014065,40.704817,1648.4144285519117
12:46:00,1,423,Borough Hall,-73.990151,40.692404,1916.6441582816412
13:47:00,1,501,Eastchester-Dyre Av,-73.830834,40.8883,4250.044958257779
13:47:00,1,502,Baychester Av,-73.838591,40.878663,4119.682320895143
13:47:00,1,503,Gun Hill Rd,-73.846384,40.869526,3960.913503690841
13:47:00,1,504,Pelham Pkwy,-73.855359,40.858985,3803.554808038667
13:47:00,1,505,Morris Park,-73.860495,40.854364,3715.8734893573487
13:25:00,1,601,Pelham Bay Park,-73.828121,40.852462,4068.861915793495
13:25:00,1,602,Buhre Av,-73.832569,40.84681,3885.4349654388843
13:25:00,1,603,Middletown Rd,-73.836322,40.843863,3776.6016321055513
13:25:00,1,604,Westchester Sq-E Tremont Av,-73.842952,40.839892,3631.8516321055513
13:25:00,1,606,Zerega Av,-73.847036,40.836488,3533.768298772218
13:25:00,1,607,Castle Hill Av,-73.851222,40.834255,3466.434965438885
12:55:30,1,608,Parkchester,-73.860816,40.833226,3310.434965438885
12:55:30,1,609,St Lawrence Av,-73.867618,40.831509,3548.3723319230035
12:55:30,1,610,Morrison Av-Soundview,-73.874516,40.829521,3463.3046028393383
12:55:30,1,611,Elder Av,-73.879159,40.828584,3398.1406028393385
12:55:30,1,612,Whitlock Av,-73.886283,40.826525,3291.8006028393384
12:55:30,1,613,Hunts Point Av,-73.890549,40.820948,3054.0503500542695
12:03:30,2,614,Longwood Av,-73.896435,40.816104,3136.3425332909737
12:03:30,2,615,E 149 St,-73.904098,40.812118,3035.2341999576406
12:03:30,2,616,E 143 St-St Mary's St,-73.907657,40.808719,2960.3918763061884
12:03:30,2,617,Cypress Av,-73.914042,40.805368,2861.471374214138
12:03:30,2,618,Brook Av,-73.91924,40.807566,2791.9125506847267
12:55:30,1,619,3 Av-138 St,-73.926138,40.810476,2674.973426977346
12:03:30,2,621,125 St,-73.937594,40.804138,2248.116282757812
12:03:30,2,622,116 St,-73.941617,40.798629,2574.5151383514226
12:55:30,1,623,110 St,-73.94425,40.79502,2494.56426115844
12:55:30,1,624,103 St,-73.947478,40.7906,2418.1923313338784
12:55:30,1,625,96 St,-73.95107,40.785672,2331.722155895282
12:03:30,2,626,86 St,-73.955589,40.779492,1963.7205993045745
12:55:30,1,627,77 St,-73.959874,40.77362,2136.576584650096
12:55:30,1,628,68 St-Hunter College,-73.96387,40.768141,2046.9515846500958
12:03:30,2,629,59 St,-73.967967,40.762526,1766.5716631343616
12:55:30,1,630,51 St,-73.97192,40.757107,1854.0299404548925
12:03:30,2,631,Grand Central-42 St,-73.976848,40.751776,1606.1674078152128
12:55:30,1,632,33 St,-73.982076,40.746081,1616.2528751647644
12:55:30,1,633,28 St,-73.984264,40.74307,1545.3551478920372
12:55:30,1,634,23 St,-73.986599,40.739864,1469.5824206193101
12:55:30,1,635,14 St-Union Sq,-73.989951,40.734673,1369.6392388011284
12:55:30,1,636,Astor Pl,-73.99107,40.730054,1445.3299604506128
12:25:00,1,637,Bleecker St,-73.994659,40.725915,1389.050062189756
12:25:00,1,638,Spring St,-73.997141,40.722301,1366.6252484097358
12:25:00,1,639,Canal St,-74.000193,40.718803,1303.1728674573549
12:25:00,1,640,Brooklyn Bridge-City Hall,-74.004131,40.713065,1384.7353674573549
12:37:00,1,701,Flushing-Main St,-73.83003,40.7596,2877.093616828845
12:37:00,1,702,Mets-Willets Point,-73.845625,40.754622,2700.784093019321
12:37:00,1,705,111 St,-73.855334,40.75173,2720.7398478957934
12:37:00,1,706,103 St-Corona Plaza,-73.8627,40.749865,2627.1138394177406
12:37:00,1,707,Junction Blvd,-73.869527,40.749145,2456.780506084407
12:37:00,1,708,90 St-Elmhurst Av,-73.876613,40.748408,2511.5288254660977
12:37:00,1,709,82 St-Jackson Hts,-73.883697,40.747659,2432.148543775957
12:03:30,3,710,74 St-Broadway,-73.891394,40.746848,2289.9002444562293
12:07:00,1,711,69 St,-73.896403,40.746325,2242.488479750347
12:03:30,3,712,61 St-Woodside,-73.902984,40.74563,2170.5800290461216
12:03:30,3,713,52 St,-73.912549,40.744149,2081.394843860936
12:03:30,3,714,46 St-Bliss St,-73.918435,40.743132,2023.5643353863597
12:03:30,3,715,40 St-Lowery St,-73.924016,40.743781,1968.25247097958
12:03:30,3,716,33 St-Rawson St,-73.930997,40.744587,1904.0852354846995
12:03:30,3,718,Queensboro Plaza,-73.940202,40.750582,1777.780506084407
12:07:00,1,719,Court Sq,-73.945264,40.747023,1688.780506084407
12:07:00,1,720,Hunters Point Av,-73.948916,40.742216,1774.780506084407
12:07:00,1,721,Vernon Blvd-Jackson Av,-73.953581,40.742626,1802.780506084407
12:07:00,1,723,Grand Central-42 St,-73.976041,40.751431,1841.8379965651034
12:03:30,3,724,5 Av,-73.981963,40.753821,1939.509214211021
12:07:00,1,725,Times Sq-42 St,-73.987691,40.755477,1863.3691051602368
12:07:00,1,726,34 St-Hudson Yards,-74.00191,40.755882,2030.1067073630857
12:03:30,3,901,Grand Central-42 St,-73.979189,40.752769,1796.8379965651034
12:07:00,2,902,Times Sq-42 St,-73.986229,40.755983,1816.2760809063916
13:17:00,0,A02,Inwood-207 St,-73.919899,40.868072,3437.8646173597963
13:17:00,0,A03,Dyckman St,-73.927271,40.865491,3347.791624659066
13:17:00,0,A05,190 St,-73.93418,40.859022,3224.1992333547187
13:17:00,0,A06,181 St,-73.937969,40.851695,3110.9639392370714
13:17:00,0,A07,175 St,-73.939704,40.847391,3014.2435091295447
13:17:00,0,A09,168 St,-73.939561,40.840719,2886.805006455748
12:07:00,0,A10,163 St-Amsterdam Av,-73.939892,40.836013,2907.7586022952155
12:07:00,0,A11,155 St,-73.941514,40.830518,2825.925268961882
12:07:00,0,A12,145 St,-73.944216,40.824783,2641.928001108154
12:07:00,0,A14,135 St,-73.947649,40.817894,2563.763804653635
13:07:00,0,A15,125 St,-73.952343,40.811109,2416.3043451941758
12:07:00,0,A16,116 St,-73.954882,40.805085,2540.139927424878
13:17:00,0,A17,Cathedral Pkwy (110 St),-73.958161,40.800603,2588.412098770956
13:17:00,0,A18,103 St,-73.961454,40.796092,2504.6930905064933
13:17:00,0,A19,96 St,-73.964696,40.791642,2420.184893785182
13:17:00,0,A20,86 St,-73.968916,40.785868,2320.556794611628
13:17:00,0,A21,81 St-Museum of Natural History,-73.972143,40.781433,2224.815127944961
13:17:00,0,A22,72 St,-73.97641,40.775594,2131.4151279449616
13:07:00,0,A24,59 St-Columbus Circle,-73.981736,40.768296,1903.532606063741
13:07:00,0,A25,50 St,-73.985984,40.762456,1882.0881505438315
12:03:30,2,A27,42 St-Port Authority Bus Terminal,-73.989735,40.757308,1741.5272006583355
12:03:30,2,A28,34 St-Penn Station,-73.993391,40.752287,1645.2368780776903
12:03:30,2,A30,23 St,-73.998041,40.745906,1581.8086170627844
12:55:30,1,A31,14 St,-74.00169,40.740893,1490.1389742056415
12:03:30,2,A32,W 4 St-Wash Sq,-74.000495,40.732338,1568.6586991234599
13:37:00,1,A33,Spring St,-74.003739,40.726227,1674.2372707563902
13:07:00,1,A34,Canal St,-74.005229,40.720824,1715.93851604553
12:07:00,1,A36,Chambers St,-74.008585,40.714111,1595.6124290890082
12:07:00,1,A38,Fulton St,-74.007691,40.710197,1498.1728686494478
12:07:00,1,A40,High St,-73.990531,40.699337,1695.925615902195
12:07:00,1,A41,Jay St-MetroTech,-73.987342,40.692338,1470.0895353161147
12:17:00,1,A42,Hoyt-Schermerhorn Sts,-73.985001,40.688484,1572.1253268647813
12:03:30,2,A43,Lafayette Av,-73.973946,40.686113,1595.1797858175105
12:03:30,2,A44,Clinton-Washington Avs,-73.965838,40.683263,1510.516149453874
12:03:30,2,A45,Franklin Av,-73.956848,40.68138,1404.391149453874
12:17:00,1,A46,Nostrand Av,-73.950426,40.680438,1239.1583457327056
13:55:00,1,A47,Kingston-Throop Avs,-73.940858,40.679921,1229.2602904046662
12:17:00,1,A48,Utica Av,-73.930729,40.679364,1077.0695606859767
12:03:30,2,A49,Ralph Av,-73.920786,40.678822,1036.3583883799615
12:03:30,2,A50,Rockaway Av,-73.911946,40.67834,937.912107388226
12:07:00,1,A51,Broadway Junction,-73.905316,40.678334,853.8137467324883
12:07:00,1,A52,Liberty Av,-73.896548,40.674542,987.7730963259843
12:07:00,1,A53,Van Siclen Av,-73.890358,40.67271,1082.9519581146021
12:07:00,1,A54,Shepherd Av,-73.88075,40.67413,1187.0251288463096
13:47:00,1,A55,Euclid Av,-73.872106,40.675377,1154.1253746394652
13:47:00,1,A57,Grant Av,-73.86505,40.677044,1276.3079472535733
13:47:00,1,A59,80 St,-73.858992,40.679371,1373.6599472535731
13:47:00,1,A60,88 St,-73.85147,40.679843,1469.620106616123
13:47:00,1,A61,Rockaway Blvd,-73.843853,40.680429,1559.9653447113612
12:03:30,2,A63,104 St,-73.837683,40.681711,1643.637344711361
13:37:00,1,A64,111 St,-73.832163,40.684331,1729.768492252345
13:37:00,1,A65,Ozone Park-Lefferts Blvd,-73.825798,40.685951,1818.8317833915853
12:37:00,0,B04,21 St-Queensbridge,-73.942836,40.754203,2358.342085501871
12:37:00,0,B06,Roosevelt Island,-73.95326,40.759145,2211.721395846699
12:37:00,0,B08,Lexington Av/63 St,-73.966113,40.764629,1987.7244980184007
12:37:00,0,B10,57 St,-73.97745,40.763972,1951.9763356655208
13:47:00,0,B12,9 Av,-73.994324,40.646292,2683.6677432511824
13:47:00,0,B13,Fort Hamilton Pkwy,-73.994304,40.640914,2784.7703073537464
13:47:00,0,B14,50 St,-73.994791,40.63626,2863.7957850607527
13:47:00,0,B15,55 St,-73.995476,40.631435,2963.5537468441926
13:47:00,0,B16,62 St,-73.996895,40.626472,3029.5257748162207
13:47:00,0,B17,71 St,-73.998864,40.619589,3132.0162206760933
13:47:00,0,B18,79 St,-74.00061,40.613501,3238.576730230234
13:47:00,0,B19,18 Av,-74.001736,40.607954,3320.1702786173305
13:47:00,0,B20,20 Av,-73.998168,40.604556,3402.1637851108367
13:47:00,0,B21,Bay Pkwy,-73.993728,40.601875,3479.709239656291
13:47:00,0,B22,25 Av,-73.986829,40.597704,3598.818917075646
13:47:00,0,B23,Bay 50 St,-73.983765,40.588841,3796.2672539896193
12:07:00,0,D01,Norwood-205 St,-73.878855,40.874811,3924.9039486794154
12:07:00,0,D03,Bedford Park Blvd,-73.887138,40.873244,3753.4174621929287
12:07:00,0,D04,Kingsbridge Rd,-73.893509,40.866978,3636.2612121929287
12:07:00,0,D05,Fordham Rd,-73.897749,40.861296,3541.7297436614604
12:07:00,0,D06,182-183 Sts,-73.900741,40.856093,3454.795836860297
13:07:00,0,D07,Tremont Av,-73.905227,40.85041,3376.6807926125093
13:07:00,0,D08,174-175 Sts,-73.910136,40.8459,3296.405111340302
13:07:00,0,D09,170 St,-73.9134,40.839306,3203.0869905786462
13:07:00,0,D10,167 St,-73.91844,40.833771,3091.911361340302
13:07:00,0,D11,161 St-Yankee Stadium,-73.925651,40.827905,2946.7363613403018
13:07:00,0,D12,155 St,-73.938209,40.830135,2822.0079662785733
13:07:00,0,D13,145 St,-73.944216,40.824783,2706.9203239119793
13:07:00,0,D14,7 Av,-73.981637,40.762862,2017.105075495102
12:07:00,0,D15,47-50 Sts-Rockefeller Ctr,-73.981329,40.758663,1813.5818969985569
12:07:00,0,D16,42 St-Bryant Pk,-73.984569,40.754222,1721.1099343817345
12:07:00,0,D17,34 St-Herald Sq,-73.987823,40.749719,1644.3342334471552
12:25:00,0,D18,23 St,-73.992821,40.742878,1533.5924494095964
12:25:00,0,D19,14 St,-73.996209,40.738228,1422.8351697116952
12:07:00,0,D20,W 4 St-Wash Sq,-74.000495,40.732338,1328.6586991234599
12:25:00,0,D21,Broadway-Lafayette St,-73.996204,40.725297,1176.8214898211343
12:46:00,0,D22,Grand St,-73.993753,40.718267,1550.4373336781703
12:07:00,0,D24,Atlantic Av-Barclays Ctr,-73.97689,40.68446,1982.828996448658
12:07:00,0,D25,7 Av,-73.972367,40.67705,2118.951901476591
12:07:00,0,D26,Prospect Park,-73.962246,40.661614,1943.1650465126975
12:07:00,0,D27,Parkside Av,-73.961495,40.655292,2274.569684484388
12:07:00,0,D28,Church Av,-73.962982,40.650527,2286.8921062823383
12:07:00,0,D29,Beverley Rd,-73.964492,40.644031,2393.7638338919724
12:07:00,0,D30,Cortelyou Rd,-73.963891,40.640927,2471.9593646182298
12:07:00,0,D31,Newkirk Plaza,-73.962793,40.635082,2458.334963425195
12:07:00,0,D32,Avenue H,-73.961639,40.62927,2575.1580699021742
12:07:00,0,D33,Avenue J,-73.960803,40.625039,2669.141024447629
12:07:00,0,D34,Avenue M,-73.959399,40.617618,2780.532085900143
12:17:00,0,D35,Kings Hwy,-73.957734,40.60867,2696.4673163663715
13:47:00,0,D37,Avenue U,-73.955929,40.5993,2911.947016201857
13:47:00,0,D38,Neck Rd,-73.955161,40.595246,3011.483098676084
12:17:00,0,D39,Sheepshead Bay,-73.954155,40.586896,2934.4523909932373
13:47:00,0,D40,Brighton Beach,-73.961376,40.577621,3084.17966372051
13:47:00,0,D41,Ocean Pkwy,-73.968501,40.576312,3266.5266253061445
13:47:00,0,D42,W 8 St-NY Aquarium,-73.975939,40.576127,3302.196379128047
13:47:00,0,D43,Coney Island-Stillwell Av,-73.981233,40.577422,3408.886301608667
12:07:00,1,E01,World Trade Center,-74.009781,40.712582,1900.279973531025
12:25:00,0,F01,Jamaica-179 St,-73.783817,40.712646,2994.808767759073
13:37:00,0,F02,169 St,-73.793604,40.71047,2904.808767759073
13:37:00,0,F03,Parsons Blvd,-73.803326,40.707564,2814.808767759073
13:37:00,0,F04,Sutphin Blvd,-73.810708,40.70546,2724.808767759073
13:37:00,0,F05,Briarwood,-73.820574,40.709179,2504.5015427154576
12:55:30,0,F06,Kew Gardens-Union Tpke,-73.831008,40.714441,2625.1000374065557
12:55:30,0,F07,75 Av,-73.837324,40.718331,2739.1384989450175
13:17:00,0,F09,Court Sq-23 St,-73.946,40.747846,1688.780506084407
13:17:00,0,F11,Lexington Av/53 St,-73.969055,40.757552,1892.3519346558355
13:17:00,0,F12,5 Av/53 St,-73.975224,40.760167,1965.199039230637
12:25:00,0,F14,2 Av,-73.989938,40.723402,1221.9295401071302
12:25:00,0,F15,Delancey St-Essex St,-73.988114,40.718611,1111.0895353161145
12:07:00,1,F16,East Broadway,-73.990173,40.713715,1192.0895353161147
12:07:00,1,F18,York St,-73.986751,40.701397,1335.7562019827815
12:07:00,1,F20,Bergen St,-73.990862,40.686145,1674.6924479152112
12:07:00,1,F21,Carroll St,-73.995048,40.680303,1770.3623043745415
12:07:00,1,F22,Smith-9 Sts,-73.995959,40.67358,1912.775765913003
12:07:00,1,F23,4 Av-9 St,-73.989779,40.670272,1996.2414521875126
12:07:00,1,F24,7 Av,-73.980305,40.666271,1906.0895353161145
12:07:00,1,F25,15 St-Prospect Park,-73.979493,40.660365,2073.9991187204437
12:07:00,1,F26,Fort Hamilton Pkwy,-73.975776,40.650782,2235.6583365975384
12:07:00,1,F27,Church Av,-73.979678,40.644041,2146.0895353161145
12:07:00,1,F29,Ditmas Av,-73.978172,40.636119,2266.0895353161145
12:07:00,1,F30,18 Av,-73.976971,40.629755,2386.0895353161145
12:07:00,1,F31,Avenue I,-73.976127,40.625322,2446.0895353161145
12:07:00,1,F32,Bay Pkwy,-73.975264,40.620769,2506.0895353161145
12:07:00,1,F33,Avenue N,-73.974197,40.61514,2626.0895353161145
12:07:00,1,F34,Avenue P,-73.973022,40.608944,2716.0895353161145
12:07:00,1,F35,Kings Hwy,-73.972361,40.603217,2889.7516573039075
12:07:00,1,F36,Avenue U,-73.973357,40.596063,2998.3527211336946
12:07:00,1,F38,Avenue X,-73.97425,40.58962,3091.5559296898446
13:17:00,0,F39,Neptune Av,-73.974574,40.581011,3206.0278398022037
13:37:00,0,G05,Jamaica Center-Parsons/Archer,-73.801109,40.702147,2018.4269185863782
13:37:00,0,G06,Sutphin Blvd-Archer Av-JFK Airport,-73.807969,40.700486,1958.4269185863782
12:55:30,0,G07,Jamaica-Van Wyck,-73.816859,40.702566,2377.77877043823
12:55:30,0,G08,Forest Hills-71 Av,-73.844521,40.721691,2686.331615149109
13:07:00,0,G09,67 Av,-73.852719,40.726523,2835.1013547603616
13:17:00,0,G10,63 Dr-Rego Park,-73.861604,40.729846,2742.5638987242164
13:17:00,0,G11,Woodhaven Blvd,-73.869229,40.733106,2638.933761737915
13:17:00,0,G12,Grand Av-Newtown,-73.877223,40.737015,2516.058761737915
13:17:00,0,G13,Elmhurst Av,-73.882017,40.742454,2416.5245151625727
13:17:00,0,G14,Jackson Hts-Roosevelt Av,-73.891338,40.746644,2258.233400863395
13:17:00,0,G15,65 St,-73.898453,40.749669,2378.793129690551
13:17:00,0,G16,Northern Blvd,-73.906006,40.752885,2284.4632327833338
12:25:00,0,G18,46 St,-73.913333,40.756312,2194.4632327833338
12:25:00,0,G19,Steinway St,-73.92074,40.756879,2077.556016288489
12:25:00,0,G20,36 St,-73.928781,40.752039,1957.5560162884888
13:17:00,0,G21,Queens Plaza,-73.937243,40.748973,1812.1478530231827
12:03:30,2,G22,Court Sq,-73.943832,40.746554,1477.861961726771
12:03:30,2,G24,21 St,-73.949724,40.744065,1411.9996428861914
12:03:30,2,G26,Greenpoint Av,-73.954449,40.731352,1204.1764384663018
12:03:30,2,G28,Nassau Av,-73.951277,40.724635,1109.8138011036644
12:03:30,2,G29,Metropolitan Av,-73.951418,40.712792,977.7318338905496
12:03:30,2,G30,Broadway,-73.950308,40.706092,1078.31335562968
12:03:30,2,G31,Flushing Av,-73.950234,40.700377,1164.7079502242746
12:03:30,2,G32,Myrtle-Willoughby Avs,-73.949046,40.694568,1246.4322745485988
12:03:30,2,G33,Bedford-Nostrand Avs,-73.953522,40.689627,1358.3623820754806
12:03:30,2,G34,Classon Av,-73.96007,40.688873,1440.289843215377
12:03:30,2,G35,Clinton-Washington Avs,-73.966839,40.688089,1524.1558225968201
12:03:30,2,G36,Fulton St,-73.975375,40.687119,1622.601976442974
13:47:00,1,H01,Aqueduct Racetrack,-73.834058,40.668234,1765.9970907431073
13:47:00,1,H02,Aqueduct-N Conduit Av,-73.834058,40.668234,1839.0661436826827
13:47:00,1,H03,Howard Beach-JFK Airport,-73.830301,40.660476,1937.185979631996
13:47:00,1,H04,Broad Channel,-73.815925,40.608382,2355.1375925352218
13:47:00,1,H06,Beach 67 St,-73.796924,40.590927,2666.427066219432
13:47:00,1,H07,Beach 60 St,-73.788522,40.592374,2769.8744346404847
13:47:00,1,H08,Beach 44 St,-73.776013,40.592943,2873.356890780836
13:47:00,1,H09,Beach 36 St,-73.768175,40.595398,2970.602504815923
13:47:00,1,H10,Beach 25 St,-73.761353,40.600066,3070.9830357893743
13:47:00,1,H11,Far Rockaway-Mott Av,-73.755405,40.603995,3170.1497024560413
13:47:00,1,H12,Beach 90 St,-73.813641,40.588034,2606.437592535222
13:47:00,1,H13,Beach 98 St,-73.820558,40.585307,2684.8375925352216
13:47:00,1,H14,Beach 105 St,-73.827559,40.583209,2760.948703646333
13:47:00,1,H15,Rockaway Park-Beach 116 St,-73.835592,40.580903,2865.1487036463327
13:37:00,0,J12,121 St,-73.828294,40.700492,1718.4269185863782
13:37:00,0,J13,111 St,-73.836345,40.697418,1857.9910507204982
13:37:00,0,J14,104 St,-73.84433,40.695178,1538.4269185863782
13:37:00,0,J15,Woodhaven Blvd,-73.851576,40.693879,1409.5062019827815
13:37:00,0,J16,85 St-Forest Pkwy,-73.86001,40.692435,1451.4129217592792
13:37:00,0,J17,75 St-Elderts Ln,-73.867139,40.691324,1229.5062019827815
13:37:00,0,J19,Cypress Hills,-73.87255,40.689941,1249.1629217592792
13:37:00,0,J20,Crescent St,-73.873785,40.683194,1079.5062019827815
13:37:00,0,J21,Norwood Av,-73.880039,40.68141,1028.4269185863782
13:37:00,0,J22,Cleveland St,-73.884639,40.679947,1052.375673540741
13:37:00,0,J23,Van Siclen Av,-73.891688,40.678024,878.4269185863783
13:37:00,0,J24,Alabama Av,-73.898654,40.676992,770.5062019827815
13:37:00,0,J27,Broadway Junction,-73.904512,40.679498,657.8395353161147
13:37:00,0,J28,Chauncey St,-73.910456,40.682893,569.422868649448
13:37:00,0,J29,Halsey St,-73.916559,40.68637,544.8365413041386
13:37:00,0,J30,Gates Av,-73.92227,40.68963,423.5062019827813
13:37:00,0,J31,Kosciuszko St,-73.928814,40.693342,362.6868407053362
12:54:00,1,L01,8 Av,-74.002578,40.739777,1323.0863404432819
12:54:00,1,L02,6 Av,-73.996786,40.737335,1231.9763356655205
12:54:00,1,L03,14 St-Union Sq,-73.99073,40.734789,1155.678199019558
12:54:00,1,L05,3 Av,-73.986122,40.732849,1078.5229195164522
12:54:00,1,L06,1 Av,-73.981628,40.730953,1050.289586183119
12:54:00,1,L08,Bedford Av,-73.956872,40.717304,852.3777320797755
12:54:00,1,L10,Lorimer St,-73.950275,40.714063,764.5175497089548
12:54:00,1,L11,Graham Av,-73.944053,40.714565,727.1467290402618
12:54:00,1,L12,Grand St,-73.94067,40.711926,646.6243409805602
12:54:00,1,L13,Montrose Av,-73.93985,40.707739,608.2008534360763
12:54:00,1,L14,Morgan Av,-73.933147,40.706152,540.7913578871148
12:54:00,1,L15,Jefferson St,-73.922913,40.706607,448.809233072886
12:54:00,1,L16,DeKalb Av,-73.918425,40.703811,389.5784638421168
12:03:30,1,L17,Myrtle-Wyckoff Avs,-73.911586,40.699814,320.19883040935673
13:12:30,1,L19,Halsey St,-73.904084,40.695602,364.2628034733298
13:12:30,1,L20,Wilson Av,-73.904046,40.688764,481.24119853505823
13:12:30,1,L21,Bushwick Av-Aberdeen St,-73.905249,40.682829,565.5780040906138
13:12:30,1,L22,Broadway Junction,-73.90324,40.678856,615.4953594625146
13:12:30,1,L24,Atlantic Av,-73.903097,40.675345,723.5725199563417
13:12:30,1,L25,Sutter Av,-73.901975,40.669367,793.9448276486495
13:12:30,1,L26,Livonia Av,-73.900571,40.664038,851.6538059768228
13:12:30,1,L27,New Lots Av,-73.899232,40.658733,900.7538059768228
13:12:30,1,L28,East 105 St,-73.899485,40.650573,997.4802210711624
12:03:30,1,L29,Canarsie-Rockaway Pkwy,-73.90185,40.646654,1122.5444102603517
13:42:30,0,M01,Middle Village-Metropolitan Av,-73.889601,40.711396,495.6503919702206
13:42:30,0,M04,Fresh Pond Rd,-73.895877,40.706186,378.367373102296
13:42:30,0,M05,Forest Av,-73.903077,40.704423,285.9229934486614
13:42:30,0,M06,Seneca Av,-73.90774,40.702762,191.55875503806536
13:42:30,0,M08,Myrtle-Wyckoff Avs,-73.912385,40.69943,95.19883040935673
12:07:00,0,M09,Knickerbocker Av,-73.919711,40.698664,0.0
12:07:00,0,M10,Central Av,-73.927397,40.697857,92.18064516129033
12:07:00,0,M11,Myrtle Av,-73.935657,40.697207,208.42691381800674
12:07:00,0,M12,Flushing Av,-73.941126,40.70026,341.26348117979296
12:07:00,0,M13,Lorimer St,-73.947408,40.703869,437.10229605820825
12:07:00,0,M14,Hewes St,-73.953431,40.70687,534.7781258078921
12:07:00,0,M16,Marcy Av,-73.957757,40.708359,504.5062019827813
12:07:00,0,M18,Delancey St-Essex St,-73.987437,40.718315,886.0895353161145
12:17:00,0,M19,Bowery,-73.993915,40.72028,963.1728686494479
12:17:00,0,M20,Canal St,-73.999892,40.718092,1065.6728686494478
12:17:00,0,M21,Chambers St,-74.003401,40.713243,1161.256201982781
12:17:00,0,M22,Fulton St,-74.007582,40.710374,1273.1728686494478
12:17:00,0,M23,Broad St,-74.011056,40.706476,1339.3395353161143
12:07:00,0,N02,8 Av,-74.011719,40.635064,2758.3376942339296
12:07:00,0,N03,Fort Hamilton Pkwy,-74.005351,40.631386,2901.782780939132
12:07:00,0,N04,New Utrecht Av,-73.996353,40.624842,3038.0717982801725
12:07:00,0,N05,18 Av,-73.990414,40.620671,3130.3434745807504
12:07:00,0,N06,20 Av,-73.985026,40.61741,3209.465567604006
12:07:00,0,N07,Bay Pkwy,-73.981848,40.611815,3305.8933132687457
12:07:00,0,N08,Kings Hwy,-73.980353,40.603923,3415.1404397055276
12:07:00,0,N09,Avenue U,-73.979137,40.597473,3507.8671838915743
12:07:00,0,N10,86 St,-73.97823,40.592721,3590.411562589799
12:54:00,2,Q01,Canal St,-74.00046,40.718383,1303.1728674573549
12:07:00,0,Q03,72 St,-73.958424,40.768799,2121.2038794616997
12:07:00,0,Q04,86 St,-73.951787,40.777891,2239.6935701833495
12:07:00,0,Q05,96 St,-73.947152,40.784318,2330.9359944257735
12:07:00,1,R01,Astoria-Ditmars Blvd,-73.912034,40.775036,2463.7394787631733
12:07:00,1,R03,Astoria Blvd,-73.917843,40.770258,2362.561260941391
12:07:00,1,R04,30 Av,-73.921479,40.766779,2262.7079276080576
12:07:00,1,R05,Broadway,-73.925508,40.76182,2166.1754600755903
12:07:00,1,R06,36 Av,-73.929575,40.756804,2071.3333548124324
12:07:00,1,R08,39 Av-Dutch Kills,-73.932755,40.752882,1966.0133548124325
12:07:00,1,R09,Queensboro Plaza,-73.940202,40.750582,1829.4728142718918
12:07:00,1,R11,Lexington Av/59 St,-73.967258,40.76266,1996.0862250259177
12:07:00,1,R13,5 Av/59 St,-73.973347,40.764811,2015.4132493782167
12:03:30,2,R14,57 St-7 Av,-73.980658,40.764664,1809.548332215292
12:07:00,1,R15,49 St,-73.984139,40.759901,1776.989335219634
12:03:30,2,R16,Times Sq-42 St,-73.986754,40.754672,1636.2760809063916
12:03:30,2,R17,34 St-Herald Sq,-73.98795,40.749567,1536.2392388011283
12:03:30,2,R18,28 St,-73.988691,40.745494,1536.561774012396
12:03:30,2,R19,23 St,-73.989344,40.741303,1455.3786754208468
12:37:00,1,R20,14 St-Union Sq,-73.990568,40.735736,1369.6392388011284
12:07:00,2,R21,8 St-NYU,-73.992629,40.730328,1470.6236138011284
12:17:00,1,R22,Prince St,-73.997702,40.724329,1522.971317069758
12:17:00,1,R23,Canal St,-74.001775,40.719527,1423.1728674573549
12:07:00,1,R24,City Hall,-74.006978,40.713282,1568.6651751496624
12:07:00,1,R25,Cortlandt St,-74.011029,40.710668,1683.1079232412656
12:07:00,1,R26,Rector St,-74.013342,40.70722,1779.9801944587118
12:07:00,0,R27,Whitehall St-South Ferry,-74.012994,40.703087,1864.3551944587118
12:07:00,0,R28,Court St,-73.991777,40.6941,1682.589535316115
12:07:00,0,R29,Jay St-MetroTech,-73.985942,40.69218,1605.0895353161147
12:07:00,2,R30,DeKalb Av,-73.981824,40.690635,1702.5895353161147
13:47:00,0,R31,Atlantic Av-Barclays Ctr,-73.97881,40.683666,1845.0895353161147
12:07:00,0,R32,Union St,-73.98311,40.677316,1967.5895353161147
12:07:00,0,R33,4 Av-9 St,-73.988302,40.670847,2090.0895353161145
12:07:00,0,R34,Prospect Av,-73.992872,40.665414,2157.0895353161145
12:07:00,0,R35,25 St,-73.998091,40.660397,2235.0895353161145
13:47:00,0,R36,36 St,-74.003549,40.655144,2299.0053349898226
12:07:00,0,R39,45 St,-74.010006,40.648939,2497.4700780082417
12:07:00,0,R40,53 St,-74.014034,40.645069,2586.6945678041598
12:07:00,0,R41,59 St,-74.017881,40.641362,2591.061832164964
12:07:00,0,R42,Bay Ridge Av,-74.023377,40.634967,2751.8718334611613
12:07:00,0,R43,77 St,-74.02551,40.629742,2832.1445607338887
12:07:00,0,R44,86 St,-74.028398,40.622687,3008.495751210079
13:47:00,0,R45,Bay Ridge-95 St,-74.030876,40.616622,3085.511499241575
12:03:30,3,S01,Franklin Av,-73.955827,40.680596,1584.391149453874
12:03:30,3,S03,Park Pl,-73.957624,40.674772,1707.266149453874
12:03:30,3,S04,Botanic Garden,-73.959245,40.670343,1814.809766087322
