start_time,ntransfers,stop_id,stop_name,stop_lon,stop_lat,duration
12:20:30,1,101,Van Cortlandt Park-242 St,-73.898583,40.889248,3489.1921817816296
12:20:30,1,103,238 St,-73.90087,40.884667,3363.381370970819
12:20:30,1,104,231 St,-73.904834,40.878856,3259.7490839753036
12:20:30,1,106,Marble Hill-225 St,-73.909831,40.874561,3162.2671019933214
12:20:30,1,107,215 St,-73.915279,40.869444,3073.4743092005288
12:20:30,1,108,207 St,-73.918822,40.864621,2983.7513654775853
12:20:30,1,109,Dyckman St,-73.925536,40.860531,2883.4385901471887
12:20:30,1,110,191 St,-73.929412,40.855225,2799.5937625609818
12:20:30,1,111,181 St,-73.933596,40.849505,2708.563719642527
12:20:30,1,112,168 St-Washington Hts,-73.940133,40.840556,2589.36200290433
12:20:30,1,113,157 St,-73.94489,40.834041,2490.0430373870886
12:20:30,1,114,145 St,-73.95036,40.826551,2372.7898185029685
12:20:30,1,115,137 St-City College,-73.953676,40.822008,2271.9137501269
12:20:30,1,116,125 St,-73.958372,40.815581,2176.5887501269003
12:20:30,1,117,116 St-Columbia University,-73.96411,40.807722,2062.3595834602334
12:20:30,1,118,Cathedral Pkwy (110 St),-73.966847,40.803967,1983.4050380056883
12:20:30,1,119,103 St,-73.968379,40.799446,1903.876349481098
12:00:30,1,120,96 St,-73.972323,40.793919,1691.7096252541821
12:00:30,1,121,86 St,-73.976218,40.788644,1693.4747101368357
12:00:30,1,122,79 St,-73.979917,40.783934,1616.6007263969984
12:00:30,1,123,72 St,-73.98197,40.778453,1488.1497579154284
12:05:30,1,124,66 St-Lincoln Center,-73.982209,40.77344,1531.3005347987264
12:05:30,1,125,59 St-Columbus Circle,-73.981929,40.768247,1453.9522201919847
12:05:30,1,126,50 St,-73.983849,40.761728,1350.2830472596538
12:20:30,1,127,Times Sq-42 St,-73.987495,40.75529,1218.0921662923918
12:15:30,1,128,34 St-Penn Station,-73.991057,40.750373,1315.0188678630725
12:15:30,1,129,28 St,-73.993365,40.747215,1399.63140597653
12:15:30,1,130,23 St,-73.995657,40.744081,1469.2057031652853
12:15:30,1,131,18 St,-73.997871,40.74104,1534.6598864322175
12:15:30,1,132,14 St,-74.000201,40.737826,1502.616751460956
12:05:30,1,133,Christopher St-Sheridan Sq,-74.002906,40.733422,1694.6876642099953
12:05:30,1,134,Houston St,-74.005367,40.728251,1780.5686165909476
12:05:30,1,135,Canal St,-74.006277,40.722854,1875.8087740712626
12:05:30,1,136,Franklin St,-74.006886,40.719318,1939.5992879052546
12:05:30,1,137,Chambers St,-74.009266,40.715478,1794.8220146188507
12:55:30,1,138,WTC Cortlandt,-74.012188,40.711835,2083.50824855635
12:55:30,1,139,Rector St,-74.013783,40.707513,2160.01837001384
12:55:30,1,142,South Ferry,-74.013664,40.702068,2263.109279104749
12:15:30,1,201,Wakefield-241 St,-73.85062,40.903125,3808.053778311106
12:15:30,1,204,Nereid Av,-73.854376,40.898379,3511.0379649491415
12:15:30,1,205,233 St,-73.857473,40.893193,3421.0379649491415
12:15:30,1,206,225 St,-73.860341,40.888022,3331.0379649491415
12:15:30,1,207,219 St,-73.862633,40.883895,3241.0379649491415
12:15:30,1,208,Gun Hill Rd,-73.866256,40.87785,3136.0379649491415
12:15:30,1,209,Burke Av,-73.867164,40.871356,3118.832803915096
12:15:30,1,210,Allerton Av,-73.867352,40.865462,3026.7023691324875
12:15:30,1,211,Pelham Pkwy,-73.867615,40.857192,2922.354543045531
12:15:30,1,212,Bronx Park East,-73.868457,40.848828,2797.528456089009
12:15:30,1,213,E 180 St,-73.873488,40.841894,2587.224108262922
12:15:30,1,214,West Farms Sq-E Tremont Av,-73.880049,40.840295,2542.404098028522
12:15:30,1,215,174 St,-73.887734,40.837288,2412.3178911319706
12:15:30,1,216,Freeman St,-73.891865,40.829993,2292.4802842943636
12:15:30,1,217,Simpson St,-73.893064,40.824073,2182.09892836216
12:15:30,1,218,Intervale Av,-73.896736,40.822181,2109.175199548601
12:15:30,1,219,Prospect Av,-73.90177,40.819585,2023.2938436163977
12:15:30,1,220,Jackson Av,-73.907807,40.81649,1931.235020086986
12:15:30,1,221,3 Av-149 St,-73.917757,40.816109,1809.1071491985945
12:15:30,1,222,149 St-Grand Concourse,-73.926718,40.81841,1683.6101432105704
12:15:30,1,224,135 St,-73.94077,40.814229,2102.5773748559373
12:00:30,1,225,125 St,-73.945495,40.807754,2129.5189592329402
12:00:30,1,226,116 St,-73.949625,40.802098,2031.409132643345
12:00:30,1,227,Central Park North (110 St),-73.951822,40.799075,1954.7900850242972
12:05:30,1,228,Park Place,-74.008811,40.713051,1882.0785591214685
12:05:30,1,229,Fulton St,-74.006571,40.709416,1989.675417760212
12:05:30,1,230,Wall St,-74.0091,40.706821,2062.7853654041915
12:05:30,1,231,Clark St,-73.993086,40.697466,2250.374870831828
12:05:30,1,232,Borough Hall,-73.989998,40.693219,2362.671167128124
12:05:30,1,233,Hoyt St,-73.985065,40.690545,2332.054114463287
12:05:30,1,234,Nevins St,-73.980492,40.688246,2207.5401667930105
12:05:30,1,235,Atlantic Av-Barclays Ctr,-73.977666,40.684359,2297.717944570788
12:05:30,1,236,Bergen St,-73.975098,40.680829,2407.558414192517
12:05:30,1,237,Grand Army Plaza,-73.971046,40.675235,2514.9011663187734
12:05:30,1,238,Eastern Pkwy-Brooklyn Museum,-73.964375,40.671987,2624.0313033050747
12:05:30,1,239,Franklin Av-Medgar Evers College,-73.958131,40.670682,2591.4127567457076
12:05:30,1,241,President St-Medgar Evers College,-73.950683,40.667883,2762.7204490534
12:05:30,1,242,Sterling St,-73.95085,40.662742,2853.191602899554
12:05:30,1,243,Winthrop St,-73.9502,40.656652,2938.3439838519344
12:05:30,1,244,Church Av,-73.949575,40.650843,3020.1962565792073
12:05:30,1,245,Beverly Rd,-73.948959,40.645098,3101.6302188433583
12:05:30,1,246,Newkirk Av-Little Haiti,-73.948411,40.639967,3187.630218843358
12:05:30,1,247,Flatbush Av-Brooklyn College,-73.947642,40.632836,3304.967060948621
12:05:30,1,248,Nostrand Av,-73.950466,40.669847,2725.9387632842386
12:05:30,1,249,Kingston Av,-73.942161,40.669399,2811.5637632842386
12:25:30,1,250,Crown Hts-Utica Av,-73.932942,40.668897,2840.0920950441314
12:05:30,1,251,Sutter Av-Rutland Rd,-73.92261,40.664717,2972.5377567457076
12:05:30,1,252,Saratoga Av,-73.916327,40.661453,2878.2159189591903
12:05:30,1,253,Rockaway Av,-73.908946,40.662549,2789.274742488602
12:05:30,1,254,Junius St,-73.902447,40.663515,2707.4316052337
12:00:30,4,255,Pennsylvania Av,-73.894895,40.664635,2804.6472915082095
12:00:30,4,256,Van Siclen Av,-73.889395,40.665449,2879.1570954297786
12:00:30,4,257,New Lots Av,-73.884079,40.666235,2949.9316052337
12:00:30,1,301,Harlem-148 St,-73.93647,40.82388,2485.5862597071973
12:00:30,1,302,145 St,-73.936245,40.820421,2371.2020491808817
12:20:30,1,401,Woodlawn,-73.878751,40.886037,2936.742861106476
12:20:30,1,402,Mosholu Pkwy,-73.884655,40.87975,2815.170173881806
12:20:30,1,405,Bedford Park Blvd-Lehman College,-73.890064,40.873412,2677.527932502496
12:20:30,1,406,Kingsbridge Rd,-73.897174,40.86776,2566.0386621162297
12:20:30,1,407,Fordham Rd,-73.901034,40.862803,2481.526367034263
12:20:30,1,408,183 St,-73.903879,40.858407,2401.7182037689563
12:20:30,1,409,Burnside Av,-73.907684,40.853453,2306.3198635199938
12:20:30,1,410,176 St,-73.911794,40.84848,2217.8343863415703
12:20:30,1,411,Mt Eden Av,-73.914685,40.844434,2140.1236425399175
12:20:30,1,412,170 St,-73.917791,40.840075,2060.582320225868
12:20:30,1,413,167 St,-73.9214,40.835537,1972.673606532922
12:20:30,1,414,161 St-Yankee Stadium,-73.925831,40.827994,1856.35592116628
12:20:30,1,415,149 St-Grand Concourse,-73.927351,40.818375,1626.4109211662799
12:20:30,1,416,138 St-Grand Concourse,-73.929849,40.813224,1518.604119114185
12:05:30,1,418,Fulton St,-74.009509,40.710368,1653.4382956664695
12:05:30,1,419,Wall St,-74.011862,40.707557,1732.8271845553586
12:05:30,1,420,Bowling Green,-74.014065,40.704817,1807.9168397277722
12:05:30,1,423,Borough Hall,-73.990151,40.692404,2075.9902342231853
12:15:30,1,501,Eastchester-Dyre Av,-73.830834,40.8883,3362.8241485919243
12:15:30,1,502,Baychester Av,-73.838591,40.878663,3232.4615112292868
12:15:30,1,503,Gun Hill Rd,-73.846384,40.869526,3073.692694024986
12:15:30,1,504,Pelham Pkwy,-73.855359,40.858985,2916.3339983728124
12:15:30,1,505,Morris Park,-73.860495,40.854364,2828.6526796914936
13:40:30,1,601,Pelham Bay Park,-73.828121,40.852462,3161.4011732298854
13:40:30,1,602,Buhre Av,-73.832569,40.84681,2977.974222875276
13:40:30,1,603,Middletown Rd,-73.836322,40.843863,2869.1408895419427
13:40:30,1,604,Westchester Sq-E Tremont Av,-73.842952,40.839892,2724.3908895419427
13:40:30,1,606,Zerega Av,-73.847036,40.836488,2626.307556208609
13:40:30,1,607,Castle Hill Av,-73.851222,40.834255,2558.9742228752757
13:00:30,1,608,Parkchester,-73.860816,40.833226,2402.9742228752757
13:00:30,1,609,St Lawrence Av,-73.867618,40.831509,2640.911589359395
13:00:30,1,610,Morrison Av-Soundview,-73.874516,40.829521,2555.8438602757296
13:00:30,1,611,Elder Av,-73.879159,40.828584,2490.6798602757294
13:00:30,1,612,Whitlock Av,-73.886283,40.826525,2384.3398602757293
13:00:30,1,613,Hunts Point Av,-73.890549,40.820948,2146.5896074906605
12:20:30,1,614,Longwood Av,-73.896435,40.816104,2219.4578254793296
12:20:30,1,615,E 149 St,-73.904098,40.812118,2118.3494921459965
12:20:30,1,616,E 143 St-St Mary's St,-73.907657,40.808719,2043.5071684945444
12:20:30,1,617,Cypress Av,-73.914042,40.805368,1944.5866664024943
12:20:30,1,618,Brook Av,-73.91924,40.807566,1875.0278428730826
12:20:30,1,619,3 Av-138 St,-73.926138,40.810476,1767.5126844137376
12:20:30,1,621,125 St,-73.937594,40.804138,1365.8064767218355
12:15:30,1,622,116 St,-73.941617,40.798629,1470.3905709883093
12:05:30,1,623,110 St,-73.94425,40.79502,1383.5675257208195
12:05:30,1,624,103 St,-73.947478,40.7906,1308.3466923874862
12:05:30,1,625,96 St,-73.95107,40.785672,1213.9898459144572
12:20:30,1,626,86 St,-73.955589,40.779492,1064.7846426607
12:05:30,1,627,77 St,-73.959874,40.77362,1006.6371488190213
12:05:30,1,628,68 St-Hunter College,-73.96387,40.768141,916.7631992391894
12:05:30,1,629,59 St,-73.967967,40.762526,825.5269701280228
12:05:30,1,630,51 St,-73.97192,40.757107,921.1936367946895
12:05:30,1,631,Grand Central-42 St,-73.976848,40.751776,1005.5269701280226
12:05:30,1,632,33 St,-73.982076,40.746081,1127.4258818262347
12:05:30,1,633,28 St,-73.984264,40.74307,1194.2815519293274
12:05:30,1,634,23 St,-73.986599,40.739864,1257.53411165629
12:05:30,1,635,14 St-Union Sq,-73.989951,40.734673,1266.5937117551582
12:05:30,1,636,Astor Pl,-73.99107,40.730054,1471.8365171545718
12:05:30,1,637,Bleecker St,-73.994659,40.725915,1562.5532407040596
12:05:30,1,638,Spring St,-73.997141,40.722301,1631.7029005680054
12:05:30,1,639,Canal St,-74.000193,40.718803,1705.4799275950324
12:05:30,1,640,Brooklyn Bridge-City Hall,-74.004131,40.713065,1544.2369067775805
12:00:30,1,701,Flushing-Main St,-73.83003,40.7596,1509.0887060938603
12:00:30,1,702,Mets-Willets Point,-73.845625,40.754622,1314.53781113404
12:00:30,1,705,111 St,-73.855334,40.75173,1331.3542958025691
12:00:30,1,706,103 St-Corona Plaza,-73.8627,40.749865,1237.7282873245165
12:00:30,1,707,Junction Blvd,-73.869527,40.749145,1067.3949539911832
12:00:30,1,708,90 St-Elmhurst Av,-73.876613,40.748408,1143.5239147311133
12:00:30,1,709,82 St-Jackson Hts,-73.883697,40.747659,1064.1436330409724
12:00:30,1,710,74 St-Broadway,-73.891394,40.746848,921.8953337212445
12:00:30,1,711,69 St,-73.896403,40.746325,874.4835690153621
12:00:30,1,712,61 St-Woodside,-73.902984,40.74563,802.5751183111367
12:00:30,1,713,52 St,-73.912549,40.744149,699.5218294372618
12:00:30,1,714,46 St-Bliss St,-73.918435,40.743132,645.8282361224985
12:00:30,1,715,40 St-Lowery St,-73.924016,40.743781,594.4577625848941
12:00:30,1,716,33 St-Rawson St,-73.930997,40.744587,526.177507807824
12:00:30,1,718,Queensboro Plaza,-73.940202,40.750582,383.70264747262854
12:00:30,1,719,Court Sq,-73.945264,40.747023,477.39495399118323
12:00:30,1,720,Hunters Point Av,-73.948916,40.742216,563.3949539911831
12:00:30,1,721,Vernon Blvd-Jackson Av,-73.953581,40.742626,591.3949539911832
12:00:30,1,723,Grand Central-42 St,-73.976041,40.751431,794.3949539911831
12:00:30,1,724,5 Av,-73.981963,40.753821,931.7123588201628
12:00:30,1,725,Times Sq-42 St,-73.987691,40.755477,1004.3998588201628
12:00:30,1,726,34 St-Hudson Yards,-74.00191,40.755882,1155.369967515815
12:00:30,1,901,Grand Central-42 St,-73.979189,40.752769,1016.3226740064091
12:00:30,2,902,Times Sq-42 St,-73.986229,40.755983,1110.7626740064093
12:30:30,1,A02,Inwood-207 St,-73.919899,40.868072,2978.166522424089
12:30:30,1,A03,Dyckman St,-73.927271,40.865491,2888.0935297233596
12:30:30,1,A05,190 St,-73.93418,40.859022,2764.5011384190116
12:30:30,1,A06,181 St,-73.937969,40.851695,2651.2658443013643
12:30:30,1,A07,175 St,-73.939704,40.847391,2554.5454141938376
12:10:30,1,A09,168 St,-73.939561,40.840719,2427.1069115200407
12:35:30,0,A10,163 St-Amsterdam Av,-73.939892,40.836013,2413.653169808897
12:35:30,0,A11,155 St,-73.941514,40.830518,2327.674446404642
12:10:30,1,A12,145 St,-73.944216,40.824783,2182.2299061724475
12:05:30,1,A14,135 St,-73.947649,40.817894,2104.0657097179283
12:35:30,0,A15,125 St,-73.952343,40.811109,1933.7241796936498
12:00:30,1,A16,116 St,-73.954882,40.805085,2057.559761924352
12:00:30,1,A17,Cathedral Pkwy (110 St),-73.958161,40.800603,2024.5211800988332
12:00:30,1,A18,103 St,-73.961454,40.796092,1950.6081366205722
12:00:30,1,A19,96 St,-73.964696,40.791642,1862.076221726955
12:00:30,1,A20,86 St,-73.968916,40.785868,1767.09796085739
12:00:30,1,A21,81 St-Museum of Natural History,-73.972143,40.781433,1675.2979608573899
12:00:30,1,A22,72 St,-73.97641,40.775594,1584.689265205216
12:00:30,1,A24,59 St-Columbus Circle,-73.981736,40.768296,1443.834511128034
12:00:30,1,A25,50 St,-73.985984,40.762456,1345.7747320887
13:25:30,1,A27,42 St-Port Authority Bus Terminal,-73.989735,40.757308,1242.364144432269
12:05:30,1,A28,34 St-Penn Station,-73.993391,40.752287,1354.3928525662404
12:05:30,1,A30,23 St,-73.998041,40.745906,1478.2414245632083
13:35:30,1,A31,14 St,-74.00169,40.740893,1520.2699659376824
13:35:30,1,A32,W 4 St-Wash Sq,-74.000495,40.732338,1644.672139850726
13:35:30,1,A33,Spring St,-74.003739,40.726227,1758.7097561997316
13:35:30,1,A34,Canal St,-74.005229,40.720824,1820.4229103722919
12:00:30,2,A36,Chambers St,-74.008585,40.714111,1933.4670280193504
12:00:30,2,A38,Fulton St,-74.007691,40.710197,1876.3693290393485
13:05:30,2,A40,High St,-73.990531,40.699337,2059.943242082827
12:05:30,2,A41,Jay St-MetroTech,-73.987342,40.692338,2184.4301986045657
12:00:30,2,A42,Hoyt-Schermerhorn Sts,-73.985001,40.688484,1857.0736950592816
12:10:30,2,A43,Lafayette Av,-73.973946,40.686113,2216.3508572672476
12:10:30,2,A44,Clinton-Washington Avs,-73.965838,40.683263,2301.0144936308843
12:10:30,2,A45,Franklin Av,-73.956848,40.68138,2407.1394936308843
12:05:30,2,A46,Nostrand Av,-73.950426,40.680438,2382.9704933424705
12:05:30,2,A47,Kingston-Throop Avs,-73.940858,40.679921,2483.324660009137
12:05:30,2,A48,Utica Av,-73.930729,40.679364,2553.790718061572
12:05:30,2,A49,Ralph Av,-73.920786,40.678822,2562.1361876368383
12:05:30,2,A50,Rockaway Av,-73.911946,40.67834,2463.689906645103
12:05:30,2,A51,Broadway Junction,-73.905316,40.678334,2379.5915459893654
12:05:30,2,A52,Liberty Av,-73.896548,40.674542,2513.550895582861
12:05:30,2,A53,Van Siclen Av,-73.890358,40.67271,2608.7297573714786
12:05:30,2,A54,Shepherd Av,-73.88075,40.67413,2712.8029281031863
12:05:30,2,A55,Euclid Av,-73.872106,40.675377,2679.9031738963417
12:05:30,2,A57,Grant Av,-73.86505,40.677044,2802.08574651045
12:05:30,2,A59,80 St,-73.858992,40.679371,2899.43774651045
12:05:30,2,A60,88 St,-73.85147,40.679843,2995.397905873
12:05:30,2,A61,Rockaway Blvd,-73.843853,40.680429,3085.743143968238
12:30:30,1,A63,104 St,-73.837683,40.681711,3169.415143968238
12:30:30,1,A64,111 St,-73.832163,40.684331,3255.5462915092216
12:30:30,1,A65,Ozone Park-Lefferts Blvd,-73.825798,40.685951,3344.609582648462
12:30:30,0,B04,21 St-Queensbridge,-73.942836,40.754203,1192.297392495532
12:50:30,1,B06,Roosevelt Island,-73.95326,40.759145,1045.6767028403597
12:10:30,0,B08,Lexington Av/63 St,-73.966113,40.764629,837.8878226506936
12:00:30,1,B10,57 St,-73.97745,40.763972,1125.5269701280226
12:00:30,0,B12,9 Av,-73.994324,40.646292,2972.5316846937835
12:00:30,0,B13,Fort Hamilton Pkwy,-73.994304,40.640914,3074.571845482529
12:00:30,0,B14,50 St,-73.994791,40.63626,3153.597323189536
12:00:30,0,B15,55 St,-73.995476,40.631435,3253.3552849729754
12:00:30,0,B16,62 St,-73.996895,40.626472,3319.3273129450035
12:00:30,0,B17,71 St,-73.998864,40.619589,3421.817758804876
12:00:30,0,B18,79 St,-74.00061,40.613501,3528.3782683590166
12:00:30,0,B19,18 Av,-74.001736,40.607954,3609.9718167461133
12:00:30,0,B20,20 Av,-73.998168,40.604556,3691.9653232396195
12:00:30,0,B21,Bay Pkwy,-73.993728,40.601875,3769.510777785074
13:30:30,0,B22,25 Av,-73.986829,40.597704,3888.6204552044287
13:30:30,0,B23,Bay 50 St,-73.983765,40.588841,4087.1918837758576
12:00:30,2,D01,Norwood-205 St,-73.878855,40.874811,3080.290238297202
12:00:30,2,D03,Bedford Park Blvd,-73.887138,40.873244,2908.8037518107158
12:00:30,2,D04,Kingsbridge Rd,-73.893509,40.866978,2791.6475018107158
12:00:30,2,D05,Fordham Rd,-73.897749,40.861296,2697.116033279247
12:00:30,2,D06,182-183 Sts,-73.900741,40.856093,2610.182126478084
13:30:30,2,D07,Tremont Av,-73.905227,40.85041,2532.0670822302964
13:30:30,2,D08,174-175 Sts,-73.910136,40.8459,2437.77397878202
13:30:30,2,D09,170 St,-73.9134,40.839306,2329.14150373019
13:30:30,2,D10,167 St,-73.91844,40.833771,2221.7172613059474
13:30:30,2,D11,161 St-Yankee Stadium,-73.925651,40.827905,2089.67779063334
12:35:30,2,D12,155 St,-73.938209,40.830135,2214.406185695069
12:05:30,1,D13,145 St,-73.944216,40.824783,2169.125414261551
12:00:30,1,D14,7 Av,-73.981637,40.762862,1251.784166050964
12:00:30,1,D15,47-50 Sts-Rockefeller Ctr,-73.981329,40.758663,1215.5269701280226
12:00:30,1,D16,42 St-Bryant Pk,-73.984569,40.754222,1156.7123588201625
12:00:30,1,D17,34 St-Herald Sq,-73.987823,40.749719,1233.488059754742
12:00:30,1,D18,23 St,-73.992821,40.742878,1344.2298437923007
12:00:30,1,D19,14 St,-73.996209,40.738228,1420.8459575363765
12:00:30,1,D20,W 4 St-Wash Sq,-74.000495,40.732338,1415.4992033500669
12:15:30,1,D21,Broadway-Lafayette St,-73.996204,40.725297,1558.1297765984746
12:05:30,2,D22,Grand St,-73.993753,40.718267,1694.7398394915565
12:15:30,0,D24,Atlantic Av-Barclays Ctr,-73.97689,40.68446,2334.2409533061655
12:15:30,0,D25,7 Av,-73.972367,40.67705,2466.6045896698015
12:15:30,0,D26,Prospect Park,-73.962246,40.661614,2646.3545896698015
12:15:30,0,D27,Parkside Av,-73.961495,40.655292,2807.9168716204144
12:15:30,0,D28,Church Av,-73.962982,40.650527,2777.871443602386
12:15:30,0,D29,Beverley Rd,-73.964492,40.644031,2884.7431712120206
12:15:30,0,D30,Cortelyou Rd,-73.963891,40.640927,2962.9387019382775
12:15:30,0,D31,Newkirk Plaza,-73.962793,40.635082,2957.4269991579417
12:15:30,0,D32,Avenue H,-73.961639,40.62927,3074.2501056349206
12:15:30,0,D33,Avenue J,-73.960803,40.625039,3161.5707475684844
12:15:30,0,D34,Avenue M,-73.959399,40.617618,3265.688696286433
12:15:30,0,D35,Kings Hwy,-73.957734,40.60867,3205.5825547134973
12:05:30,0,D37,Avenue U,-73.955929,40.5993,3419.051942468599
12:05:30,0,D38,Neck Rd,-73.955161,40.595246,3518.588024942826
12:15:30,0,D39,Sheepshead Bay,-73.954155,40.586896,3441.949221380164
12:05:30,0,D40,Brighton Beach,-73.961376,40.577621,3578.4908880468306
12:05:30,0,D41,Ocean Pkwy,-73.968501,40.576312,3711.501880705375
12:05:30,0,D42,W 8 St-NY Aquarium,-73.975939,40.576127,3825.9534936086006
12:05:30,0,D43,Coney Island-Stillwell Av,-73.981233,40.577422,3905.909049164156
13:50:30,1,E01,World Trade Center,-74.009781,40.712582,1997.1271744076196
12:35:30,0,F01,Jamaica-179 St,-73.783817,40.712646,2166.9446753769566
12:30:30,0,F02,169 St,-73.793604,40.71047,2116.6971218264
12:10:30,0,F03,Parsons Blvd,-73.803326,40.707564,1999.8018182340995
12:10:30,0,F04,Sutphin Blvd,-73.810708,40.70546,2002.8527822037577
12:10:30,0,F05,Briarwood,-73.820574,40.709179,1882.852782203758
12:00:30,0,F06,Kew Gardens-Union Tpke,-73.831008,40.714441,1762.852782203758
12:10:30,0,F07,75 Av,-73.837324,40.718331,1652.6404739688787
13:50:30,0,F09,Court Sq-23 St,-73.946,40.747846,835.0872600329008
12:10:30,2,F11,Lexington Av/53 St,-73.969055,40.757552,1039.9115843572251
12:10:30,2,F12,5 Av/53 St,-73.975224,40.760167,1140.1500560319996
12:15:30,1,F14,2 Av,-73.989938,40.723402,1787.6625210685127
12:15:30,1,F15,Delancey St-Essex St,-73.988114,40.718611,1884.1506727272804
12:15:30,1,F16,East Broadway,-73.990173,40.713715,1965.8731607655582
12:15:30,1,F18,York St,-73.986751,40.701397,2119.9541131465103
12:10:30,2,F20,Bergen St,-73.990862,40.686145,1988.3886121863534
12:10:30,2,F21,Carroll St,-73.995048,40.680303,2083.532258595193
12:10:30,2,F22,Smith-9 Sts,-73.995959,40.67358,2221.1020909974277
12:10:30,2,F23,4 Av-9 St,-73.989779,40.670272,2307.72431321965
12:00:30,2,F24,7 Av,-73.980305,40.666271,2425.6576465529834
12:00:30,2,F25,15 St-Prospect Park,-73.979493,40.660365,2545.402090997428
12:00:30,2,F26,Fort Hamilton Pkwy,-73.975776,40.650782,2707.061308874523
12:00:30,2,F27,Church Av,-73.979678,40.644041,2713.156118846201
12:15:30,1,F29,Ditmas Av,-73.978172,40.636119,2833.822785512868
12:15:30,1,F30,18 Av,-73.976971,40.629755,2953.822785512868
12:15:30,1,F31,Avenue I,-73.976127,40.625322,3013.822785512868
12:15:30,1,F32,Bay Pkwy,-73.975264,40.620769,3073.822785512868
12:15:30,1,F33,Avenue N,-73.974197,40.61514,3193.822785512868
12:15:30,1,F34,Avenue P,-73.973022,40.608944,3283.822785512868
12:15:30,1,F35,Kings Hwy,-73.972361,40.603217,3436.489452179534
12:15:30,1,F36,Avenue U,-73.973357,40.596063,3553.1561188462006
12:45:30,0,F38,Avenue X,-73.97425,40.58962,3614.8227855128675
12:45:30,0,F39,Neptune Av,-73.974574,40.581011,3754.8227855128675
12:00:30,0,G05,Jamaica Center-Parsons/Archer,-73.801109,40.702147,2230.616996112537
12:00:30,0,G06,Sutphin Blvd-Archer Av-JFK Airport,-73.807969,40.700486,2139.33207991142
12:00:30,0,G07,Jamaica-Van Wyck,-73.816859,40.702566,2019.9802280595682
12:00:30,0,G08,Forest Hills-71 Av,-73.844521,40.721691,1550.5194488704246
13:20:30,0,G09,67 Av,-73.852719,40.726523,1621.247566610292
13:20:30,0,G10,63 Dr-Rego Park,-73.861604,40.729846,1530.1103117083312
13:20:30,0,G11,Woodhaven Blvd,-73.869229,40.733106,1439.1683762244604
13:20:30,0,G12,Grand Av-Newtown,-73.877223,40.737015,1342.852782203758
13:20:30,0,G13,Elmhurst Av,-73.882017,40.742454,1242.4279456024508
12:00:30,0,G14,Jackson Hts-Roosevelt Av,-73.891338,40.746644,1132.852782203758
12:00:30,0,G15,65 St,-73.898453,40.749669,1214.0488606351305
12:00:30,0,G16,Northern Blvd,-73.906006,40.752885,1309.963893314869
12:00:30,0,G18,46 St,-73.913333,40.756312,1337.249501396426
12:00:30,0,G19,Steinway St,-73.92074,40.756879,1217.249501396426
12:00:30,0,G20,36 St,-73.928781,40.752039,1097.249501396426
12:15:30,2,G21,Queens Plaza,-73.937243,40.748973,960.7623009299589
12:30:30,2,G22,Court Sq,-73.943832,40.746554,657.3949539911832
12:00:30,2,G24,21 St,-73.949724,40.744065,746.70793109042
12:00:30,2,G26,Greenpoint Av,-73.954449,40.731352,888.104380794562
12:00:30,2,G28,Nassau Av,-73.951277,40.724635,995.023921024447
12:00:30,2,G29,Metropolitan Av,-73.951418,40.712792,1133.6849379735995
12:00:30,2,G30,Broadway,-73.950308,40.706092,1219.4633470645085
12:00:30,2,G31,Flushing Av,-73.950234,40.700377,1311.912210700872
12:00:30,2,G32,Myrtle-Willoughby Avs,-73.949046,40.694568,1398.0826652463268
12:00:30,2,G33,Bedford-Nostrand Avs,-73.953522,40.689627,1499.7076652463268
12:00:30,2,G34,Classon Av,-73.96007,40.688873,1576.7021403844483
12:00:30,2,G35,Clinton-Washington Avs,-73.966839,40.688089,1657.7950365593117
12:00:30,2,G36,Fulton St,-73.975375,40.687119,1750.0791895647762
12:20:30,2,H01,Aqueduct Racetrack,-73.834058,40.668234,3291.774889999984
12:05:30,2,H02,Aqueduct-N Conduit Av,-73.834058,40.668234,3364.843942939559
12:05:30,2,H03,Howard Beach-JFK Airport,-73.830301,40.660476,3462.963778888873
12:05:30,2,H04,Broad Channel,-73.815925,40.608382,3880.915391792099
12:05:30,2,H06,Beach 67 St,-73.796924,40.590927,4192.204865476309
12:05:30,2,H07,Beach 60 St,-73.788522,40.592374,4295.652233897363
12:05:30,2,H08,Beach 44 St,-73.776013,40.592943,4399.134690037714
12:05:30,2,H09,Beach 36 St,-73.768175,40.595398,4496.380304072802
12:05:30,2,H10,Beach 25 St,-73.761353,40.600066,4596.760835046252
12:05:30,2,H11,Far Rockaway-Mott Av,-73.755405,40.603995,4695.927501712919
12:05:30,2,H12,Beach 90 St,-73.813641,40.588034,4132.215391792099
12:05:30,2,H13,Beach 98 St,-73.820558,40.585307,4210.615391792099
12:05:30,2,H14,Beach 105 St,-73.827559,40.583209,4286.7265029032105
12:05:30,2,H15,Rockaway Park-Beach 116 St,-73.835592,40.580903,4390.92650290321
12:00:30,0,J12,121 St,-73.828294,40.700492,2537.83207991142
12:00:30,0,J13,111 St,-73.836345,40.697418,2587.847234749982
12:00:30,0,J14,104 St,-73.84433,40.695178,2707.847234749982
12:00:30,0,J15,Woodhaven Blvd,-73.851576,40.693879,2797.847234749982
12:00:30,0,J16,85 St-Forest Pkwy,-73.86001,40.692435,3093.5290534736605
12:00:30,0,J17,75 St-Elderts Ln,-73.867139,40.691324,2919.5915459893654
12:00:30,0,J19,Cypress Hills,-73.87255,40.689941,2901.5726883492675
12:00:30,0,J20,Crescent St,-73.873785,40.683194,2769.5915459893654
12:00:30,2,J21,Norwood Av,-73.880039,40.68141,2679.5915459893654
12:00:30,2,J22,Cleveland St,-73.884639,40.679947,2684.7710664091846
12:50:30,2,J23,Van Siclen Av,-73.891688,40.678024,2529.5915459893654
12:50:30,2,J24,Alabama Av,-73.898654,40.676992,2469.5915459893654
12:05:30,1,J27,Broadway Junction,-73.904512,40.679498,2366.2731587193916
12:00:30,4,J28,Chauncey St,-73.910456,40.682893,2439.5915459893654
12:05:30,1,J29,Halsey St,-73.916559,40.68637,2561.9367840846035
12:05:30,1,J30,Gates Av,-73.92227,40.68963,2589.5915459893654
12:05:30,1,J31,Kosciuszko St,-73.928814,40.693342,2556.985023543025
12:00:30,1,L01,8 Av,-74.002578,40.739777,1665.9473631828976
12:00:30,1,L02,6 Av,-73.996786,40.737335,1556.8528881826912
12:00:30,1,L03,14 St-Union Sq,-73.99073,40.734789,1480.5547515367286
12:00:30,1,L05,3 Av,-73.986122,40.732849,1545.1134082516353
12:00:30,1,L06,1 Av,-73.981628,40.730953,1585.9433643731677
12:00:30,1,L08,Bedford Av,-73.956872,40.717304,1476.3267206560245
12:00:30,3,L10,Lorimer St,-73.950275,40.714063,1401.6579103666354
12:00:30,3,L11,Graham Av,-73.944053,40.714565,1436.42235481108
12:00:30,3,L12,Grand St,-73.94067,40.711926,1516.1675777410162
12:00:30,3,L13,Montrose Av,-73.93985,40.707739,1552.1895903196325
12:00:30,3,L14,Morgan Av,-73.933147,40.706152,1625.3841021884755
12:00:30,3,L15,Jefferson St,-73.922913,40.706607,1709.2657589932091
12:00:30,3,L16,DeKalb Av,-73.918425,40.703811,1774.9675662221246
12:00:30,3,L17,Myrtle-Wyckoff Avs,-73.911586,40.699814,1845.9766296662333
12:00:30,3,L19,Halsey St,-73.904084,40.695602,1890.0406027302065
12:00:30,3,L20,Wilson Av,-73.904046,40.688764,2007.018997791935
12:00:30,3,L21,Bushwick Av-Aberdeen St,-73.905249,40.682829,2091.3558033474906
12:00:30,3,L22,Broadway Junction,-73.90324,40.678856,2141.2731587193916
12:00:30,3,L24,Atlantic Av,-73.903097,40.675345,2249.350319213219
12:00:30,3,L25,Sutter Av,-73.901975,40.669367,2319.7226269055263
12:00:30,3,L26,Livonia Av,-73.900571,40.664038,2377.4316052337
12:00:30,3,L27,New Lots Av,-73.899232,40.658733,2426.5316052337
12:00:30,3,L28,East 105 St,-73.899485,40.650573,2523.2580203280395
12:00:30,3,L29,Canarsie-Rockaway Pkwy,-73.90185,40.646654,2648.3222095172287
12:00:30,4,M01,Middle Village-Metropolitan Av,-73.889601,40.711396,2471.4281912270967
12:00:30,4,M04,Fresh Pond Rd,-73.895877,40.706186,2354.1451723591726
12:00:30,4,M05,Forest Av,-73.903077,40.704423,2261.558838624012
12:00:30,4,M06,Seneca Av,-73.90774,40.702762,2167.194600213416
12:05:30,2,M08,Myrtle-Wyckoff Avs,-73.912385,40.69943,2070.9766296662333
12:00:30,4,M09,Knickerbocker Av,-73.919711,40.698664,2166.17546007559
12:05:30,2,M10,Central Av,-73.927397,40.697857,2277.1636953697075
12:05:30,2,M11,Myrtle Av,-73.935657,40.697207,2402.7250966556953
12:05:30,2,M12,Flushing Av,-73.941126,40.70026,2507.438941255383
12:05:30,2,M13,Lorimer St,-73.947408,40.703869,2437.8494753796476
12:05:30,2,M14,Hewes St,-73.953431,40.70687,2346.7568827870546
12:05:30,2,M16,Marcy Av,-73.957757,40.708359,2268.7754013055737
12:05:30,2,M18,Delancey St-Essex St,-73.987437,40.718315,1896.3954013055736
12:05:30,1,M19,Bowery,-73.993915,40.72028,1967.3202401109138
12:05:30,2,M20,Canal St,-73.999892,40.718092,1864.8202401109138
12:10:30,1,M21,Chambers St,-74.003401,40.713243,1769.2369067775805
12:15:30,2,M22,Fulton St,-74.007582,40.710374,1871.30836798404
12:15:30,2,M23,Broad St,-74.011056,40.706476,1938.0031048261449
12:00:30,0,N02,8 Av,-74.011719,40.635064,3211.681870009802
12:00:30,0,N03,Fort Hamilton Pkwy,-74.005351,40.631386,3320.781053641206
12:00:30,0,N04,New Utrecht Av,-73.996353,40.624842,3460.7810536412067
12:00:30,0,N05,18 Av,-73.990414,40.620671,3550.7810536412067
12:00:30,0,N06,20 Av,-73.985026,40.61741,3620.781053641206
12:00:30,0,N07,Bay Pkwy,-73.981848,40.611815,3710.781053641206
12:00:30,0,N08,Kings Hwy,-73.980353,40.603923,3830.781053641206
12:00:30,0,N09,Avenue U,-73.979137,40.597473,3930.7810536412067
12:00:30,0,N10,86 St,-73.97823,40.592721,3990.7810536412067
12:00:30,0,Q01,Canal St,-74.00046,40.718383,1724.3136621782683
12:25:30,1,Q03,72 St,-73.958424,40.768799,957.8878226506936
12:10:30,0,Q04,86 St,-73.951787,40.777891,1093.3878226506936
12:10:30,0,Q05,96 St,-73.947152,40.784318,1170.8878226506936
12:06:30,0,R01,Astoria-Ditmars Blvd,-73.912034,40.775036,282.49289882929963
12:06:30,0,R03,Astoria Blvd,-73.917843,40.770258,189.36677270317352
12:06:30,0,R04,30 Av,-73.921479,40.766779,90.78395061728395
12:05:30,0,R05,Broadway,-73.925508,40.76182,0.0
12:00:30,0,R06,36 Av,-73.929575,40.756804,94.84210526315789
12:00:30,0,R08,39 Av-Dutch Kills,-73.932755,40.752882,200.1621052631579
12:00:30,0,R09,Queensboro Plaza,-73.940202,40.750582,336.7026458036985
12:00:30,0,R11,Lexington Av/59 St,-73.967258,40.76266,600.5269701280228
12:00:30,0,R13,5 Av/59 St,-73.973347,40.764811,711.2353034613561
12:00:30,0,R14,57 St-7 Av,-73.980658,40.764664,853.00995134868
12:00:30,0,R15,49 St,-73.984139,40.759901,962.0385227772515
12:00:30,0,R16,Times Sq-42 St,-73.986754,40.754672,1051.2385227772515
12:00:30,0,R17,34 St-Herald Sq,-73.98795,40.749567,1172.0385227772515
12:05:30,0,R18,28 St,-73.988691,40.745494,1255.8813799201087
12:05:30,0,R19,23 St,-73.989344,40.741303,1335.3039151313765
12:00:30,0,R20,14 St-Union Sq,-73.990568,40.735736,1414.546538890597
12:05:30,0,R21,8 St-NYU,-73.992629,40.730328,1536.4576374653802
12:05:30,0,R22,Prince St,-73.997702,40.724329,1642.5862088939516
12:05:30,0,R23,Canal St,-74.001775,40.719527,1756.3433517510944
12:05:30,0,R24,City Hall,-74.006978,40.713282,1910.1227635158002
12:05:30,0,R25,Cortlandt St,-74.011029,40.710668,2037.9990921514723
12:05:30,0,R26,Rector St,-74.013342,40.70722,2138.090695204907
12:05:30,0,R27,Whitehall St-South Ferry,-74.012994,40.703087,2222.1740285382407
12:15:30,0,R28,Court St,-73.991777,40.6941,2315.2549405964
12:15:30,0,R29,Jay St-MetroTech,-73.985942,40.69218,2319.4301986045657
12:15:30,0,R30,DeKalb Av,-73.981824,40.690635,2139.8436480091787
12:00:30,0,R31,Atlantic Av-Barclays Ctr,-73.97881,40.683666,2295.3580319991725
12:00:30,0,R32,Union St,-73.98311,40.677316,2413.478209610402
12:00:30,0,R33,4 Av-9 St,-73.988302,40.670847,2522.60978855777
12:00:30,0,R34,Prospect Av,-73.992872,40.665414,2614.72431321965
12:00:30,0,R35,25 St,-73.998091,40.660397,2692.72431321965
12:00:30,0,R36,36 St,-74.003549,40.655144,2680.2203074482745
12:00:30,0,R39,45 St,-74.010006,40.648939,2918.610872729155
12:30:30,0,R40,53 St,-74.014034,40.645069,3007.835362525073
12:00:30,0,R41,59 St,-74.017881,40.641362,3044.4060079408364
12:00:30,0,R42,Bay Ridge Av,-74.023377,40.634967,3205.2160092370336
12:00:30,0,R43,77 St,-74.02551,40.629742,3285.488736509761
12:00:30,0,R44,86 St,-74.028398,40.622687,3461.839926985951
12:10:30,0,R45,Bay Ridge-95 St,-74.030876,40.616622,3538.8556750174475
12:05:30,0,S01,Franklin Av,-73.955827,40.680596,2587.1394936308843
12:05:30,0,S03,Park Pl,-73.957624,40.674772,2710.0144936308843
12:05:30,0,S04,Botanic Garden,-73.959245,40.670343,2816.4127567457076
