start_time,ntransfers,stop_id,stop_name,stop_lon,stop_lat,duration
12:21:30,1,101,Van Cortlandt Park-242 St,-73.898583,40.889248,2751.429165066731
12:21:30,1,103,238 St,-73.90087,40.884667,2625.61835425592
12:21:30,1,104,231 St,-73.904834,40.878856,2521.9860672604045
12:21:30,1,106,Marble Hill-225 St,-73.909831,40.874561,2424.5040852784227
12:21:30,1,107,215 St,-73.915279,40.869444,2335.71129248563
12:21:30,1,108,207 St,-73.918822,40.864621,2245.988348762686
12:21:30,1,109,Dyckman St,-73.925536,40.860531,2145.6755734322896
12:21:30,1,110,191 St,-73.929412,40.855225,2061.830745846083
12:21:30,1,111,181 St,-73.933596,40.849505,1970.8007029276282
12:21:30,1,112,168 St-Washington Hts,-73.940133,40.840556,1851.598986189431
12:21:30,1,113,157 St,-73.94489,40.834041,1752.2800206721895
12:21:30,1,114,145 St,-73.95036,40.826551,1635.0268017880692
12:21:30,1,115,137 St-City College,-73.953676,40.822008,1534.1507334120008
12:21:30,1,116,125 St,-73.958372,40.815581,1438.8257334120008
12:21:30,1,117,116 St-Columbia University,-73.96411,40.807722,1324.596566745334
12:21:30,1,118,Cathedral Pkwy (110 St),-73.966847,40.803967,1245.6420212907888
12:21:30,1,119,103 St,-73.968379,40.799446,1166.1133327661985
12:30:00,1,120,96 St,-73.972323,40.793919,895.950920675486
12:13:30,1,121,86 St,-73.976218,40.788644,955.711693421936
12:13:30,1,122,79 St,-73.979917,40.783934,878.8377096820988
12:30:00,1,123,72 St,-73.98197,40.778453,716.4164379168653
12:00:00,1,124,66 St-Lincoln Center,-73.982209,40.77344,793.5375180838266
12:00:00,1,125,59 St-Columbus Circle,-73.981929,40.768247,716.1892034770851
12:00:00,1,126,50 St,-73.983849,40.761728,612.5200305447543
12:33:30,1,127,Times Sq-42 St,-73.987495,40.75529,480.3291495774922
12:17:30,1,128,34 St-Penn Station,-73.991057,40.750373,577.2558511481728
12:03:30,1,129,28 St,-73.993365,40.747215,661.8683892616306
12:03:30,1,130,23 St,-73.995657,40.744081,643.0240793174361
12:03:30,1,131,18 St,-73.997871,40.74104,574.8460490144058
12:17:30,1,132,14 St,-74.000201,40.737826,500.2591764275332
12:17:30,1,133,Christopher St-Sheridan Sq,-74.002906,40.733422,590.9813986497554
12:17:30,1,134,Houston St,-74.005367,40.728251,676.8623510307078
12:17:30,1,135,Canal St,-74.006277,40.722854,771.7232055381139
12:03:30,1,136,Franklin St,-74.006886,40.719318,835.8930223450149
12:03:30,1,137,Chambers St,-74.009266,40.715478,774.246189414546
12:03:30,1,138,WTC Cortlandt,-74.012188,40.711835,985.8058247129255
12:03:30,1,139,Rector St,-74.013783,40.707513,1062.3159461704154
12:03:30,1,142,South Ferry,-74.013664,40.702068,964.0123095188393
12:17:30,1,201,Wakefield-241 St,-73.85062,40.903125,3542.5838181020895
12:17:30,1,204,Nereid Av,-73.854376,40.898379,3245.568004740125
12:17:30,1,205,233 St,-73.857473,40.893193,3155.568004740125
12:17:30,1,206,225 St,-73.860341,40.888022,3065.568004740125
12:17:30,1,207,219 St,-73.862633,40.883895,2975.568004740125
12:17:30,1,208,Gun Hill Rd,-73.866256,40.87785,2870.568004740125
12:17:30,1,209,Burke Av,-73.867164,40.871356,2861.414374779823
12:17:30,1,210,Allerton Av,-73.867352,40.865462,2769.2839399972145
12:17:30,1,211,Pelham Pkwy,-73.867615,40.857192,2664.936113910258
12:17:30,1,212,Bronx Park East,-73.868457,40.848828,2540.110026953736
12:57:00,1,213,E 180 St,-73.873488,40.841894,2329.805679127649
12:57:00,1,214,West Farms Sq-E Tremont Av,-73.880049,40.840295,2276.9341378195068
12:57:00,1,215,174 St,-73.887734,40.837288,2146.8479309229547
12:57:00,1,216,Freeman St,-73.891865,40.829993,2027.010324085348
12:57:00,1,217,Simpson St,-73.893064,40.824073,1916.6289681531446
12:57:00,1,218,Intervale Av,-73.896736,40.822181,1843.7052393395852
12:57:00,1,219,Prospect Av,-73.90177,40.819585,1757.823883407382
12:57:00,1,220,Jackson Av,-73.907807,40.81649,1665.76505987797
12:57:00,1,221,3 Av-149 St,-73.917757,40.816109,1544.0567265446366
12:57:00,1,222,149 St-Grand Concourse,-73.926718,40.81841,1426.1917140752976
12:30:00,1,224,135 St,-73.94077,40.814229,1441.552162168695
12:30:00,1,225,125 St,-73.945495,40.807754,1333.7602546542441
12:30:00,1,226,116 St,-73.949625,40.802098,1235.6504280646486
12:30:00,1,227,Central Park North (110 St),-73.951822,40.799075,1159.031380445601
12:03:30,1,228,Park Place,-74.008811,40.713051,862.7200855184421
12:03:30,1,229,Fulton St,-74.006571,40.709416,937.0345201638659
12:06:00,2,230,Wall St,-74.0091,40.706821,1010.144467807845
12:06:00,2,231,Clark St,-73.993086,40.697466,1193.8533450037432
12:38:00,1,232,Borough Hall,-73.989998,40.693219,1231.5931372959028
12:38:00,1,233,Hoyt St,-73.985065,40.690545,1275.4617920510514
12:29:30,1,234,Nevins St,-73.980492,40.688246,1150.947844380775
12:38:00,1,235,Atlantic Av-Barclays Ctr,-73.977666,40.684359,1125.5377876489722
12:22:30,1,236,Bergen St,-73.975098,40.680829,1202.7078907417556
12:22:30,1,237,Grand Army Plaza,-73.971046,40.675235,1314.8161381644359
12:22:30,1,238,Eastern Pkwy-Brooklyn Museum,-73.964375,40.671987,1424.8315227798207
12:38:00,1,239,Franklin Av-Medgar Evers College,-73.958131,40.670682,1414.7024396247655
12:24:30,1,241,President St-Medgar Evers College,-73.950683,40.667883,1599.9394341159973
12:24:30,1,242,Sterling St,-73.95085,40.662742,1690.410587962151
12:24:30,1,243,Winthrop St,-73.9502,40.656652,1775.5629689145321
12:24:30,1,244,Church Av,-73.949575,40.650843,1857.4152416418046
12:24:30,1,245,Beverly Rd,-73.948959,40.645098,1938.8492039059556
12:24:30,1,246,Newkirk Av-Little Haiti,-73.948411,40.639967,2024.8492039059554
12:24:30,1,247,Flatbush Av-Brooklyn College,-73.947642,40.632836,2142.186046011219
12:24:30,1,248,Nostrand Av,-73.950466,40.669847,1571.481247743183
12:24:30,1,249,Kingston Av,-73.942161,40.669399,1667.873404605928
12:38:00,1,250,Crown Hts-Utica Av,-73.932942,40.668897,1684.506741808305
12:24:30,1,251,Sutter Av-Rutland Rd,-73.92261,40.664717,1809.756741808305
12:24:30,1,252,Saratoga Av,-73.916327,40.661453,1921.7567418083047
12:24:30,1,253,Rockaway Av,-73.908946,40.662549,1992.7385212141396
12:24:30,1,254,Junius St,-73.902447,40.663515,1910.8953839592377
12:24:30,1,255,Pennsylvania Av,-73.894895,40.664635,2008.1110702337478
12:24:30,1,256,Van Siclen Av,-73.889395,40.665449,2082.6208741553164
12:24:30,1,257,New Lots Av,-73.884079,40.666235,2153.395383959238
12:30:00,1,301,Harlem-148 St,-73.93647,40.82388,1710.746009104876
12:30:00,1,302,145 St,-73.936245,40.820421,1578.5112264961804
12:37:00,1,401,Woodlawn,-73.878751,40.886037,2778.9161632787795
12:37:00,1,402,Mosholu Pkwy,-73.884655,40.87975,2635.3869905387655
12:37:00,1,405,Bedford Park Blvd-Lehman College,-73.890064,40.873412,2513.8765010282764
12:37:00,1,406,Kingsbridge Rd,-73.897174,40.86776,2379.3274814204333
12:37:00,1,407,Fordham Rd,-73.901034,40.862803,2287.981076191675
12:37:00,1,408,183 St,-73.903879,40.858407,2207.2817297864462
12:37:00,1,409,Burnside Av,-73.907684,40.853453,2114.1095986389055
12:37:00,1,410,176 St,-73.911794,40.84848,2039.7586520297323
12:37:00,1,411,Mt Eden Av,-73.914685,40.844434,1964.0135539905166
12:37:00,1,412,170 St,-73.917791,40.840075,1886.490678173523
12:37:00,1,413,167 St,-73.9214,40.835537,1805.9600659286252
12:37:00,1,414,161 St-Yankee Stadium,-73.925831,40.827994,1660.445502821829
12:37:00,1,415,149 St-Grand Concourse,-73.927351,40.818375,1430.500502821829
12:57:00,1,416,138 St-Grand Concourse,-73.929849,40.813224,1261.185689978912
12:07:00,1,418,Fulton St,-74.009509,40.710368,594.1034867909868
12:07:00,1,419,Wall St,-74.011862,40.707557,673.4923756798757
12:07:00,1,420,Bowling Green,-74.014065,40.704817,748.5820308522896
12:29:30,1,423,Borough Hall,-73.990151,40.692404,1016.6554253477022
12:57:00,1,501,Eastchester-Dyre Av,-73.830834,40.8883,3105.4057194566517
12:57:00,1,502,Baychester Av,-73.838591,40.878663,2975.043082094014
12:57:00,1,503,Gun Hill Rd,-73.846384,40.869526,2816.274264889713
12:57:00,1,504,Pelham Pkwy,-73.855359,40.858985,2658.9155692375393
12:57:00,1,505,Morris Park,-73.860495,40.854364,2571.2342505562206
13:47:00,1,601,Pelham Bay Park,-73.828121,40.852462,2924.2226769923664
13:47:00,1,602,Buhre Av,-73.832569,40.84681,2740.795726637757
13:47:00,1,603,Middletown Rd,-73.836322,40.843863,2631.9623933044236
13:47:00,1,604,Westchester Sq-E Tremont Av,-73.842952,40.839892,2487.2123933044236
13:47:00,1,606,Zerega Av,-73.847036,40.836488,2389.12905997109
13:47:00,1,607,Castle Hill Av,-73.851222,40.834255,2321.795726637757
12:37:00,1,608,Parkchester,-73.860816,40.833226,2165.7957266377566
12:37:00,1,609,St Lawrence Av,-73.867618,40.831509,2403.7330931218758
12:37:00,1,610,Morrison Av-Soundview,-73.874516,40.829521,2318.6653640382106
12:37:00,1,611,Elder Av,-73.879159,40.828584,2253.5013640382103
12:37:00,1,612,Whitlock Av,-73.886283,40.826525,2147.16136403821
12:37:00,1,613,Hunts Point Av,-73.890549,40.820948,1909.4111112531416
12:57:00,1,614,Longwood Av,-73.896435,40.816104,1991.7032944898458
12:57:00,1,615,E 149 St,-73.904098,40.812118,1890.5949611565125
12:57:00,1,616,E 143 St-St Mary's St,-73.907657,40.808719,1815.7526375050604
12:57:00,1,617,Cypress Av,-73.914042,40.805368,1716.83213541301
12:57:00,1,618,Brook Av,-73.91924,40.807566,1647.2733118835984
12:37:00,1,619,3 Av-138 St,-73.926138,40.810476,1530.3341881762185
12:57:00,1,621,125 St,-73.937594,40.804138,1103.4770439566837
12:57:00,1,622,116 St,-73.941617,40.798629,1428.3330428570262
12:37:00,1,623,110 St,-73.94425,40.79502,1348.3821656640434
12:37:00,1,624,103 St,-73.947478,40.7906,1272.0102358394822
12:37:00,1,625,96 St,-73.95107,40.785672,1185.5400604008857
12:57:00,1,626,86 St,-73.955589,40.779492,819.0813605034463
12:37:00,1,627,77 St,-73.959874,40.77362,990.3944891556997
12:37:00,1,628,68 St-Hunter College,-73.96387,40.768141,900.7694891556997
12:57:00,1,629,59 St,-73.967967,40.762526,621.9324243332334
12:37:00,1,630,51 St,-73.97192,40.757107,707.8478449604963
12:57:00,1,631,Grand Central-42 St,-73.976848,40.751776,461.5281690140845
12:07:00,1,632,33 St,-73.982076,40.746081,462.2666914956216
12:07:00,1,633,28 St,-73.984264,40.74307,395.4234711566386
12:07:00,1,634,23 St,-73.986599,40.739864,323.41499658036736
12:45:30,1,635,14 St-Union Sq,-73.989951,40.734673,223.45714330673218
12:45:30,1,636,Astor Pl,-73.99107,40.730054,299.1478649562167
12:12:30,1,637,Bleecker St,-73.994659,40.725915,389.8645885057048
12:12:30,1,638,Spring St,-73.997141,40.722301,459.0142483696503
12:07:00,1,639,Canal St,-74.000193,40.718803,517.7111111111111
12:02:30,1,640,Brooklyn Bridge-City Hall,-74.004131,40.713065,484.9020979020979
12:00:00,1,701,Flushing-Main St,-73.83003,40.7596,2208.9285493286357
12:00:00,1,702,Mets-Willets Point,-73.845625,40.754622,2016.2237151216846
12:00:00,1,705,111 St,-73.855334,40.75173,2033.040199790214
12:00:00,1,706,103 St-Corona Plaza,-73.8627,40.749865,1939.4141913121612
12:00:00,1,707,Junction Blvd,-73.869527,40.749145,1769.0808579788275
12:00:00,1,708,90 St-Elmhurst Av,-73.876613,40.748408,1843.3637579658891
12:00:00,1,709,82 St-Jackson Hts,-73.883697,40.747659,1763.9834762757482
12:17:30,1,710,74 St-Broadway,-73.891394,40.746848,1621.7351769560203
12:37:30,1,711,69 St,-73.896403,40.746325,1574.3234122501378
12:17:30,1,712,61 St-Woodside,-73.902984,40.74563,1502.4149615459125
12:17:30,1,713,52 St,-73.912549,40.744149,1401.207733424906
12:17:30,1,714,46 St-Bliss St,-73.918435,40.743132,1347.514140110143
12:17:30,1,715,40 St-Lowery St,-73.924016,40.743781,1296.1436665725385
12:17:30,1,716,33 St-Rawson St,-73.930997,40.744587,1227.8634117954684
12:00:00,1,718,Queensboro Plaza,-73.940202,40.750582,1085.388551460273
12:00:00,1,719,Court Sq,-73.945264,40.747023,1014.198757763975
12:00:00,1,720,Hunters Point Av,-73.948916,40.742216,925.2787698434927
12:00:00,1,721,Vernon Blvd-Jackson Av,-73.953581,40.742626,848.2020275312696
12:00:00,1,723,Grand Central-42 St,-73.976041,40.751431,633.4584377876798
12:00:00,1,724,5 Av,-73.981963,40.753821,578.0298663591084
12:00:00,1,725,Times Sq-42 St,-73.987691,40.755477,493.7298663591084
12:08:00,1,726,34 St-Hudson Yards,-74.00191,40.755882,660.4674685619575
12:08:00,1,901,Grand Central-42 St,-73.979189,40.752769,542.4901754385965
12:08:00,1,902,Times Sq-42 St,-73.986229,40.755983,446.63684210526316
13:33:30,1,A02,Inwood-207 St,-73.919899,40.868072,2322.9742588067243
13:33:30,1,A03,Dyckman St,-73.927271,40.865491,2232.9012661059946
13:33:30,1,A05,190 St,-73.93418,40.859022,2109.3088748016467
13:33:30,1,A06,181 St,-73.937969,40.851695,1996.0735806839994
13:33:30,1,A07,175 St,-73.939704,40.847391,1899.3531505764724
13:33:30,1,A09,168 St,-73.939561,40.840719,1771.9146479026756
12:00:00,1,A10,163 St-Amsterdam Av,-73.939892,40.836013,1743.8940217779066
12:00:00,1,A11,155 St,-73.941514,40.830518,1662.0606884445733
13:33:30,1,A12,145 St,-73.944216,40.824783,1527.037642555082
13:40:00,1,A14,135 St,-73.947649,40.817894,1424.3781487620336
12:17:30,1,A15,125 St,-73.952343,40.811109,1252.4397646768668
12:00:00,1,A16,116 St,-73.954882,40.805085,1376.2753469075687
12:00:00,1,A17,Cathedral Pkwy (110 St),-73.958161,40.800603,1379.1947477243682
12:00:00,1,A18,103 St,-73.961454,40.796092,1291.4285139581345
12:00:00,1,A19,96 St,-73.964696,40.791642,1206.6752672048879
12:00:00,1,A20,86 St,-73.968916,40.785868,1104.7936882575195
12:00:00,1,A21,81 St-Museum of Natural History,-73.972143,40.781433,1008.7670215908528
12:00:00,1,A22,72 St,-73.97641,40.775594,919.8870215908528
12:00:00,1,A24,59 St-Columbus Circle,-73.981736,40.768296,775.8410385622169
12:17:30,1,A25,50 St,-73.985984,40.762456,710.408515941322
13:17:30,1,A27,42 St-Port Authority Bus Terminal,-73.989735,40.757308,609.900000903481
13:17:30,1,A28,34 St-Penn Station,-73.993391,40.752287,710.8737543106373
12:08:00,1,A30,23 St,-73.998041,40.745906,643.4208573392141
13:17:30,1,A31,14 St,-74.00169,40.740893,555.0276949460517
12:05:00,2,A32,W 4 St-Wash Sq,-74.000495,40.732338,667.8986574561322
12:43:30,2,A33,Spring St,-74.003739,40.726227,774.9688328947287
12:17:00,1,A34,Canal St,-74.005229,40.720824,840.3030375154556
12:06:00,2,A36,Chambers St,-74.008585,40.714111,914.4740806034264
12:06:00,2,A38,Fulton St,-74.007691,40.710197,817.0345201638659
13:26:00,2,A40,High St,-73.990531,40.699337,1000.6084332073441
13:26:00,1,A41,Jay St-MetroTech,-73.987342,40.692338,1125.0953897290833
13:35:00,1,A42,Hoyt-Schermerhorn Sts,-73.985001,40.688484,1241.0614914239986
13:18:00,1,A43,Lafayette Av,-73.973946,40.686113,1396.28970032139
13:18:00,1,A44,Clinton-Washington Avs,-73.965838,40.683263,1480.58249982736
13:35:00,1,A45,Franklin Av,-73.956848,40.68138,1580.0994489799023
13:35:00,1,A46,Nostrand Av,-73.950426,40.680438,1567.3302411333216
13:18:00,1,A47,Kingston-Throop Avs,-73.940858,40.679921,1667.6844077999883
13:35:00,1,A48,Utica Av,-73.930729,40.679364,1738.150465852423
13:18:00,1,A49,Ralph Av,-73.920786,40.678822,1765.5999663623766
13:18:00,1,A50,Rockaway Av,-73.911946,40.67834,1667.153685370641
13:35:00,1,A51,Broadway Junction,-73.905316,40.678334,1583.0553247149032
13:35:00,1,A52,Liberty Av,-73.896548,40.674542,1717.014674308399
13:35:00,1,A53,Van Siclen Av,-73.890358,40.67271,1812.193536097017
13:35:00,1,A54,Shepherd Av,-73.88075,40.67413,1916.2667068287242
13:35:00,1,A55,Euclid Av,-73.872106,40.675377,1883.36695262188
13:35:00,1,A57,Grant Av,-73.86505,40.677044,2005.549525235988
13:35:00,1,A59,80 St,-73.858992,40.679371,2102.901525235988
13:35:00,1,A60,88 St,-73.85147,40.679843,2198.861684598538
13:35:00,1,A61,Rockaway Blvd,-73.843853,40.680429,2289.206922693776
13:26:00,1,A63,104 St,-73.837683,40.681711,2372.8789226937765
13:26:00,1,A64,111 St,-73.832163,40.684331,2459.01007023476
13:26:00,1,A65,Ozone Park-Lefferts Blvd,-73.825798,40.685951,2548.0733613740003
12:37:30,0,B04,21 St-Queensbridge,-73.942836,40.754203,1081.6000000000001
12:37:30,0,B06,Roosevelt Island,-73.95326,40.759145,961.6
12:00:00,0,B08,Lexington Av/63 St,-73.966113,40.764629,618.0852592172724
12:33:30,1,B10,57 St,-73.97745,40.763972,661.6
12:02:30,0,B12,9 Av,-73.994324,40.646292,1659.7847308662908
12:02:30,0,B13,Fort Hamilton Pkwy,-73.994304,40.640914,1760.887294968855
12:02:30,0,B14,50 St,-73.994791,40.63626,1839.9127726758613
12:02:30,0,B15,55 St,-73.995476,40.631435,1939.6707344593008
12:02:30,0,B16,62 St,-73.996895,40.626472,2005.6427624313287
12:02:30,0,B17,71 St,-73.998864,40.619589,2108.1332082912018
12:02:30,0,B18,79 St,-74.00061,40.613501,2214.693717845342
12:02:30,0,B19,18 Av,-74.001736,40.607954,2296.2872662324385
12:02:30,0,B20,20 Av,-73.998168,40.604556,2378.280772725945
12:02:30,0,B21,Bay Pkwy,-73.993728,40.601875,2455.826227271399
13:52:30,0,B22,25 Av,-73.986829,40.597704,2574.9359046907543
13:52:30,0,B23,Bay 50 St,-73.983765,40.588841,2773.507333262183
12:17:30,1,D01,Norwood-205 St,-73.878855,40.874811,2670.723575601529
12:17:30,1,D03,Bedford Park Blvd,-73.887138,40.873244,2499.2370891150426
12:17:30,1,D04,Kingsbridge Rd,-73.893509,40.866978,2382.0808391150426
12:17:30,1,D05,Fordham Rd,-73.897749,40.861296,2287.549370583574
12:17:30,1,D06,182-183 Sts,-73.900741,40.856093,2200.615463782411
12:17:30,1,D07,Tremont Av,-73.905227,40.85041,2122.5004195346232
12:17:30,1,D08,174-175 Sts,-73.910136,40.8459,2078.0977167208403
12:17:30,1,D09,170 St,-73.9134,40.839306,1971.8413064644299
12:17:30,1,D10,167 St,-73.91844,40.833771,1866.9219516257203
12:17:30,1,D11,161 St-Yankee Stadium,-73.925651,40.827905,1749.540999244768
12:17:30,1,D12,155 St,-73.938209,40.830135,1631.340999244768
12:17:30,1,D13,145 St,-73.944216,40.824783,1487.840999244768
12:00:00,1,D14,7 Av,-73.981637,40.762862,673.6805447350564
12:00:00,1,D15,47-50 Sts-Rockefeller Ctr,-73.981329,40.758663,560.2865930784849
12:17:30,1,D16,42 St-Bryant Pk,-73.984569,40.754222,468.3757009345794
12:17:30,1,D17,34 St-Herald Sq,-73.987823,40.749719,391.59999999999997
12:37:30,1,D18,23 St,-73.992821,40.742878,501.56010426572857
12:37:30,1,D19,14 St,-73.996209,40.738228,515.2591764275331
12:00:00,1,D20,W 4 St-Wash Sq,-74.000495,40.732338,567.7493795282521
12:00:00,1,D21,Broadway-Lafayette St,-73.996204,40.725297,602.0931608743266
12:00:00,1,D22,Grand St,-73.993753,40.718267,730.504925580209
12:29:30,0,D24,Atlantic Av-Barclays Ctr,-73.97689,40.68446,900.5377876489721
12:29:30,0,D25,7 Av,-73.972367,40.67705,1030.9989275453452
12:29:30,0,D26,Prospect Park,-73.962246,40.661614,1212.138823918402
12:29:30,0,D27,Parkside Av,-73.961495,40.655292,1294.0196529339462
12:29:30,0,D28,Church Av,-73.962982,40.650527,1391.7631084313284
12:29:30,0,D29,Beverley Rd,-73.964492,40.644031,1517.318663986884
12:29:30,0,D30,Cortelyou Rd,-73.963891,40.640927,1577.3719973202174
12:29:30,0,D31,Newkirk Plaza,-73.962793,40.635082,1623.2059655741857
12:29:30,0,D32,Avenue H,-73.961639,40.62927,1740.029072051165
12:29:30,0,D33,Avenue J,-73.960803,40.625039,1828.2548398158542
12:29:30,0,D34,Avenue M,-73.959399,40.617618,1932.3727885338028
12:29:30,0,D35,Kings Hwy,-73.957734,40.60867,1861.3383185153623
12:29:30,0,D37,Avenue U,-73.955929,40.5993,2076.8180183508475
12:29:30,0,D38,Neck Rd,-73.955161,40.595246,2176.3541008250745
12:29:30,0,D39,Sheepshead Bay,-73.954155,40.586896,2099.323393142228
12:29:30,0,D40,Brighton Beach,-73.961376,40.577621,2249.0506658695003
12:29:30,0,D41,Ocean Pkwy,-73.968501,40.576312,2402.84252395839
12:29:30,0,D42,W 8 St-NY Aquarium,-73.975939,40.576127,2517.2941368616157
12:29:30,0,D43,Coney Island-Stillwell Av,-73.981233,40.577422,2597.249692417171
12:06:00,2,E01,World Trade Center,-74.009781,40.712582,808.9749166666924
12:41:30,0,F01,Jamaica-179 St,-73.783817,40.712646,2545.4443396226416
12:37:30,0,F02,169 St,-73.793604,40.71047,2455.4443396226416
12:37:30,0,F03,Parsons Blvd,-73.803326,40.707564,2365.4443396226416
12:37:30,0,F04,Sutphin Blvd,-73.810708,40.70546,2341.6000000000004
12:37:30,0,F05,Briarwood,-73.820574,40.709179,2221.6000000000004
12:37:30,0,F06,Kew Gardens-Union Tpke,-73.831008,40.714441,2101.6000000000004
12:37:30,0,F07,75 Av,-73.837324,40.718331,2011.6000000000004
12:17:30,1,F09,Court Sq-23 St,-73.946,40.747846,1014.5723073641993
12:17:30,1,F11,Lexington Av/53 St,-73.969055,40.757552,811.0008787927707
12:17:30,1,F12,5 Av/53 St,-73.975224,40.760167,711.8172053233828
12:40:00,1,F14,2 Av,-73.989938,40.723402,699.521732302898
12:40:00,1,F15,Delancey St-Essex St,-73.988114,40.718611,796.3635690375919
12:40:00,1,F16,East Broadway,-73.990173,40.713715,878.7896327128421
12:38:00,1,F18,York St,-73.986751,40.701397,1032.8705850937945
13:18:00,1,F20,Bergen St,-73.990862,40.686145,1267.3569556960545
13:18:00,1,F21,Carroll St,-73.995048,40.680303,1418.8269556960545
13:18:00,1,F22,Smith-9 Sts,-73.995959,40.67358,1465.9207063875779
13:18:00,1,F23,4 Av-9 St,-73.989779,40.670272,1382.4550201130683
13:18:00,1,F24,7 Av,-73.980305,40.666271,1500.3883534464017
13:18:00,1,F25,15 St-Prospect Park,-73.979493,40.660365,1620.1287879986007
13:18:00,1,F26,Fort Hamilton Pkwy,-73.975776,40.650782,1765.5969960910863
13:18:00,1,F27,Church Av,-73.979678,40.644041,1787.8868257396196
13:18:00,1,F29,Ditmas Av,-73.978172,40.636119,1908.5534924062863
13:18:00,1,F30,18 Av,-73.976971,40.629755,2028.5534924062863
13:18:00,1,F31,Avenue I,-73.976127,40.625322,2088.5534924062863
13:18:00,1,F32,Bay Pkwy,-73.975264,40.620769,2148.5534924062863
13:18:00,1,F33,Avenue N,-73.974197,40.61514,2268.5534924062863
13:18:00,1,F34,Avenue P,-73.973022,40.608944,2358.5534924062863
13:18:00,1,F35,Kings Hwy,-73.972361,40.603217,2511.2201590729524
13:18:00,1,F36,Avenue U,-73.973357,40.596063,2627.886825739619
13:09:30,0,F38,Avenue X,-73.97425,40.58962,2689.553492406286
13:09:30,0,F39,Neptune Av,-73.974574,40.581011,2826.960803528282
12:00:00,0,G05,Jamaica Center-Parsons/Archer,-73.801109,40.702147,2619.558035021295
12:00:00,0,G06,Sutphin Blvd-Archer Av-JFK Airport,-73.807969,40.700486,2528.273118820178
12:00:00,0,G07,Jamaica-Van Wyck,-73.816859,40.702566,2401.8893372518496
12:37:30,0,G08,Forest Hills-71 Av,-73.844521,40.721691,1891.6000000000001
12:37:30,0,G09,67 Av,-73.852719,40.726523,2026.9304347826087
13:17:30,0,G10,63 Dr-Rego Park,-73.861604,40.729846,2113.1133605164923
13:17:30,0,G11,Woodhaven Blvd,-73.869229,40.733106,2018.5394474730142
13:17:30,0,G12,Grand Av-Newtown,-73.877223,40.737015,1916.452490951275
13:17:30,0,G13,Elmhurst Av,-73.882017,40.742454,1816.702490951275
12:37:30,0,G14,Jackson Hts-Roosevelt Av,-73.891338,40.746644,1471.6000000000001
12:37:30,0,G15,65 St,-73.898453,40.749669,1704.5849309703428
12:21:30,0,G16,Northern Blvd,-73.906006,40.752885,1610.2550340631265
12:21:30,0,G18,46 St,-73.913333,40.756312,1520.2550340631265
12:21:30,0,G19,Steinway St,-73.92074,40.756879,1403.347817568281
12:21:30,0,G20,36 St,-73.928781,40.752039,1282.3990380511507
12:21:30,0,G21,Queens Plaza,-73.937243,40.748973,1124.8657047178174
12:17:30,2,G22,Court Sq,-73.943832,40.746554,1194.198757763975
12:17:30,2,G24,21 St,-73.949724,40.744065,1246.5282271729243
12:17:30,2,G26,Greenpoint Av,-73.954449,40.731352,1038.7050227530349
12:10:00,2,G28,Nassau Av,-73.951277,40.724635,944.3423853903975
12:17:30,2,G29,Metropolitan Av,-73.951418,40.712792,812.2604181772828
12:00:00,2,G30,Broadway,-73.950308,40.706092,912.8419399164133
12:00:00,2,G31,Flushing Av,-73.950234,40.700377,999.2365345110079
12:00:00,2,G32,Myrtle-Willoughby Avs,-73.949046,40.694568,1080.9608588353321
12:38:00,1,G33,Bedford-Nostrand Avs,-73.953522,40.689627,1192.890966362214
12:38:00,1,G34,Classon Av,-73.96007,40.688873,1274.8184275021101
12:38:00,1,G35,Clinton-Washington Avs,-73.966839,40.688089,1358.6844068835535
12:38:00,1,G36,Fulton St,-73.975375,40.687119,1457.1305607297072
12:38:00,1,H01,Aqueduct Racetrack,-73.834058,40.668234,2495.2386687255225
13:35:00,1,H02,Aqueduct-N Conduit Av,-73.834058,40.668234,2568.3077216650972
13:35:00,1,H03,Howard Beach-JFK Airport,-73.830301,40.660476,2666.4275576144114
13:35:00,1,H04,Broad Channel,-73.815925,40.608382,3084.3791705176372
13:35:00,1,H06,Beach 67 St,-73.796924,40.590927,3395.6686442018477
13:35:00,1,H07,Beach 60 St,-73.788522,40.592374,3499.1160126229006
13:35:00,1,H08,Beach 44 St,-73.776013,40.592943,3602.5984687632513
13:35:00,1,H09,Beach 36 St,-73.768175,40.595398,3699.844082798339
13:35:00,1,H10,Beach 25 St,-73.761353,40.600066,3800.22461377179
13:35:00,1,H11,Far Rockaway-Mott Av,-73.755405,40.603995,3899.3912804384568
12:38:00,1,H12,Beach 90 St,-73.813641,40.588034,3335.6791705176374
12:38:00,1,H13,Beach 98 St,-73.820558,40.585307,3414.0791705176375
12:38:00,1,H14,Beach 105 St,-73.827559,40.583209,3490.1902816287484
12:38:00,1,H15,Rockaway Park-Beach 116 St,-73.835592,40.580903,3594.390281628748
12:21:30,0,J12,121 St,-73.828294,40.700492,2573.055324714903
12:21:30,0,J13,111 St,-73.836345,40.697418,2735.384804483689
12:21:30,0,J14,104 St,-73.84433,40.695178,2393.055324714903
12:21:30,0,J15,Woodhaven Blvd,-73.851576,40.693879,2303.055324714903
13:49:30,1,J16,85 St-Forest Pkwy,-73.86001,40.692435,2307.2864670748054
13:49:30,1,J17,75 St-Elderts Ln,-73.867139,40.691324,2123.055324714903
13:49:30,1,J19,Cypress Hills,-73.87255,40.689941,2105.0364670748054
13:49:30,1,J20,Crescent St,-73.873785,40.683194,1973.055324714903
13:49:30,1,J21,Norwood Av,-73.880039,40.68141,1883.0553247149032
13:49:30,1,J22,Cleveland St,-73.884639,40.679947,1888.2348451347225
13:49:30,1,J23,Van Siclen Av,-73.891688,40.678024,1733.0553247149032
13:49:30,1,J24,Alabama Av,-73.898654,40.676992,1673.0553247149032
13:09:30,1,J27,Broadway Junction,-73.904512,40.679498,1569.7369374449295
13:09:30,1,J28,Chauncey St,-73.910456,40.682893,1637.6277765856848
13:09:30,1,J29,Halsey St,-73.916559,40.68637,1661.7414555557561
13:09:30,1,J30,Gates Av,-73.92227,40.68963,1491.711109919018
13:09:30,1,J31,Kosciuszko St,-73.928814,40.693342,1479.5917549569538
12:45:30,1,L01,8 Av,-74.002578,40.739777,388.72321667622873
12:45:30,1,L02,6 Av,-73.996786,40.737335,290.2591764275332
12:45:30,1,L03,14 St-Union Sq,-73.99073,40.734789,213.96103978157046
12:07:00,1,L05,3 Av,-73.986122,40.732849,267.88926174496646
12:07:00,1,L06,1 Av,-73.981628,40.730953,315.4112743235828
12:07:00,1,L08,Bedford Av,-73.956872,40.717304,517.2615067213528
12:07:00,1,L10,Lorimer St,-73.950275,40.714063,599.0461339956879
12:07:00,1,L11,Graham Av,-73.944053,40.714565,633.8105784401323
12:07:00,1,L12,Grand St,-73.94067,40.711926,713.5558013700686
12:07:00,1,L13,Montrose Av,-73.93985,40.707739,749.577813948685
12:07:00,1,L14,Morgan Av,-73.933147,40.706152,828.8478809140134
12:07:00,1,L15,Jefferson St,-73.922913,40.706607,912.7295377187471
12:07:00,1,L16,DeKalb Av,-73.918425,40.703811,978.4313449476629
12:07:00,1,L17,Myrtle-Wyckoff Avs,-73.911586,40.699814,1049.4404083917716
12:07:00,1,L19,Halsey St,-73.904084,40.695602,1093.5043814557446
12:07:00,1,L20,Wilson Av,-73.904046,40.688764,1210.4827765174732
12:07:00,1,L21,Bushwick Av-Aberdeen St,-73.905249,40.682829,1294.8195820730286
12:07:00,1,L22,Broadway Junction,-73.90324,40.678856,1344.7369374449295
12:07:00,1,L24,Atlantic Av,-73.903097,40.675345,1452.8140979387565
12:07:00,1,L25,Sutter Av,-73.901975,40.669367,1523.1864056310642
12:07:00,1,L26,Livonia Av,-73.900571,40.664038,1580.8953839592377
12:07:00,1,L27,New Lots Av,-73.899232,40.658733,1629.9953839592376
12:07:00,1,L28,East 105 St,-73.899485,40.650573,1726.7217990535773
12:07:00,1,L29,Canarsie-Rockaway Pkwy,-73.90185,40.646654,1851.7859882427665
12:07:00,2,M01,Middle Village-Metropolitan Av,-73.889601,40.711396,1674.8919699526355
12:07:00,2,M04,Fresh Pond Rd,-73.895877,40.706186,1557.6089510847107
12:07:00,2,M05,Forest Av,-73.903077,40.704423,1465.0226173495503
12:07:00,2,M06,Seneca Av,-73.90774,40.702762,1370.6583789389542
13:30:00,1,M08,Myrtle-Wyckoff Avs,-73.912385,40.69943,1274.4404083917716
12:50:00,1,M09,Knickerbocker Av,-73.919711,40.698664,1369.6392388011284
13:30:00,1,M10,Central Av,-73.927397,40.697857,1480.627474095246
13:09:30,1,M11,Myrtle Av,-73.935657,40.697207,1324.5444432523514
12:29:30,1,M12,Flushing Av,-73.941126,40.70026,1325.5278476767742
12:29:30,1,M13,Lorimer St,-73.947408,40.703869,1233.7456694589523
12:29:30,1,M14,Hewes St,-73.953431,40.70687,1135.0082957215786
12:29:30,1,M16,Marcy Av,-73.957757,40.708359,1043.3982957215785
12:29:30,1,M18,Delancey St-Essex St,-73.987437,40.718315,681.5558714791543
12:29:30,1,M19,Bowery,-73.993915,40.72028,601.4200690100187
12:06:00,1,M20,Canal St,-73.999892,40.718092,503.4322641319699
12:06:00,1,M21,Chambers St,-74.003401,40.713243,610.7944432523515
12:06:00,1,M22,Fulton St,-74.007582,40.710374,698.2834506964094
12:06:00,1,M23,Broad St,-74.011056,40.706476,764.9781875385147
12:02:30,0,N02,8 Av,-74.011719,40.635064,1734.4546818490383
12:02:30,0,N03,Fort Hamilton Pkwy,-74.005351,40.631386,1877.8997685542408
12:02:30,0,N04,New Utrecht Av,-73.996353,40.624842,2014.188785895281
12:02:30,0,N05,18 Av,-73.990414,40.620671,2106.460462195859
12:02:30,0,N06,20 Av,-73.985026,40.61741,2185.4322916666665
12:02:30,0,N07,Bay Pkwy,-73.981848,40.611815,2275.4322916666665
12:02:30,0,N08,Kings Hwy,-73.980353,40.603923,2391.257427320636
12:02:30,0,N09,Avenue U,-73.979137,40.597473,2483.9841715066827
12:02:30,0,N10,86 St,-73.97823,40.592721,2555.4322916666665
12:02:30,0,Q01,Canal St,-74.00046,40.718383,257.4322916666667
12:00:00,0,Q03,72 St,-73.958424,40.768799,751.5646406605714
12:00:00,0,Q04,86 St,-73.951787,40.777891,870.054331382221
12:00:00,0,Q05,96 St,-73.947152,40.784318,961.2967556246452
12:17:30,0,R01,Astoria-Ditmars Blvd,-73.912034,40.775036,1697.0394377198968
12:17:30,0,R03,Astoria Blvd,-73.917843,40.770258,1603.9133115937707
12:17:30,0,R04,30 Av,-73.921479,40.766779,1505.330489507881
12:17:30,0,R05,Broadway,-73.925508,40.76182,1414.5465388905973
12:17:30,0,R06,36 Av,-73.929575,40.756804,1316.5525629869826
12:17:30,0,R08,39 Av-Dutch Kills,-73.932755,40.752882,1197.2754545532478
12:17:30,0,R09,Queensboro Plaza,-73.940202,40.750582,1038.388549791343
12:17:30,0,R11,Lexington Av/59 St,-73.967258,40.76266,748.3166935039177
12:17:30,0,R13,5 Av/59 St,-73.973347,40.764811,645.7740105770885
12:00:00,0,R14,57 St-7 Av,-73.980658,40.764664,439.90909341416364
12:41:30,0,R15,49 St,-73.984139,40.759901,407.3500964185058
12:00:00,0,R16,Times Sq-42 St,-73.986754,40.754672,266.63684210526316
12:00:00,0,R17,34 St-Herald Sq,-73.98795,40.749567,166.6
12:00:00,0,R18,28 St,-73.988691,40.745494,166.9225352112676
12:00:00,0,R19,23 St,-73.989344,40.741303,85.7394366197183
12:07:00,0,R20,14 St-Union Sq,-73.990568,40.735736,0.0
12:07:00,0,R21,8 St-NYU,-73.992629,40.730328,100.984375
12:07:00,0,R22,Prince St,-73.997702,40.724329,186.671875
12:07:00,0,R23,Canal St,-74.001775,40.719527,286.47032461240315
12:07:00,0,R24,City Hall,-74.006978,40.713282,431.96263230471084
12:07:00,0,R25,Cortlandt St,-74.011029,40.710668,546.405380396314
12:07:00,0,R26,Rector St,-74.013342,40.70722,646.496983449749
12:07:00,0,R27,Whitehall St-South Ferry,-74.012994,40.703087,730.5803167830824
12:38:00,0,R28,Court St,-73.991777,40.6941,991.5931372959029
12:38:00,0,R29,Jay St-MetroTech,-73.985942,40.69218,1078.5241634500383
12:29:30,0,R30,DeKalb Av,-73.981824,40.690635,731.5003544938918
12:02:30,0,R31,Atlantic Av-Barclays Ctr,-73.97881,40.683666,890.0541407867494
12:24:30,0,R32,Union St,-73.98311,40.677316,1052.4074010654492
12:24:30,0,R33,4 Av-9 St,-73.988302,40.670847,1157.4550201130683
12:24:30,0,R34,Prospect Av,-73.992872,40.665414,1264.3050201130682
12:24:30,0,R35,25 St,-73.998091,40.660397,1360.0453995280081
12:02:30,0,R36,36 St,-74.003549,40.655144,1275.1223226049315
12:24:30,0,R39,45 St,-74.010006,40.648939,1485.1223226049315
12:12:30,0,R40,53 St,-74.014034,40.645069,1593.288823634477
12:02:30,0,R41,59 St,-74.017881,40.641362,1567.1788197800727
12:24:30,0,R42,Bay Ridge Av,-74.023377,40.634967,1727.9888210762704
12:24:30,0,R43,77 St,-74.02551,40.629742,1808.2615483489974
12:24:30,0,R44,86 St,-74.028398,40.622687,1984.612738825188
13:04:30,0,R45,Bay Ridge-95 St,-74.030876,40.616622,2061.628486856684
12:29:30,0,S01,Franklin Av,-73.955827,40.680596,1760.0994489799023
12:29:30,0,S03,Park Pl,-73.957624,40.674772,1688.4648306767463
12:29:30,0,S04,Botanic Garden,-73.959245,40.670343,1539.1938828745485
