start_time,ntransfers,stop_id,stop_name,stop_lon,stop_lat,duration
12:24:00,1,101,Van Cortlandt Park-242 St,-73.898583,40.889248,3274.137532321946
12:24:00,1,103,238 St,-73.90087,40.884667,3169.351241999365
12:24:00,1,104,231 St,-73.904834,40.878856,3076.7527864009094
12:24:00,1,106,Marble Hill-225 St,-73.909831,40.874561,2988.905510347755
12:24:00,1,107,215 St,-73.915279,40.869444,2899.287841751463
12:24:00,1,108,207 St,-73.918822,40.864621,2810.389773832019
12:24:00,1,109,Dyckman St,-73.925536,40.860531,2710.0769985016223
12:24:00,1,110,191 St,-73.929412,40.855225,2626.2321709154153
12:24:00,1,111,181 St,-73.933596,40.849505,2535.2021279969604
12:24:00,1,112,168 St-Washington Hts,-73.940133,40.840556,2416.0004112587635
12:24:00,1,113,157 St,-73.94489,40.834041,2358.4391203635423
12:24:00,1,114,145 St,-73.95036,40.826551,2241.1859014794222
12:24:00,1,115,137 St-City College,-73.953676,40.822008,2140.309833103354
12:24:00,1,116,125 St,-73.958372,40.815581,2044.984833103354
12:24:00,1,117,116 St-Columbia University,-73.96411,40.807722,1930.7556664366873
12:24:00,1,118,Cathedral Pkwy (110 St),-73.966847,40.803967,1851.801120982142
12:24:00,1,119,103 St,-73.968379,40.799446,1772.272432457552
12:04:00,1,120,96 St,-73.972323,40.793919,1523.5968613000457
12:04:00,1,121,86 St,-73.976218,40.788644,1561.8707931132897
12:04:00,1,122,79 St,-73.979917,40.783934,1484.9968093734522
12:04:00,1,123,72 St,-73.98197,40.778453,1356.5458408918823
12:08:00,1,124,66 St-Lincoln Center,-73.982209,40.77344,1471.9477967319583
12:08:00,1,125,59 St-Columbus Circle,-73.981929,40.768247,1450.3017048574638
12:08:00,1,126,50 St,-73.983849,40.761728,1383.2166584742504
12:04:00,1,127,Times Sq-42 St,-73.987495,40.75529,1131.1616601009218
12:04:00,1,128,34 St-Penn Station,-73.991057,40.750373,1029.8026857419477
12:24:00,1,129,28 St,-73.993365,40.747215,1116.2114445747643
12:24:00,1,130,23 St,-73.995657,40.744081,1046.6371473860092
12:24:00,1,131,18 St,-73.997871,40.74104,981.1829641190768
12:04:00,1,132,14 St,-74.000201,40.737826,858.8454427108951
12:04:00,1,133,Christopher St-Sheridan Sq,-74.002906,40.733422,821.155186341299
12:04:00,1,134,Houston St,-74.005367,40.728251,735.2742339603466
12:04:00,1,135,Canal St,-74.006277,40.722854,640.0340764800317
12:04:00,1,136,Franklin St,-74.006886,40.719318,576.2435626460394
12:04:00,1,137,Chambers St,-74.009266,40.715478,497.7477643267117
12:08:00,1,138,WTC Cortlandt,-74.012188,40.711835,426.3307602781287
12:08:00,1,139,Rector St,-74.013783,40.707513,349.82063882063886
12:08:00,1,142,South Ferry,-74.013664,40.702068,246.72972972972974
12:49:00,1,201,Wakefield-241 St,-73.85062,40.903125,4189.080801551839
12:49:00,1,204,Nereid Av,-73.854376,40.898379,3892.0649881898744
12:49:00,1,205,233 St,-73.857473,40.893193,3802.0649881898744
12:49:00,1,206,225 St,-73.860341,40.888022,3712.0649881898744
12:49:00,1,207,219 St,-73.862633,40.883895,3622.0649881898744
12:49:00,1,208,Gun Hill Rd,-73.866256,40.87785,3517.0649881898744
12:49:00,1,209,Burke Av,-73.867164,40.871356,3507.911358229572
12:49:00,1,210,Allerton Av,-73.867352,40.865462,3415.7809234469632
12:49:00,1,211,Pelham Pkwy,-73.867615,40.857192,3311.4330973600067
12:49:00,1,212,Bronx Park East,-73.868457,40.848828,3186.607010403485
12:49:00,1,213,E 180 St,-73.873488,40.841894,2976.302662577398
12:49:00,1,214,West Farms Sq-E Tremont Av,-73.880049,40.840295,2923.431121269255
12:49:00,1,215,174 St,-73.887734,40.837288,2793.344914372703
12:49:00,1,216,Freeman St,-73.891865,40.829993,2673.5073075350965
12:49:00,1,217,Simpson St,-73.893064,40.824073,2563.125951602893
12:49:00,1,218,Intervale Av,-73.896736,40.822181,2490.202222789334
12:49:00,1,219,Prospect Av,-73.90177,40.819585,2404.3208668571306
12:49:00,1,220,Jackson Av,-73.907807,40.81649,2312.262043327719
12:49:00,1,221,3 Av-149 St,-73.917757,40.816109,2190.553709994386
12:49:00,1,222,149 St-Grand Concourse,-73.926718,40.81841,2072.688697525047
12:04:00,1,224,135 St,-73.94077,40.814229,2047.7329837490252
12:04:00,1,225,125 St,-73.945495,40.807754,1939.6529837490252
12:04:00,1,226,116 St,-73.949625,40.802098,1843.6733919122905
12:04:00,1,227,Central Park North (110 St),-73.951822,40.799075,1775.3009429326987
12:08:00,1,228,Park Place,-74.008811,40.713051,469.978102189781
12:14:00,1,229,Fulton St,-74.006571,40.709416,596.7257212374001
12:14:00,1,230,Wall St,-74.0091,40.706821,681.0764321378739
12:18:30,1,231,Clark St,-73.993086,40.697466,612.1786934651095
12:18:30,1,232,Borough Hall,-73.989998,40.693219,516.7691598586736
12:38:30,1,233,Hoyt St,-73.985065,40.690545,609.1757162233475
12:18:30,1,234,Nevins St,-73.980492,40.688246,656.1570400164536
12:18:30,1,235,Atlantic Av-Barclays Ctr,-73.977666,40.684359,746.2348089866338
12:38:30,1,236,Bergen St,-73.975098,40.680829,856.1752874159605
12:38:30,1,237,Grand Army Plaza,-73.971046,40.675235,963.5180395422165
12:38:30,1,238,Eastern Pkwy-Brooklyn Museum,-73.964375,40.671987,1072.648176528518
12:18:30,1,239,Franklin Av-Medgar Evers College,-73.958131,40.670682,1031.416958625467
12:38:30,1,241,President St-Medgar Evers College,-73.950683,40.667883,1202.7246509331594
12:38:30,1,242,Sterling St,-73.95085,40.662742,1293.1958047793132
12:38:30,1,243,Winthrop St,-73.9502,40.656652,1378.348185731694
12:38:30,1,244,Church Av,-73.949575,40.650843,1460.2004584589668
12:38:30,1,245,Beverly Rd,-73.948959,40.645098,1541.6344207231177
12:38:30,1,246,Newkirk Av-Little Haiti,-73.948411,40.639967,1627.6344207231177
12:38:30,1,247,Flatbush Av-Brooklyn College,-73.947642,40.632836,1744.971262828381
12:38:30,1,248,Nostrand Av,-73.950466,40.669847,1174.5556365076816
12:38:30,1,249,Kingston Av,-73.942161,40.669399,1260.1806365076816
12:18:30,1,250,Crown Hts-Utica Av,-73.932942,40.668897,1287.291958625467
12:38:30,1,251,Sutter Av-Rutland Rd,-73.92261,40.664717,1412.541958625467
12:38:30,1,252,Saratoga Av,-73.916327,40.661453,1522.2423016009081
12:38:30,1,253,Rockaway Av,-73.908946,40.662549,1609.492301600908
12:38:30,1,254,Junius St,-73.902447,40.663515,1688.3256349342414
12:38:30,1,255,Pennsylvania Av,-73.894895,40.664635,1785.3256349342414
12:38:30,1,256,Van Siclen Av,-73.889395,40.665449,1859.908968267575
12:38:30,1,257,New Lots Av,-73.884079,40.666235,1951.7816955403023
12:04:00,1,301,Harlem-148 St,-73.93647,40.82388,2295.622194275341
12:04:00,1,302,145 St,-73.936245,40.820421,2181.237983749025
12:29:00,1,401,Woodlawn,-73.878751,40.886037,3425.4131467285283
12:29:00,1,402,Mosholu Pkwy,-73.884655,40.87975,3281.8839739885143
12:29:00,1,405,Bedford Park Blvd-Lehman College,-73.890064,40.873412,3160.373484478025
12:29:00,1,406,Kingsbridge Rd,-73.897174,40.86776,3025.824464870182
12:29:00,1,407,Fordham Rd,-73.901034,40.862803,2934.4780596414244
12:29:00,1,408,183 St,-73.903879,40.858407,2853.7787132361955
12:29:00,1,409,Burnside Av,-73.907684,40.853453,2760.6065820886542
12:29:00,1,410,176 St,-73.911794,40.84848,2686.255635479481
12:29:00,1,411,Mt Eden Av,-73.914685,40.844434,2610.5105374402656
12:29:00,1,412,170 St,-73.917791,40.840075,2532.9876616232723
12:29:00,1,413,167 St,-73.9214,40.835537,2452.4570493783744
12:29:00,1,414,161 St-Yankee Stadium,-73.925831,40.827994,2306.942486271578
12:29:00,1,415,149 St-Grand Concourse,-73.927351,40.818375,2076.997486271578
12:49:00,1,416,138 St-Grand Concourse,-73.929849,40.813224,1907.6826734286612
12:29:00,1,418,Fulton St,-74.009509,40.710368,874.7148875591963
12:08:30,1,419,Wall St,-74.011862,40.707557,859.1574857707711
12:08:30,1,420,Bowling Green,-74.014065,40.704817,784.0678305983573
12:18:30,1,423,Borough Hall,-73.990151,40.692404,515.9944361029445
14:00:00,1,501,Eastchester-Dyre Av,-73.830834,40.8883,3751.9027029064005
12:49:00,1,502,Baychester Av,-73.838591,40.878663,3621.540065543763
12:49:00,1,503,Gun Hill Rd,-73.846384,40.869526,3462.771248339462
12:49:00,1,504,Pelham Pkwy,-73.855359,40.858985,3305.4125526872886
12:49:00,1,505,Morris Park,-73.860495,40.854364,3217.73123400597
13:48:00,1,601,Pelham Bay Park,-73.828121,40.852462,3570.7196604421156
13:48:00,1,602,Buhre Av,-73.832569,40.84681,3387.292710087506
13:48:00,1,603,Middletown Rd,-73.836322,40.843863,3278.4593767541724
13:48:00,1,604,Westchester Sq-E Tremont Av,-73.842952,40.839892,3133.7093767541724
13:48:00,1,606,Zerega Av,-73.847036,40.836488,3035.626043420839
13:48:00,1,607,Castle Hill Av,-73.851222,40.834255,2968.292710087506
12:29:00,1,608,Parkchester,-73.860816,40.833226,2812.292710087506
12:29:00,1,609,St Lawrence Av,-73.867618,40.831509,3050.2300765716245
12:29:00,1,610,Morrison Av-Soundview,-73.874516,40.829521,2965.1623474879593
12:29:00,1,611,Elder Av,-73.879159,40.828584,2899.998347487959
12:29:00,1,612,Whitlock Av,-73.886283,40.826525,2793.658347487959
12:29:00,1,613,Hunts Point Av,-73.890549,40.820948,2555.9080947028906
12:49:00,1,614,Longwood Av,-73.896435,40.816104,2638.200277939595
12:49:00,1,615,E 149 St,-73.904098,40.812118,2537.0919446062617
12:49:00,1,616,E 143 St-St Mary's St,-73.907657,40.808719,2462.2496209548094
12:49:00,1,617,Cypress Av,-73.914042,40.805368,2363.329118862759
12:49:00,1,618,Brook Av,-73.91924,40.807566,2293.770295333348
12:29:00,1,619,3 Av-138 St,-73.926138,40.810476,2176.8311716259673
12:49:00,1,621,125 St,-73.937594,40.804138,1749.974027406433
12:49:00,1,622,116 St,-73.941617,40.798629,2076.372883000043
12:29:00,1,623,110 St,-73.94425,40.79502,1996.4220058070607
12:29:00,1,624,103 St,-73.947478,40.7906,1920.0500759824993
12:29:00,1,625,96 St,-73.95107,40.785672,1833.5799005439028
12:49:00,1,626,86 St,-73.955589,40.779492,1465.5783439531954
12:29:00,1,627,77 St,-73.959874,40.77362,1638.4343292987166
12:29:00,1,628,68 St-Hunter College,-73.96387,40.768141,1548.8093292987169
12:49:00,1,629,59 St,-73.967967,40.762526,1268.4294077829825
12:29:00,1,630,51 St,-73.97192,40.757107,1355.8876851035134
12:49:00,1,631,Grand Central-42 St,-73.976848,40.751776,1108.0251524638336
12:19:00,1,632,33 St,-73.982076,40.746081,1108.7636749453707
12:19:00,1,633,28 St,-73.984264,40.74307,1041.9204546063877
12:19:00,1,634,23 St,-73.986599,40.739864,969.9119800301164
12:19:00,1,635,14 St-Union Sq,-73.989951,40.734673,871.496983449749
12:19:00,1,636,Astor Pl,-73.99107,40.730054,830.4507374418175
12:19:00,1,637,Bleecker St,-73.994659,40.725915,739.7340138923295
12:19:00,1,638,Spring St,-73.997141,40.722301,670.5843540283839
12:29:00,1,639,Canal St,-74.000193,40.718803,596.807327001357
12:29:00,1,640,Brooklyn Bridge-City Hall,-74.004131,40.713065,680.3617487700644
12:08:00,1,701,Flushing-Main St,-73.83003,40.7596,2885.8385983565818
12:08:00,1,702,Mets-Willets Point,-73.845625,40.754622,2675.8385983565818
12:08:00,1,705,111 St,-73.855334,40.75173,2692.655083025111
12:08:00,1,706,103 St-Corona Plaza,-73.8627,40.749865,2599.0290745470575
12:08:00,1,707,Junction Blvd,-73.869527,40.749145,2428.6957412137244
12:08:00,1,708,90 St-Elmhurst Av,-73.876613,40.748408,2528.422083068614
12:08:00,1,709,82 St-Jackson Hts,-73.883697,40.747659,2449.0418013784733
12:34:30,1,710,74 St-Broadway,-73.891394,40.746848,2306.7935020587456
12:24:00,1,711,69 St,-73.896403,40.746325,2259.381737352863
12:34:30,1,712,61 St-Woodside,-73.902984,40.74563,2187.473286648638
12:34:30,1,713,52 St,-73.912549,40.744149,2098.288101463452
12:34:30,1,714,46 St-Bliss St,-73.918435,40.743132,2040.457592988876
12:34:30,1,715,40 St-Lowery St,-73.924016,40.743781,1985.1457285820966
12:34:30,1,716,33 St-Rawson St,-73.930997,40.744587,1920.9784930872158
12:19:00,1,718,Queensboro Plaza,-73.940202,40.750582,1749.6957412137242
12:19:00,1,719,Court Sq,-73.945264,40.747023,1660.6957412137242
12:19:00,1,720,Hunters Point Av,-73.948916,40.742216,1574.6957412137242
12:19:00,1,721,Vernon Blvd-Jackson Av,-73.953581,40.742626,1546.6957412137242
12:19:00,1,723,Grand Central-42 St,-73.976041,40.751431,1343.6957412137242
12:19:00,1,724,5 Av,-73.981963,40.753821,1350.0209700347593
12:19:00,1,725,Times Sq-42 St,-73.987691,40.755477,1271.5642387153318
14:00:00,1,726,34 St-Hudson Yards,-74.00191,40.755882,1428.3035787304116
14:00:00,1,901,Grand Central-42 St,-73.979189,40.752769,1298.6957412137242
14:00:00,1,902,Times Sq-42 St,-73.986229,40.755983,1217.3334700347593
13:34:00,1,A02,Inwood-207 St,-73.919899,40.868072,2741.5708909505774
12:49:00,1,A03,Dyckman St,-73.927271,40.865491,2651.4978982498474
12:49:00,1,A05,190 St,-73.93418,40.859022,2527.9055069455
12:49:00,1,A06,181 St,-73.937969,40.851695,2414.6702128278525
12:49:00,1,A07,175 St,-73.939704,40.847391,2317.949782720326
12:49:00,1,A09,168 St,-73.939561,40.840719,2190.511280046529
13:34:00,1,A10,163 St-Amsterdam Av,-73.939892,40.836013,2211.464875885996
13:34:00,1,A11,155 St,-73.941514,40.830518,2129.631542552663
12:49:00,1,A12,145 St,-73.944216,40.824783,1945.6342746989353
13:34:00,1,A14,135 St,-73.947649,40.817894,1867.4700782444163
12:49:00,1,A15,125 St,-73.952343,40.811109,1720.010618784957
12:08:00,1,A16,116 St,-73.954882,40.805085,1843.8462010156588
12:08:00,1,A17,Cathedral Pkwy (110 St),-73.958161,40.800603,1826.8981678316957
12:08:00,1,A18,103 St,-73.961454,40.796092,1752.9851243534347
12:08:00,1,A19,96 St,-73.964696,40.791642,1664.4532094598176
12:08:00,1,A20,86 St,-73.968916,40.785868,1569.4749485902523
12:08:00,1,A21,81 St-Museum of Natural History,-73.972143,40.781433,1477.6749485902524
12:08:00,1,A22,72 St,-73.97641,40.775594,1387.0662529380784
12:49:00,1,A24,59 St-Columbus Circle,-73.981736,40.768296,1207.238879654522
12:08:00,1,A25,50 St,-73.985984,40.762456,1148.6966877206871
12:49:00,1,A27,42 St-Port Authority Bus Terminal,-73.989735,40.757308,1044.7411321651316
12:49:00,1,A28,34 St-Penn Station,-73.993391,40.752287,932.7124240311604
12:19:00,1,A30,23 St,-73.998041,40.745906,825.8399648421134
12:49:00,1,A31,14 St,-74.00169,40.740893,738.2621870643356
12:49:00,1,A32,W 4 St-Wash Sq,-74.000495,40.732338,618.6526632548118
12:19:00,1,A33,Spring St,-74.003739,40.726227,529.2929278412215
12:19:00,1,A34,Canal St,-74.005229,40.720824,421.5752244919393
13:19:00,1,A36,Chambers St,-74.008585,40.714111,550.0916030534352
12:34:30,1,A38,Fulton St,-74.007691,40.710197,646.2467754672283
12:18:30,1,A40,High St,-73.990531,40.699337,658.8729350593759
12:48:30,1,A41,Jay St-MetroTech,-73.987342,40.692338,531.7297297297298
13:28:30,1,A42,Hoyt-Schermerhorn Sts,-73.985001,40.688484,650.3520802325521
12:29:00,1,A43,Lafayette Av,-73.973946,40.686113,798.480255318543
12:18:30,1,A44,Clinton-Washington Avs,-73.965838,40.683263,883.1438916821793
12:18:30,1,A45,Franklin Av,-73.956848,40.68138,989.2688916821792
13:28:30,1,A46,Nostrand Av,-73.950426,40.680438,961.137396178723
14:00:00,1,A47,Kingston-Throop Avs,-73.940858,40.679921,1061.4915628453896
13:28:30,1,A48,Utica Av,-73.930729,40.679364,1131.9576208978242
12:48:30,1,A49,Ralph Av,-73.920786,40.678822,1242.675012202172
12:48:30,1,A50,Rockaway Av,-73.911946,40.67834,1355.2707568830233
13:28:30,1,A51,Broadway Junction,-73.905316,40.678334,1366.1475650319023
12:08:30,1,A52,Liberty Av,-73.896548,40.674542,1487.5353201339433
12:08:30,1,A53,Van Siclen Av,-73.890358,40.67271,1571.6953201339431
12:08:30,1,A54,Shepherd Av,-73.88075,40.67413,1676.6953201339431
13:28:30,1,A55,Euclid Av,-73.872106,40.675377,1673.842103467182
13:28:30,1,A57,Grant Av,-73.86505,40.677044,1796.02467608129
13:28:30,1,A59,80 St,-73.858992,40.679371,1893.3766760812898
13:28:30,1,A60,88 St,-73.85147,40.679843,1989.3368354438396
13:28:30,1,A61,Rockaway Blvd,-73.843853,40.680429,2079.682073539078
12:38:30,1,A63,104 St,-73.837683,40.681711,2163.354073539078
12:58:30,1,A64,111 St,-73.832163,40.684331,2249.4852210800614
12:58:30,1,A65,Ozone Park-Lefferts Blvd,-73.825798,40.685951,2338.5485122193018
12:19:00,0,B04,21 St-Queensbridge,-73.942836,40.754203,1853.5556922569817
12:19:00,0,B06,Roosevelt Island,-73.95326,40.759145,1713.5791404953195
12:19:00,0,B08,Lexington Av/63 St,-73.966113,40.764629,1455.4366446379338
12:39:00,1,B10,57 St,-73.97745,40.763972,1433.5556922569817
12:08:30,0,B12,9 Av,-73.994324,40.646292,1581.5374082613594
12:08:30,0,B13,Fort Hamilton Pkwy,-73.994304,40.640914,1682.6399723639236
12:08:30,0,B14,50 St,-73.994791,40.63626,1761.6654500709299
12:08:30,0,B15,55 St,-73.995476,40.631435,1861.4234118543693
12:08:30,0,B16,62 St,-73.996895,40.626472,1927.3954398263973
12:08:30,0,B17,71 St,-73.998864,40.619589,2029.88588568627
12:08:30,0,B18,79 St,-74.00061,40.613501,2136.4463952404103
12:08:30,0,B19,18 Av,-74.001736,40.607954,2218.039943627507
12:08:30,0,B20,20 Av,-73.998168,40.604556,2300.0334501210136
12:08:30,0,B21,Bay Pkwy,-73.993728,40.601875,2377.5789046664677
13:48:30,0,B22,25 Av,-73.986829,40.597704,2496.6885820858224
13:48:30,0,B23,Bay 50 St,-73.983765,40.588841,2695.2600106572513
12:49:00,1,D01,Norwood-205 St,-73.878855,40.874811,3228.610222270196
12:49:00,1,D03,Bedford Park Blvd,-73.887138,40.873244,3057.12373578371
12:49:00,1,D04,Kingsbridge Rd,-73.893509,40.866978,2939.96748578371
12:49:00,1,D05,Fordham Rd,-73.897749,40.861296,2845.4360172522415
12:49:00,1,D06,182-183 Sts,-73.900741,40.856093,2758.5021104510784
12:49:00,1,D07,Tremont Av,-73.905227,40.85041,2680.3870662032905
12:49:00,1,D08,174-175 Sts,-73.910136,40.8459,2600.111384931083
12:49:00,1,D09,170 St,-73.9134,40.839306,2506.793264169428
12:49:00,1,D10,167 St,-73.91844,40.833771,2395.617634931083
12:49:00,1,D11,161 St-Yankee Stadium,-73.925651,40.827905,2250.442634931083
12:49:00,1,D12,155 St,-73.938209,40.830135,2125.7142398693545
12:49:00,1,D13,145 St,-73.944216,40.824783,2010.626597502761
12:19:00,1,D14,7 Av,-73.981637,40.762862,1264.7169189577319
12:19:00,1,D15,47-50 Sts-Rockefeller Ctr,-73.981329,40.758663,1226.4296865605036
12:19:00,1,D16,42 St-Bryant Pk,-73.984569,40.754222,1132.7609365605035
12:19:00,2,D17,34 St-Herald Sq,-73.987823,40.749719,1049.528232157988
12:19:00,2,D18,23 St,-73.992821,40.742878,1069.0806910153708
12:19:00,2,D19,14 St,-73.996209,40.738228,955.3074253639326
12:39:00,2,D20,W 4 St-Wash Sq,-74.000495,40.732338,858.6526632548118
12:19:00,2,D21,Broadway-Lafayette St,-73.996204,40.725297,951.9625862609513
12:19:00,2,D22,Grand St,-73.993753,40.718267,1080.3743509668336
12:28:30,0,D24,Atlantic Av-Barclays Ctr,-73.97689,40.68446,912.7909718409562
12:28:30,0,D25,7 Av,-73.972367,40.67705,1043.2521117373294
12:28:30,0,D26,Prospect Park,-73.962246,40.661614,1224.3920081103863
12:28:30,0,D27,Parkside Av,-73.961495,40.655292,1306.2728371259304
12:28:30,0,D28,Church Av,-73.962982,40.650527,1365.689765480496
12:28:30,0,D29,Beverley Rd,-73.964492,40.644031,1472.5614930901304
12:28:30,0,D30,Cortelyou Rd,-73.963891,40.640927,1550.7570238163873
12:28:30,0,D31,Newkirk Plaza,-73.962793,40.635082,1545.2453210360516
12:28:30,0,D32,Avenue H,-73.961639,40.62927,1662.0684275130307
12:28:30,0,D33,Avenue J,-73.960803,40.625039,1749.3890694465942
12:28:30,0,D34,Avenue M,-73.959399,40.617618,1853.5070181645428
12:08:30,0,D35,Kings Hwy,-73.957734,40.60867,1793.400876591607
12:28:30,0,D37,Avenue U,-73.955929,40.5993,2006.870264346709
12:28:30,0,D38,Neck Rd,-73.955161,40.595246,2106.406346820936
12:08:30,0,D39,Sheepshead Bay,-73.954155,40.586896,2029.767543258274
12:28:30,0,D40,Brighton Beach,-73.961376,40.577621,2166.3092099249407
12:28:30,0,D41,Ocean Pkwy,-73.968501,40.576312,2299.320202583485
12:28:30,0,D42,W 8 St-NY Aquarium,-73.975939,40.576127,2347.836573541662
12:28:30,0,D43,Coney Island-Stillwell Av,-73.981233,40.577422,2454.526496022282
12:08:00,1,E01,World Trade Center,-74.009781,40.712582,289.978102189781
12:29:00,0,F01,Jamaica-179 St,-73.783817,40.712646,3317.4000318796234
12:24:00,0,F02,169 St,-73.793604,40.71047,3227.4000318796234
12:24:00,0,F03,Parsons Blvd,-73.803326,40.707564,3137.4000318796234
12:24:00,0,F04,Sutphin Blvd,-73.810708,40.70546,3113.5556922569817
12:24:00,0,F05,Briarwood,-73.820574,40.709179,2993.5556922569817
12:08:00,0,F06,Kew Gardens-Union Tpke,-73.831008,40.714441,2873.5556922569817
12:24:00,0,F07,75 Av,-73.837324,40.718331,2783.5556922569817
12:08:00,1,F09,Court Sq-23 St,-73.946,40.747846,1681.413824975795
12:19:00,1,F11,Lexington Av/53 St,-73.969055,40.757552,1461.1449570512668
12:19:00,1,F12,5 Av/53 St,-73.975224,40.760167,1368.4609947871159
12:18:30,1,F14,2 Av,-73.989938,40.723402,999.8926562745892
12:18:30,1,F15,Delancey St-Essex St,-73.988114,40.718611,891.7297297297298
12:18:30,1,F16,East Broadway,-73.990173,40.713715,801.7297297297298
12:18:30,1,F18,York St,-73.986751,40.701397,621.7297297297298
12:08:30,1,F20,Bergen St,-73.990862,40.686145,680.143485637061
12:08:30,1,F21,Carroll St,-73.995048,40.680303,775.8133420963911
12:08:30,1,F22,Smith-9 Sts,-73.995959,40.67358,918.2268036348526
12:08:30,1,F23,4 Av-9 St,-73.989779,40.670272,1001.6924899093623
12:08:30,1,F24,7 Av,-73.980305,40.666271,951.7297297297298
12:08:30,1,F25,15 St-Prospect Park,-73.979493,40.660365,1119.639313134059
12:08:30,1,F26,Fort Hamilton Pkwy,-73.975776,40.650782,1281.2985310111537
12:08:30,1,F27,Church Av,-73.979678,40.644041,1191.7297297297298
12:08:30,1,F29,Ditmas Av,-73.978172,40.636119,1311.7297297297298
12:08:30,1,F30,18 Av,-73.976971,40.629755,1431.7297297297298
12:08:30,1,F31,Avenue I,-73.976127,40.625322,1491.7297297297298
12:08:30,1,F32,Bay Pkwy,-73.975264,40.620769,1551.7297297297298
12:08:30,1,F33,Avenue N,-73.974197,40.61514,1671.7297297297298
12:08:30,1,F34,Avenue P,-73.973022,40.608944,1761.7297297297298
12:08:30,1,F35,Kings Hwy,-73.972361,40.603217,1935.3918517175225
12:08:30,1,F36,Avenue U,-73.973357,40.596063,2043.9929155473098
12:08:30,1,F38,Avenue X,-73.97425,40.58962,2137.1961241034596
12:18:30,0,F39,Neptune Av,-73.974574,40.581011,2251.668034215819
12:08:00,0,G05,Jamaica Center-Parsons/Archer,-73.801109,40.702147,2942.886695052044
12:08:00,0,G06,Sutphin Blvd-Archer Av-JFK Airport,-73.807969,40.700486,2882.886695052044
12:08:00,0,G07,Jamaica-Van Wyck,-73.816859,40.702566,3173.845029508831
12:24:00,0,G08,Forest Hills-71 Av,-73.844521,40.721691,2663.5556922569817
12:08:00,0,G09,67 Av,-73.852719,40.726523,2798.88612703959
13:04:00,0,G10,63 Dr-Rego Park,-73.861604,40.729846,2735.197217615604
13:04:00,0,G11,Woodhaven Blvd,-73.869229,40.733106,2631.567080629303
13:04:00,0,G12,Grand Av-Newtown,-73.877223,40.737015,2508.692080629303
13:04:00,0,G13,Elmhurst Av,-73.882017,40.742454,2409.1578340539604
12:24:00,0,G14,Jackson Hts-Roosevelt Av,-73.891338,40.746644,2243.5556922569817
12:08:00,0,G15,65 St,-73.898453,40.749669,2411.589253338901
12:08:00,0,G16,Northern Blvd,-73.906006,40.752885,2339.1278093854826
12:08:00,0,G18,46 St,-73.913333,40.756312,2249.1278093854826
12:08:00,0,G19,Steinway St,-73.92074,40.756879,2129.1278093854826
12:08:00,0,G20,36 St,-73.928781,40.752039,2009.1278093854828
14:00:00,0,G21,Queens Plaza,-73.937243,40.748973,1831.5939197625248
12:14:00,2,G22,Court Sq,-73.943832,40.746554,1840.6957412137242
12:04:00,2,G24,21 St,-73.949724,40.744065,1893.0252106226735
12:14:00,2,G26,Greenpoint Av,-73.954449,40.731352,1685.202006202784
12:14:00,2,G28,Nassau Av,-73.951277,40.724635,1590.8393688401466
12:08:30,1,G29,Metropolitan Av,-73.951418,40.712792,1458.7574016270319
12:08:30,1,G30,Broadway,-73.950308,40.706092,1527.6335534456962
12:08:30,1,G31,Flushing Av,-73.950234,40.700377,1435.1846898093327
12:08:30,1,G32,Myrtle-Willoughby Avs,-73.949046,40.694568,1349.014235263878
12:08:30,1,G33,Bedford-Nostrand Avs,-73.953522,40.689627,1247.389235263878
12:08:30,1,G34,Classon Av,-73.96007,40.688873,1170.3947601257564
12:08:30,1,G35,Clinton-Washington Avs,-73.966839,40.688089,1089.301863950893
12:08:30,1,G36,Fulton St,-73.975375,40.687119,992.6297796541658
12:48:30,1,H01,Aqueduct Racetrack,-73.834058,40.668234,2285.713819570824
13:28:30,1,H02,Aqueduct-N Conduit Av,-73.834058,40.668234,2302.9792192319287
13:28:30,1,H03,Howard Beach-JFK Airport,-73.830301,40.660476,2439.9615201168845
13:28:30,1,H04,Broad Channel,-73.815925,40.608382,2868.3825727484636
13:28:30,1,H06,Beach 67 St,-73.796924,40.590927,3163.3914223059855
13:28:30,1,H07,Beach 60 St,-73.788522,40.592374,3275.5844047621263
13:28:30,1,H08,Beach 44 St,-73.776013,40.592943,3388.8997200774415
13:28:30,1,H09,Beach 36 St,-73.768175,40.595398,3484.2747200774415
13:28:30,1,H10,Beach 25 St,-73.761353,40.600066,3590.6997646170917
13:28:30,1,H11,Far Rockaway-Mott Av,-73.755405,40.603995,3671.934111611833
12:08:30,1,H12,Beach 90 St,-73.813641,40.588034,3126.154321362939
12:08:30,1,H13,Beach 98 St,-73.820558,40.585307,3204.554321362939
12:08:30,1,H14,Beach 105 St,-73.827559,40.583209,3280.66543247405
12:08:30,1,H15,Rockaway Park-Beach 116 St,-73.835592,40.580903,3384.8654324740496
12:08:30,2,J12,121 St,-73.828294,40.700492,2642.886695052044
14:00:00,2,J13,111 St,-73.836345,40.697418,2798.6819909645883
14:00:00,2,J14,104 St,-73.84433,40.695178,2462.886695052044
14:00:00,2,J15,Woodhaven Blvd,-73.851576,40.693879,2350.1971422268716
14:00:00,2,J16,85 St-Forest Pkwy,-73.86001,40.692435,2359.661618492312
14:00:00,2,J17,75 St-Elderts Ln,-73.867139,40.691324,2170.1971422268716
14:00:00,2,J19,Cypress Hills,-73.87255,40.689941,2157.411618492312
14:00:00,2,J20,Crescent St,-73.873785,40.683194,2020.1971422268716
14:00:00,2,J21,Norwood Av,-73.880039,40.68141,1952.886695052044
14:00:00,2,J22,Cleveland St,-73.884639,40.679947,1917.0283832499981
14:00:00,2,J23,Van Siclen Av,-73.891688,40.678024,1802.886695052044
14:00:00,2,J24,Alabama Av,-73.898654,40.676992,1711.1971422268716
13:04:00,1,J27,Broadway Junction,-73.904512,40.679498,1598.530475560205
14:00:00,2,J28,Chauncey St,-73.910456,40.682893,1686.9471422268718
13:04:00,1,J29,Halsey St,-73.916559,40.68637,1817.7757142276478
13:04:00,1,J30,Gates Av,-73.92227,40.68963,1690.807325809264
13:04:00,1,J31,Kosciuszko St,-73.928814,40.693342,1678.6879708471997
12:08:00,1,L01,8 Av,-74.002578,40.739777,902.0836172706345
12:08:00,1,L02,6 Av,-73.996786,40.737335,936.7561598772822
12:08:00,1,L03,14 St-Union Sq,-73.99073,40.734789,860.4580232313194
14:00:00,1,L05,3 Av,-73.986122,40.732849,914.3862451947155
14:00:00,1,L06,1 Av,-73.981628,40.730953,961.9082577733319
14:00:00,1,L08,Bedford Av,-73.956872,40.717304,1163.7584901711018
14:00:00,1,L10,Lorimer St,-73.950275,40.714063,1245.543117445437
14:00:00,1,L11,Graham Av,-73.944053,40.714565,1280.3075618898815
14:00:00,1,L12,Grand St,-73.94067,40.711926,1360.0527848198178
14:00:00,1,L13,Montrose Av,-73.93985,40.707739,1396.0747973984342
14:00:00,1,L14,Morgan Av,-73.933147,40.706152,1475.3448643637626
14:00:00,1,L15,Jefferson St,-73.922913,40.706607,1559.2265211684962
14:00:00,1,L16,DeKalb Av,-73.918425,40.703811,1624.9283283974119
14:00:00,1,L17,Myrtle-Wyckoff Avs,-73.911586,40.699814,1695.9373918415206
14:00:00,1,L19,Halsey St,-73.904084,40.695602,1740.0013649054936
12:08:30,2,L20,Wilson Av,-73.904046,40.688764,1746.1030237576351
12:08:30,2,L21,Bushwick Av-Aberdeen St,-73.905249,40.682829,1661.7662182020797
12:08:30,2,L22,Broadway Junction,-73.90324,40.678856,1591.169363919275
12:08:30,2,L24,Atlantic Av,-73.903097,40.675345,1662.3873569988598
12:08:30,2,L25,Sutter Av,-73.901975,40.669367,1739.619175180678
12:08:30,2,L26,Livonia Av,-73.900571,40.664038,1798.574501641159
12:08:30,2,L27,New Lots Av,-73.899232,40.658733,1883.8219243215715
12:08:30,2,L28,East 105 St,-73.899485,40.650573,1993.8337244388267
12:08:30,2,L29,Canarsie-Rockaway Pkwy,-73.90185,40.646654,2069.7377935495874
12:04:00,1,M01,Middle Village-Metropolitan Av,-73.889601,40.711396,2315.5744159775486
12:04:00,1,M04,Fresh Pond Rd,-73.895877,40.706186,2174.0610826442153
12:04:00,1,M05,Forest Av,-73.903077,40.704423,2065.903187907373
12:29:00,2,M06,Seneca Av,-73.90774,40.702762,1971.5389494967774
12:04:00,1,M08,Myrtle-Wyckoff Avs,-73.912385,40.69943,1889.3113632898808
12:04:00,1,M09,Knickerbocker Av,-73.919711,40.698664,1779.9801944587118
12:04:00,1,M10,Central Av,-73.927397,40.697857,1687.7995492974214
13:04:00,1,M11,Myrtle Av,-73.935657,40.697207,1523.6406591425973
12:34:30,1,M12,Flushing Av,-73.941126,40.70026,1524.62406356702
12:34:30,1,M13,Lorimer St,-73.947408,40.703869,1432.841885349198
12:34:30,1,M14,Hewes St,-73.953431,40.70687,1334.1045116118244
12:34:30,1,M16,Marcy Av,-73.957757,40.708359,1242.4945116118245
12:34:30,1,M18,Delancey St-Essex St,-73.987437,40.718315,880.6520873694002
12:34:30,1,M19,Bowery,-73.993915,40.72028,800.5162849002645
14:00:00,1,M20,Canal St,-73.999892,40.718092,702.5284800222157
14:00:00,1,M21,Chambers St,-74.003401,40.713243,809.8906591425973
14:00:00,1,M22,Fulton St,-74.007582,40.710374,882.612498223564
14:00:00,1,M23,Broad St,-74.011056,40.706476,952.4134421338949
12:08:30,0,N02,8 Av,-74.011719,40.635064,1756.8749999999998
12:08:30,0,N03,Fort Hamilton Pkwy,-74.005351,40.631386,1851.875
12:08:30,0,N04,New Utrecht Av,-73.996353,40.624842,1991.8749999999998
12:08:30,0,N05,18 Av,-73.990414,40.620671,2081.875
12:08:30,0,N06,20 Av,-73.985026,40.61741,2151.8749999999995
12:08:30,0,N07,Bay Pkwy,-73.981848,40.611815,2241.8749999999995
12:08:30,0,N08,Kings Hwy,-73.980353,40.603923,2361.8749999999995
12:08:30,0,N09,Avenue U,-73.979137,40.597473,2461.8749999999995
12:08:30,0,N10,86 St,-73.97823,40.592721,2521.8749999999995
12:04:00,0,Q01,Canal St,-74.00046,40.718383,619.3897459199666
12:19:00,0,Q03,72 St,-73.958424,40.768799,1573.1033113046005
12:19:00,0,Q04,86 St,-73.951787,40.777891,1711.436644637934
12:19:00,0,Q05,96 St,-73.947152,40.784318,1782.436644637934
12:04:00,0,R01,Astoria-Ditmars Blvd,-73.912034,40.775036,2435.6547138924902
12:04:00,0,R03,Astoria Blvd,-73.917843,40.770258,2334.4764960707084
12:04:00,0,R04,30 Av,-73.921479,40.766779,2234.623162737375
12:04:00,0,R05,Broadway,-73.925508,40.76182,2138.090695204907
12:04:00,0,R06,36 Av,-73.929575,40.756804,2033.114924855352
12:04:00,0,R08,39 Av-Dutch Kills,-73.932755,40.752882,1937.9285899417496
12:04:00,0,R09,Queensboro Plaza,-73.940202,40.750582,1747.5652714496862
14:00:00,0,R11,Lexington Av/59 St,-73.967258,40.76266,1491.1037854950896
14:00:00,0,R13,5 Av/59 St,-73.973347,40.764811,1403.0459342554202
12:19:00,0,R14,57 St-7 Av,-73.980658,40.764664,1277.1033113046005
12:04:00,0,R15,49 St,-73.984139,40.759901,1150.1033113046005
12:19:00,0,R16,Times Sq-42 St,-73.986754,40.754672,1037.3334700347593
12:19:00,0,R17,34 St-Herald Sq,-73.98795,40.749567,938.5556922569815
12:04:00,0,R18,28 St,-73.988691,40.745494,831.7446686349342
12:04:00,0,R19,23 St,-73.989344,40.741303,755.5594834497491
12:04:00,0,R20,14 St-Union Sq,-73.990568,40.735736,646.496983449749
12:04:00,0,R21,8 St-NYU,-73.992629,40.730328,540.773673155203
12:04:00,0,R22,Prince St,-73.997702,40.724329,457.961173155203
12:04:00,0,R23,Canal St,-74.001775,40.719527,356.8073270013569
12:04:00,0,R24,City Hall,-74.006978,40.713282,205.25508819538672
12:04:00,0,R25,Cortlandt St,-74.011029,40.710668,95.0909090909091
12:19:00,0,R26,Rector St,-74.013342,40.70722,0.0
12:02:00,0,R27,Whitehall St-South Ferry,-74.012994,40.703087,66.72972972972973
12:08:30,0,R28,Court St,-73.991777,40.6941,276.72972972972974
12:08:30,0,R29,Jay St-MetroTech,-73.985942,40.69218,396.72972972972974
12:08:30,0,R30,DeKalb Av,-73.981824,40.690635,516.7297297297298
12:08:30,0,R31,Atlantic Av-Barclays Ctr,-73.97881,40.683666,681.875
12:08:30,0,R32,Union St,-73.98311,40.677316,804.375
12:08:30,0,R33,4 Av-9 St,-73.988302,40.670847,926.875
12:08:30,0,R34,Prospect Av,-73.992872,40.665414,993.8749999999999
12:08:30,0,R35,25 St,-73.998091,40.660397,1071.875
12:08:30,0,R36,36 St,-74.003549,40.655144,1196.8749999999998
12:08:30,0,R39,45 St,-74.010006,40.648939,1375.1898971178446
12:08:30,0,R40,53 St,-74.014034,40.645069,1470.3744209273684
12:08:30,0,R41,59 St,-74.017881,40.641362,1601.8749999999998
12:08:30,0,R42,Bay Ridge Av,-74.023377,40.634967,1726.993279595574
12:08:30,0,R43,77 St,-74.02551,40.629742,1807.2660068683012
12:08:30,0,R44,86 St,-74.028398,40.622687,1980.7722218508557
12:38:30,0,R45,Bay Ridge-95 St,-74.030876,40.616622,2060.6329453759877
12:08:30,0,S01,Franklin Av,-73.955827,40.680596,1169.2688916821792
12:08:30,0,S03,Park Pl,-73.957624,40.674772,1292.1438916821792
12:08:30,0,S04,Botanic Garden,-73.959245,40.670343,1256.416958625467
