start_time,ntransfers,stop_id,stop_name,stop_lon,stop_lat,duration
12:15:00,0,101,Van Cortlandt Park-242 St,-73.898583,40.889248,3986.078310098678
12:15:00,0,103,238 St,-73.90087,40.884667,3879.327561915694
12:15:00,0,104,231 St,-73.904834,40.878856,3784.4924555327148
12:15:00,0,106,Marble Hill-225 St,-73.909831,40.874561,3691.0205890212674
12:15:00,0,107,215 St,-73.915279,40.869444,3582.8960255754
12:15:00,0,108,207 St,-73.918822,40.864621,3503.911230253763
12:15:00,0,109,Dyckman St,-73.925536,40.860531,3405.8746031962714
12:15:00,0,110,191 St,-73.929412,40.855225,3315.655555577224
12:15:00,0,111,181 St,-73.933596,40.849505,3220.4109668326355
12:15:00,0,112,168 St-Washington Hts,-73.940133,40.840556,3099.5606414530257
12:15:00,0,113,157 St,-73.94489,40.834041,3150.3492428767763
12:15:00,0,114,145 St,-73.95036,40.826551,3032.218192109362
12:15:00,0,115,137 St-City College,-73.953676,40.822008,2951.724060178969
12:15:00,0,116,125 St,-73.958372,40.815581,2839.734276288989
12:15:00,0,117,116 St-Columbia University,-73.96411,40.807722,2717.580312290521
12:15:00,0,118,Cathedral Pkwy (110 St),-73.966847,40.803967,2650.0954399918955
12:15:00,0,119,103 St,-73.968379,40.799446,2568.1651533923605
12:07:00,0,120,96 St,-73.972323,40.793919,2190.5872266434303
12:15:00,0,121,86 St,-73.976218,40.788644,2314.5914529408938
12:15:00,0,122,79 St,-73.979917,40.783934,2390.6842799451133
12:07:00,0,123,72 St,-73.98197,40.778453,2380.263109899959
12:23:00,0,124,66 St-Lincoln Center,-73.982209,40.77344,2513.156630161895
12:23:00,0,125,59 St-Columbus Circle,-73.981929,40.768247,2611.1301535834837
12:23:00,0,126,50 St,-73.983849,40.761728,2709.913696347975
12:07:00,0,127,Times Sq-42 St,-73.987495,40.75529,2637.038204758208
12:07:00,0,128,34 St-Penn Station,-73.991057,40.750373,2746.6909990507165
12:15:00,0,129,28 St,-73.993365,40.747215,2889.1788781113864
12:15:00,0,130,23 St,-73.995657,40.744081,2957.806108522558
12:15:00,0,131,18 St,-73.997871,40.74104,3026.246621741843
12:07:00,0,132,14 St,-74.000201,40.737826,2911.178439242104
12:15:00,0,133,Christopher St-Sheridan Sq,-74.002906,40.733422,3199.5285116507052
12:15:00,0,134,Houston St,-74.005367,40.728251,3282.6787870244266
12:15:00,0,135,Canal St,-74.006277,40.722854,3369.9541321920797
12:07:00,0,136,Franklin St,-74.006886,40.719318,3434.7066232243633
12:07:00,0,137,Chambers St,-74.009266,40.715478,3179.710123007946
12:07:00,0,138,WTC Cortlandt,-74.012188,40.711835,3496.2132056596697
12:07:00,0,139,Rector St,-74.013783,40.707513,3577.069578987651
12:07:00,0,142,South Ferry,-74.013664,40.702068,3681.790000381492
12:14:30,0,201,Wakefield-241 St,-73.85062,40.903125,644.6724652895153
12:37:30,0,204,Nereid Av,-73.854376,40.898379,536.4084169511468
12:37:30,0,205,233 St,-73.857473,40.893193,440.8122420877589
12:37:30,0,206,225 St,-73.860341,40.888022,353.25186073182664
12:02:30,0,207,219 St,-73.862633,40.883895,277.35690051962507
12:37:30,0,208,Gun Hill Rd,-73.866256,40.87785,180.49466014279503
12:02:30,0,209,Burke Av,-73.867164,40.871356,87.43046357615894
12:02:30,0,210,Allerton Av,-73.867352,40.865462,0.0
12:07:00,0,211,Pelham Pkwy,-73.867615,40.857192,107.85962225625319
12:07:00,0,212,Bronx Park East,-73.868457,40.848828,222.64313205388257
12:07:00,0,213,E 180 St,-73.873488,40.841894,393.2383164030172
12:07:00,0,214,West Farms Sq-E Tremont Av,-73.880049,40.840295,539.253913283641
12:07:00,0,215,174 St,-73.887734,40.837288,654.6483785606191
12:07:00,0,216,Freeman St,-73.891865,40.829993,767.9325622340886
12:07:00,0,217,Simpson St,-73.893064,40.824073,889.0705459408096
12:07:00,0,218,Intervale Av,-73.896736,40.822181,967.9344710414483
12:07:00,0,219,Prospect Av,-73.90177,40.819585,1049.2056374120818
12:07:00,0,220,Jackson Av,-73.907807,40.81649,1144.8809467815572
12:07:00,0,221,3 Av-149 St,-73.917757,40.816109,1265.0362133383192
12:07:00,0,222,149 St-Grand Concourse,-73.926718,40.81841,1397.882991898146
12:07:00,0,224,135 St,-73.94077,40.814229,1642.8952938238424
12:07:00,0,225,125 St,-73.945495,40.807754,1756.4283197482853
12:07:00,0,226,116 St,-73.949625,40.802098,1858.926266360195
12:07:00,0,227,Central Park North (110 St),-73.951822,40.799075,1933.6844630815065
12:07:00,0,228,Park Place,-74.008811,40.713051,3278.570374053971
12:07:00,0,229,Fulton St,-74.006571,40.709416,3402.6469202878966
12:07:00,0,230,Wall St,-74.0091,40.706821,3486.069524710501
12:07:00,0,231,Clark St,-73.993086,40.697466,3682.7784681553217
12:07:00,0,232,Borough Hall,-73.989998,40.693219,3782.4106590450483
12:07:00,0,233,Hoyt St,-73.985065,40.690545,3876.229742068592
12:07:00,1,234,Nevins St,-73.980492,40.688246,3728.8701354871328
12:07:00,1,235,Atlantic Av-Barclays Ctr,-73.977666,40.684359,3840.5125935876918
12:07:00,1,236,Bergen St,-73.975098,40.680829,3949.631751150548
12:07:00,1,237,Grand Army Plaza,-73.971046,40.675235,4063.6985527699817
12:07:00,1,238,Eastern Pkwy-Brooklyn Museum,-73.964375,40.671987,4167.152486865475
12:07:00,1,239,Franklin Av-Medgar Evers College,-73.958131,40.670682,4088.6765485313713
12:07:00,0,241,President St-Medgar Evers College,-73.950683,40.667883,4288.126280434856
12:07:00,0,242,Sterling St,-73.95085,40.662742,4382.957824059018
12:07:00,0,243,Winthrop St,-73.9502,40.656652,4476.562928155727
12:07:00,0,244,Church Av,-73.949575,40.650843,4560.605524504611
13:51:00,0,245,Beverly Rd,-73.948959,40.645098,4666.781660868248
13:51:00,0,246,Newkirk Av-Little Haiti,-73.948411,40.639967,4788.817813664973
13:51:00,0,247,Flatbush Av-Brooklyn College,-73.947642,40.632836,4950.904235012773
12:07:00,0,248,Nostrand Av,-73.950466,40.669847,4312.421875529735
12:07:00,0,249,Kingston Av,-73.942161,40.669399,4408.532418358713
12:07:00,1,250,Crown Hts-Utica Av,-73.932942,40.668897,4429.95418797202
12:07:00,0,251,Sutter Av-Rutland Rd,-73.92261,40.664717,4578.392596224325
12:07:00,0,252,Saratoga Av,-73.916327,40.661453,4682.806697711505
12:07:00,0,253,Rockaway Av,-73.908946,40.662549,4770.683304395309
12:07:00,0,254,Junius St,-73.902447,40.663515,4694.05558561052
12:07:00,0,255,Pennsylvania Av,-73.894895,40.664635,4803.739778069825
12:07:00,0,256,Van Siclen Av,-73.889395,40.665449,4883.769082345181
12:07:00,0,257,New Lots Av,-73.884079,40.666235,4980.687728467663
12:07:00,0,301,Harlem-148 St,-73.93647,40.82388,2079.5847704777893
12:07:00,0,302,145 St,-73.936245,40.820421,1963.024748750467
12:07:00,1,401,Woodlawn,-73.878751,40.886037,2976.730358586101
12:07:00,1,402,Mosholu Pkwy,-73.884655,40.87975,2854.3233873190256
12:07:00,1,405,Bedford Park Blvd-Lehman College,-73.890064,40.873412,2731.2650539856927
12:07:00,1,406,Kingsbridge Rd,-73.897174,40.86776,2621.464961649589
12:07:00,1,407,Fordham Rd,-73.901034,40.862803,2527.8952952416407
12:07:00,1,408,183 St,-73.903879,40.858407,2443.2985032062425
12:07:00,1,409,Burnside Av,-73.907684,40.853453,2342.021009600104
12:07:00,1,410,176 St,-73.911794,40.84848,2258.6552782693366
12:07:00,1,411,Mt Eden Av,-73.914685,40.844434,2178.3011207682366
12:07:00,1,412,170 St,-73.917791,40.840075,2096.297587199332
12:07:00,1,413,167 St,-73.9214,40.835537,2004.4573924228823
12:07:00,1,414,161 St-Yankee Stadium,-73.925831,40.827994,1844.1195425056608
12:07:00,1,415,149 St-Grand Concourse,-73.927351,40.818375,1666.2053595662978
12:07:00,1,416,138 St-Grand Concourse,-73.929849,40.813224,1571.374517321875
12:07:00,1,418,Fulton St,-74.009509,40.710368,3128.9996641446064
12:07:00,1,419,Wall St,-74.011862,40.707557,3221.4887320387375
12:07:00,1,420,Bowling Green,-74.014065,40.704817,3314.5321348165153
12:07:00,1,423,Borough Hall,-73.990151,40.692404,3570.054329637724
13:43:00,0,501,Eastchester-Dyre Av,-73.830834,40.8883,1151.2466182849457
12:39:00,0,502,Baychester Av,-73.838591,40.878663,1020.5726931034828
12:39:00,0,503,Gun Hill Rd,-73.846384,40.869526,891.5606515052343
12:39:00,0,504,Pelham Pkwy,-73.855359,40.858985,754.5672557980246
12:39:00,0,505,Morris Park,-73.860495,40.854364,667.0848831063626
13:35:00,0,601,Pelham Bay Park,-73.828121,40.852462,3523.8635925874382
13:35:00,0,602,Buhre Av,-73.832569,40.84681,3346.600434692701
13:35:00,0,603,Middletown Rd,-73.836322,40.843863,3276.307331244425
13:35:00,0,604,Westchester Sq-E Tremont Av,-73.842952,40.839892,3144.1308606561897
13:35:00,0,606,Zerega Av,-73.847036,40.836488,3057.0808606561895
13:35:00,0,607,Castle Hill Av,-73.851222,40.834255,2987.8349590168455
12:23:00,0,608,Parkchester,-73.860816,40.833226,2802.421165913397
12:23:00,0,609,St Lawrence Av,-73.867618,40.831509,3046.2814985761956
12:23:00,0,610,Morrison Av-Soundview,-73.874516,40.829521,2945.1304545957423
12:23:00,0,611,Elder Av,-73.879159,40.828584,2872.4050501357506
12:23:00,0,612,Whitlock Av,-73.886283,40.826525,2759.700288230989
12:07:00,1,613,Hunts Point Av,-73.890549,40.820948,2530.0211659133975
12:07:00,1,614,Longwood Av,-73.896435,40.816104,2647.271185614917
12:07:00,1,615,E 149 St,-73.904098,40.812118,2544.500403519492
12:07:00,1,616,E 143 St-St Mary's St,-73.907657,40.808719,2467.82630743232
12:07:00,1,617,Cypress Av,-73.914042,40.805368,2364.782656638669
12:07:00,1,618,Brook Av,-73.91924,40.807566,2293.083849481611
12:07:00,1,619,3 Av-138 St,-73.926138,40.810476,2162.3757758424754
12:07:00,1,621,125 St,-73.937594,40.804138,1727.9777449234332
12:07:00,1,622,116 St,-73.941617,40.798629,2058.271288360189
12:07:00,1,623,110 St,-73.94425,40.79502,2138.821623930659
12:07:00,1,624,103 St,-73.947478,40.7906,2217.861359029997
12:07:00,1,625,96 St,-73.95107,40.785672,2307.631095872102
12:07:00,1,626,86 St,-73.955589,40.779492,2018.9982435383918
12:07:00,1,627,77 St,-73.959874,40.77362,2454.356732197081
12:07:00,1,628,68 St-Hunter College,-73.96387,40.768141,2544.4942321970807
12:07:00,1,629,59 St,-73.967967,40.762526,2236.2686345998445
12:07:00,1,630,51 St,-73.97192,40.757107,2573.9013508418434
12:07:00,1,631,Grand Central-42 St,-73.976848,40.751776,2424.370538295253
12:07:00,1,632,33 St,-73.982076,40.746081,2660.341204082992
12:07:00,1,633,28 St,-73.984264,40.74307,2730.162667817813
12:07:00,1,634,23 St,-73.986599,40.739864,2797.400420920361
12:07:00,1,635,14 St-Union Sq,-73.989951,40.734673,2697.1556112469925
12:07:00,1,636,Astor Pl,-73.99107,40.730054,3001.1185742099556
12:07:00,1,637,Bleecker St,-73.994659,40.725915,3094.576468946798
12:07:00,1,638,Spring St,-73.997141,40.722301,3165.8330134494154
12:07:00,1,639,Canal St,-74.000193,40.718803,3162.431131981411
12:07:00,1,640,Brooklyn Bridge-City Hall,-74.004131,40.713065,3009.716656107867
12:07:00,2,701,Flushing-Main St,-73.83003,40.7596,4042.6205402407463
12:07:00,2,702,Mets-Willets Point,-73.845625,40.754622,3877.597886519063
12:07:00,2,705,111 St,-73.855334,40.75173,3933.4870739317403
12:07:00,2,706,103 St-Corona Plaza,-73.8627,40.749865,3854.579704087251
12:07:00,2,707,Junction Blvd,-73.869527,40.749145,3653.8939643896524
12:07:00,2,708,90 St-Elmhurst Av,-73.876613,40.748408,3741.8177001644285
12:39:00,2,709,82 St-Jackson Hts,-73.883697,40.747659,3636.7569567374117
12:07:00,3,710,74 St-Broadway,-73.891394,40.746848,3502.2299808345238
12:07:00,3,711,69 St,-73.896403,40.746325,3433.2934943480373
12:07:00,3,712,61 St-Woodside,-73.902984,40.74563,3351.373971822046
12:07:00,1,713,52 St,-73.912549,40.744149,3197.0091920232408
12:07:00,1,714,46 St-Bliss St,-73.918435,40.743132,3140.7197183390304
12:07:00,1,715,40 St-Lowery St,-73.924016,40.743781,3082.414035216183
12:07:00,1,716,33 St-Rawson St,-73.930997,40.744587,2998.0220233818636
12:07:00,1,718,Queensboro Plaza,-73.940202,40.750582,2853.7403907288026
12:07:00,1,719,Court Sq,-73.945264,40.747023,2900.756405875815
12:07:00,1,720,Hunters Point Av,-73.948916,40.742216,2801.2817384543596
12:07:00,1,721,Vernon Blvd-Jackson Av,-73.953581,40.742626,2758.304246492945
12:07:00,2,723,Grand Central-42 St,-73.976041,40.751431,2544.370538295253
12:07:00,2,724,5 Av,-73.981963,40.753821,2614.688838705242
12:07:00,2,725,Times Sq-42 St,-73.987691,40.755477,2700.0266579058234
12:07:00,1,726,34 St-Hudson Yards,-74.00191,40.755882,2844.6288476868453
12:07:00,1,901,Grand Central-42 St,-73.979189,40.752769,2484.370538295253
12:07:00,2,902,Times Sq-42 St,-73.986229,40.755983,2582.2012442582413
13:27:00,1,A02,Inwood-207 St,-73.919899,40.868072,3452.158060927453
13:27:00,1,A03,Dyckman St,-73.927271,40.865491,3352.4192341118105
13:27:00,1,A05,190 St,-73.93418,40.859022,3222.039223128834
13:27:00,1,A06,181 St,-73.937969,40.851695,3109.1543112345603
13:27:00,1,A07,175 St,-73.939704,40.847391,3016.3693057218816
12:07:00,3,A09,168 St,-73.939561,40.840719,2874.071510240791
12:07:00,3,A10,163 St-Amsterdam Av,-73.939892,40.836013,2787.459569942284
12:07:00,3,A11,155 St,-73.941514,40.830518,2702.5897430047366
12:31:00,2,A12,145 St,-73.944216,40.824783,2541.457230799024
12:31:00,2,A14,135 St,-73.947649,40.817894,2445.504849846643
13:51:00,2,A15,125 St,-73.952343,40.811109,2577.1920805649656
12:07:00,2,A16,116 St,-73.954882,40.805085,2715.130501189824
12:07:00,2,A17,Cathedral Pkwy (110 St),-73.958161,40.800603,2796.243294528204
12:07:00,2,A18,103 St,-73.961454,40.796092,2882.67250801135
12:23:00,1,A19,96 St,-73.964696,40.791642,2969.7994802127023
12:23:00,1,A20,86 St,-73.968916,40.785868,3070.6071725203947
12:23:00,1,A21,81 St-Museum of Natural History,-73.972143,40.781433,3070.155410592606
12:23:00,1,A22,72 St,-73.97641,40.775594,2970.7570031766695
12:15:00,1,A24,59 St-Columbus Circle,-73.981736,40.768296,2839.8414940108823
13:35:00,1,A25,50 St,-73.985984,40.762456,2802.709826222655
13:35:00,1,A27,42 St-Port Authority Bus Terminal,-73.989735,40.757308,2700.0266579058234
13:51:00,1,A28,34 St-Penn Station,-73.993391,40.752287,2801.822923693852
13:51:00,1,A30,23 St,-73.998041,40.745906,2904.3121873757827
13:51:00,1,A31,14 St,-74.00169,40.740893,2950.5977034295342
13:51:00,1,A32,W 4 St-Wash Sq,-74.000495,40.732338,3085.3264327113025
13:51:00,1,A33,Spring St,-74.003739,40.726227,3251.236796336595
13:51:00,1,A34,Canal St,-74.005229,40.720824,3266.6679658920807
12:47:00,1,A36,Chambers St,-74.008585,40.714111,3389.899087173545
12:31:00,1,A38,Fulton St,-74.007691,40.710197,3368.9996641446064
12:07:00,2,A40,High St,-73.990531,40.699337,3561.1579713546375
12:07:00,2,A41,Jay St-MetroTech,-73.987342,40.692338,3695.845126594985
12:07:00,2,A42,Hoyt-Schermerhorn Sts,-73.985001,40.688484,3817.9398385129007
12:31:00,1,A43,Lafayette Av,-73.973946,40.686113,3954.3957680000804
12:31:00,1,A44,Clinton-Washington Avs,-73.965838,40.683263,4039.395768000081
12:31:00,1,A45,Franklin Av,-73.956848,40.68138,4145.114743180225
12:07:00,2,A46,Nostrand Av,-73.950426,40.680438,4109.162739514427
12:31:00,1,A47,Kingston-Throop Avs,-73.940858,40.679921,4214.142151279133
12:07:00,2,A48,Utica Av,-73.930729,40.679364,4284.618421332609
12:31:00,1,A49,Ralph Av,-73.920786,40.678822,4394.293500196963
12:55:00,1,A50,Rockaway Av,-73.911946,40.67834,4444.98755283975
12:07:00,2,A51,Broadway Junction,-73.905316,40.678334,4355.743375529457
12:47:00,1,A52,Liberty Av,-73.896548,40.674542,4493.759070596721
12:47:00,1,A53,Van Siclen Av,-73.890358,40.67271,4589.917516037678
12:47:00,1,A54,Shepherd Av,-73.88075,40.67413,4691.415634924058
12:07:00,2,A55,Euclid Av,-73.872106,40.675377,4673.070830248236
12:07:00,2,A57,Grant Av,-73.86505,40.677044,4803.277511762713
12:07:00,2,A59,80 St,-73.858992,40.679371,4900.784155568971
12:07:00,2,A60,88 St,-73.85147,40.679843,4999.97379597993
12:07:00,2,A61,Rockaway Blvd,-73.843853,40.680429,5093.39771368246
12:07:00,2,A63,104 St,-73.837683,40.681711,5184.445664859442
12:07:00,2,A64,111 St,-73.832163,40.684331,5275.581043920814
12:07:00,2,A65,Ozone Park-Lefferts Blvd,-73.825798,40.685951,5386.459503607939
12:07:00,2,B04,21 St-Queensbridge,-73.942836,40.754203,2867.8363197618605
12:07:00,2,B06,Roosevelt Island,-73.95326,40.759145,2759.4904550540723
12:07:00,2,B08,Lexington Av/63 St,-73.966113,40.764629,2667.7392194692293
12:07:00,2,B10,57 St,-73.97745,40.763972,2817.7392194692293
12:39:00,1,B12,9 Av,-73.994324,40.646292,4738.2898061330325
12:39:00,1,B13,Fort Hamilton Pkwy,-73.994304,40.640914,4840.104699750053
12:39:00,1,B14,50 St,-73.994791,40.63626,4920.8646429318715
12:39:00,1,B15,55 St,-73.995476,40.631435,5023.893092434005
12:39:00,1,B16,62 St,-73.996895,40.626472,5088.841474560352
12:39:00,1,B17,71 St,-73.998864,40.619589,5191.738764146658
12:39:00,1,B18,79 St,-74.00061,40.613501,5296.189548740096
12:39:00,1,B19,18 Av,-74.001736,40.607954,5380.673120168667
12:39:00,1,B20,20 Av,-73.998168,40.604556,5465.884699868453
12:39:00,1,B21,Bay Pkwy,-73.993728,40.601875,5547.042632388195
13:19:00,1,B22,25 Av,-73.986829,40.597704,5673.848784033402
13:19:00,1,B23,Bay 50 St,-73.983765,40.588841,5899.751762259326
12:39:00,2,D01,Norwood-205 St,-73.878855,40.874811,3064.0593236028603
12:39:00,2,D03,Bedford Park Blvd,-73.887138,40.873244,2904.461766077717
12:39:00,2,D04,Kingsbridge Rd,-73.893509,40.866978,2785.921381462332
12:39:00,2,D05,Fordham Rd,-73.897749,40.861296,2685.788495556292
12:39:00,2,D06,182-183 Sts,-73.900741,40.856093,2600.6157082760756
12:39:00,2,D07,Tremont Av,-73.905227,40.85041,2517.015334793349
12:39:00,2,D08,174-175 Sts,-73.910136,40.8459,2423.8049082530647
12:39:00,2,D09,170 St,-73.9134,40.839306,2318.261098729255
12:39:00,2,D10,167 St,-73.91844,40.833771,2212.118241586398
13:27:00,2,D11,161 St-Yankee Stadium,-73.925651,40.827905,2097.9274901413114
12:31:00,2,D12,155 St,-73.938209,40.830135,2221.153977665304
12:31:00,2,D13,145 St,-73.944216,40.824783,2349.0213824650523
13:11:00,1,D14,7 Av,-73.981637,40.762862,2896.2358736455544
12:07:00,2,D15,47-50 Sts-Rockefeller Ctr,-73.981329,40.758663,2907.7392194692293
12:07:00,2,D16,42 St-Bryant Pk,-73.984569,40.754222,2839.688838705242
12:07:00,2,D17,34 St-Herald Sq,-73.987823,40.749719,2919.611713376583
12:07:00,2,D18,23 St,-73.992821,40.742878,3036.9208905836754
12:07:00,2,D19,14 St,-73.996209,40.738228,3117.1153449169215
12:39:00,1,D20,W 4 St-Wash Sq,-74.000495,40.732338,3112.943074055181
12:39:00,1,D21,Broadway-Lafayette St,-73.996204,40.725297,3264.605690877611
13:03:00,1,D22,Grand St,-73.993753,40.718267,3410.4582730372354
12:15:00,1,D24,Atlantic Av-Barclays Ctr,-73.97689,40.68446,3972.287265548922
12:07:00,2,D25,7 Av,-73.972367,40.67705,4121.402946782856
12:07:00,2,D26,Prospect Park,-73.962246,40.661614,4328.981346262361
12:15:00,1,D27,Parkside Av,-73.961495,40.655292,4424.852929224853
12:07:00,2,D28,Church Av,-73.962982,40.650527,4540.1666174377815
12:15:00,1,D29,Beverley Rd,-73.964492,40.644031,4603.57255803184
12:15:00,1,D30,Cortelyou Rd,-73.963891,40.640927,4681.709587987226
12:07:00,2,D31,Newkirk Plaza,-73.962793,40.635082,4762.258314940932
12:15:00,1,D32,Avenue H,-73.961639,40.62927,4875.583093984846
12:15:00,1,D33,Avenue J,-73.960803,40.625039,4972.4676353575205
12:15:00,1,D34,Avenue M,-73.959399,40.617618,5083.27398456387
12:07:00,2,D35,Kings Hwy,-73.957734,40.60867,5027.653687174333
12:07:00,2,D37,Avenue U,-73.955929,40.5993,5247.001930289199
12:07:00,2,D38,Neck Rd,-73.955161,40.595246,5351.099687620998
12:07:00,2,D39,Sheepshead Bay,-73.954155,40.586896,5293.937569202896
12:07:00,2,D40,Brighton Beach,-73.961376,40.577621,5441.265054583013
12:07:00,2,D41,Ocean Pkwy,-73.968501,40.576312,5587.63091892223
12:07:00,2,D42,W 8 St-NY Aquarium,-73.975939,40.576127,5702.180599340592
12:07:00,2,D43,Coney Island-Stillwell Av,-73.981233,40.577422,5790.9465567874
12:39:00,1,E01,World Trade Center,-74.009781,40.712582,3394.369181190129
12:07:00,2,F01,Jamaica-179 St,-73.783817,40.712646,4497.739219469229
12:23:00,1,F02,169 St,-73.793604,40.71047,4407.739219469229
12:07:00,2,F03,Parsons Blvd,-73.803326,40.707564,4287.739219469229
12:07:00,2,F04,Sutphin Blvd,-73.810708,40.70546,4197.739219469229
12:07:00,2,F05,Briarwood,-73.820574,40.709179,4077.7392194692293
12:07:00,2,F06,Kew Gardens-Union Tpke,-73.831008,40.714441,3957.7392194692293
12:07:00,2,F07,75 Av,-73.837324,40.718331,3867.7392194692293
12:07:00,2,F09,Court Sq-23 St,-73.946,40.747846,3000.2866316026953
12:23:00,1,F11,Lexington Av/53 St,-73.969055,40.757552,2809.3775406936043
12:23:00,1,F12,5 Av/53 St,-73.975224,40.760167,2883.6525406936044
12:39:00,1,F14,2 Av,-73.989938,40.723402,3398.380002374786
12:39:00,1,F15,Delancey St-Essex St,-73.988114,40.718611,3497.494531480323
12:39:00,1,F16,East Broadway,-73.990173,40.713715,3580.903838222963
12:39:00,1,F18,York St,-73.986751,40.701397,3746.2438287127393
13:11:00,1,F20,Bergen St,-73.990862,40.686145,3987.641833181361
13:11:00,1,F21,Carroll St,-73.995048,40.680303,4102.711343113114
13:11:00,1,F22,Smith-9 Sts,-73.995959,40.67358,4253.47073445881
13:11:00,1,F23,4 Av-9 St,-73.989779,40.670272,4336.837401125477
13:11:00,1,F24,7 Av,-73.980305,40.666271,4250.845126594985
13:11:00,1,F25,15 St-Prospect Park,-73.979493,40.660365,4413.214636494031
13:11:00,1,F26,Fort Hamilton Pkwy,-73.975776,40.650782,4585.987148342372
13:11:00,1,F27,Church Av,-73.979678,40.644041,4490.845126594985
13:11:00,1,F29,Ditmas Av,-73.978172,40.636119,4610.845126594985
13:11:00,1,F30,18 Av,-73.976971,40.629755,4730.845126594985
13:11:00,1,F31,Avenue I,-73.976127,40.625322,4790.845126594985
13:11:00,1,F32,Bay Pkwy,-73.975264,40.620769,4850.845126594985
13:11:00,1,F33,Avenue N,-73.974197,40.61514,4970.845126594985
13:11:00,1,F34,Avenue P,-73.973022,40.608944,5060.845126594985
13:11:00,1,F35,Kings Hwy,-73.972361,40.603217,5276.667362769802
13:35:00,1,F36,Avenue U,-73.973357,40.596063,5385.883089458655
13:35:00,1,F38,Avenue X,-73.97425,40.58962,5485.422624424381
12:15:00,1,F39,Neptune Av,-73.974574,40.581011,5608.692613268178
12:39:00,1,G05,Jamaica Center-Parsons/Archer,-73.801109,40.702147,4512.104490782492
12:39:00,1,G06,Sutphin Blvd-Archer Av-JFK Airport,-73.807969,40.700486,4401.398976285618
12:39:00,1,G07,Jamaica-Van Wyck,-73.816859,40.702566,4265.9502814161315
12:07:00,2,G08,Forest Hills-71 Av,-73.844521,40.721691,3747.7392194692293
13:51:00,1,G09,67 Av,-73.852719,40.726523,3883.2898470842915
13:51:00,1,G10,63 Dr-Rego Park,-73.861604,40.729846,3987.7392194692293
13:51:00,1,G11,Woodhaven Blvd,-73.869229,40.733106,3889.8943649717385
13:51:00,1,G12,Grand Av-Newtown,-73.877223,40.737015,3776.9357947036633
13:51:00,1,G13,Elmhurst Av,-73.882017,40.742454,3676.718403399316
12:07:00,2,G14,Jackson Hts-Roosevelt Av,-73.891338,40.746644,3327.7392194692293
12:07:00,1,G15,65 St,-73.898453,40.749669,3527.9041521970307
12:07:00,1,G16,Northern Blvd,-73.906006,40.752885,3430.637325273954
12:07:00,1,G18,46 St,-73.913333,40.756312,3334.263419148258
12:07:00,1,G19,Steinway St,-73.92074,40.756879,3229.3185806927813
12:07:00,1,G20,36 St,-73.928781,40.752039,3082.23072005012
12:07:00,2,G21,Queens Plaza,-73.937243,40.748973,2920.193706648716
13:11:00,2,G22,Court Sq,-73.943832,40.746554,2960.756405875815
13:11:00,2,G24,21 St,-73.949724,40.744065,3055.4911884845105
13:11:00,2,G26,Greenpoint Av,-73.954449,40.731352,3196.085967850576
13:11:00,2,G28,Nassau Av,-73.951277,40.724635,3307.035722752537
13:11:00,2,G29,Metropolitan Av,-73.951418,40.712792,3459.1533335899753
13:11:00,2,G30,Broadway,-73.950308,40.706092,3548.1102566668983
13:11:00,2,G31,Flushing Av,-73.950234,40.700377,3639.5106256705885
13:11:00,2,G32,Myrtle-Willoughby Avs,-73.949046,40.694568,3725.5878788894724
12:07:00,2,G33,Bedford-Nostrand Avs,-73.953522,40.689627,3830.875804586067
12:31:00,1,G34,Classon Av,-73.96007,40.688873,3914.486381509143
12:31:00,1,G35,Clinton-Washington Avs,-73.966839,40.688089,3995.9987449364003
12:31:00,1,G36,Fulton St,-73.975375,40.687119,4086.804586860799
13:35:00,1,H01,Aqueduct Racetrack,-73.834058,40.668234,5304.276218355356
12:15:00,1,H02,Aqueduct-N Conduit Av,-73.834058,40.668234,5365.415754725656
12:15:00,1,H03,Howard Beach-JFK Airport,-73.830301,40.660476,5482.0227294139995
12:15:00,1,H04,Broad Channel,-73.815925,40.608382,5947.404286097587
12:15:00,1,H06,Beach 67 St,-73.796924,40.590927,6276.3707977254935
12:15:00,1,H07,Beach 60 St,-73.788522,40.592374,6402.227544490744
12:15:00,1,H08,Beach 44 St,-73.776013,40.592943,6511.903770207672
12:15:00,1,H09,Beach 36 St,-73.768175,40.595398,6613.175992429895
12:15:00,1,H10,Beach 25 St,-73.761353,40.600066,6713.616512875992
12:15:00,1,H11,Far Rockaway-Mott Av,-73.755405,40.603995,6803.916099652852
12:15:00,1,H12,Beach 90 St,-73.813641,40.588034,6217.46142895473
12:15:00,1,H13,Beach 98 St,-73.820558,40.585307,6317.565202539636
12:15:00,1,H14,Beach 105 St,-73.827559,40.583209,6407.241393015826
12:15:00,1,H15,Rockaway Park-Beach 116 St,-73.835592,40.580903,6510.790843565276
12:39:00,1,J12,121 St,-73.828294,40.700492,4803.636681203651
12:39:00,1,J13,111 St,-73.836345,40.697418,4827.051883665571
12:39:00,1,J14,104 St,-73.84433,40.695178,4994.3566812036515
12:39:00,1,J15,Woodhaven Blvd,-73.851576,40.693879,5075.743375529457
12:39:00,1,J16,85 St-Forest Pkwy,-73.86001,40.692435,5088.127582840938
12:39:00,1,J17,75 St-Elderts Ln,-73.867139,40.691324,4895.743375529457
12:39:00,1,J19,Cypress Hills,-73.87255,40.689941,4920.506223617636
12:39:00,1,J20,Crescent St,-73.873785,40.683194,4745.743375529457
12:47:00,1,J21,Norwood Av,-73.880039,40.68141,4655.743375529457
12:47:00,1,J22,Cleveland St,-73.884639,40.679947,4665.597069279144
12:47:00,1,J23,Van Siclen Av,-73.891688,40.678024,4505.743375529457
12:31:00,2,J24,Alabama Av,-73.898654,40.676992,4445.743375529457
12:47:00,1,J27,Broadway Junction,-73.904512,40.679498,4342.424988259483
12:47:00,1,J28,Chauncey St,-73.910456,40.682893,4415.743375529457
12:47:00,1,J29,Halsey St,-73.916559,40.68637,4414.992121322796
12:47:00,1,J30,Gates Av,-73.92227,40.68963,4325.502874868896
12:47:00,1,J31,Kosciuszko St,-73.928814,40.693342,4227.709541535562
12:07:00,2,L01,8 Av,-74.002578,40.739777,3010.5977034295342
12:07:00,2,L02,6 Av,-73.996786,40.737335,3001.1203785785465
12:07:00,2,L03,14 St-Union Sq,-73.99073,40.734789,2911.116651028563
12:07:00,1,L05,3 Av,-73.986122,40.732849,2982.6585883713847
12:07:00,1,L06,1 Av,-73.981628,40.730953,3023.111153132469
12:07:00,1,L08,Bedford Av,-73.956872,40.717304,3227.18774887715
12:07:00,1,L10,Lorimer St,-73.950275,40.714063,3309.4806820252957
12:07:00,1,L11,Graham Av,-73.944053,40.714565,3350.1424415766455
12:07:00,1,L12,Grand St,-73.94067,40.711926,3438.73472345584
12:07:00,1,L13,Montrose Av,-73.93985,40.707739,3476.2976037803837
12:07:00,1,L14,Morgan Av,-73.933147,40.706152,3557.360860846333
12:07:00,1,L15,Jefferson St,-73.922913,40.706607,3649.3801167693873
12:07:00,1,L16,DeKalb Av,-73.918425,40.703811,3717.1167680548187
12:07:00,1,L17,Myrtle-Wyckoff Avs,-73.911586,40.699814,3795.874403522799
12:07:00,1,L19,Halsey St,-73.904084,40.695602,3844.1580398864353
12:07:00,1,L20,Wilson Av,-73.904046,40.688764,3964.508194366353
12:07:00,1,L21,Bushwick Av-Aberdeen St,-73.905249,40.682829,4057.1821311166254
12:07:00,1,L22,Broadway Junction,-73.90324,40.678856,4117.424988259483
12:07:00,1,L24,Atlantic Av,-73.903097,40.675345,4221.827318622745
12:07:00,1,L25,Sutter Av,-73.901975,40.669367,4298.326985067041
12:07:00,1,L26,Livonia Av,-73.900571,40.664038,4364.05558561052
12:07:00,1,L27,New Lots Av,-73.899232,40.658733,4417.877800070876
12:07:00,1,L28,East 105 St,-73.899485,40.650573,4528.104221707492
13:27:00,1,L29,Canarsie-Rockaway Pkwy,-73.90185,40.646654,4651.87839117371
12:07:00,2,M01,Middle Village-Metropolitan Av,-73.889601,40.711396,4420.432811080316
12:07:00,2,M04,Fresh Pond Rd,-73.895877,40.706186,4299.851025050255
12:07:00,2,M05,Forest Av,-73.903077,40.704423,4202.331434428851
12:47:00,2,M06,Seneca Av,-73.90774,40.702762,4107.471797557343
13:03:00,1,M08,Myrtle-Wyckoff Avs,-73.912385,40.69943,4020.874403522799
12:07:00,2,M09,Knickerbocker Av,-73.919711,40.698664,4121.270794313092
13:03:00,1,M10,Central Av,-73.927397,40.697857,4236.291471004821
13:03:00,1,M11,Myrtle Av,-73.935657,40.697207,4110.45920953025
13:03:00,1,M12,Flushing Av,-73.941126,40.70026,4075.743871290259
13:03:00,1,M13,Lorimer St,-73.947408,40.703869,3984.505352771741
13:03:00,1,M14,Hewes St,-73.953431,40.70687,3888.8436538149604
13:03:00,1,M16,Marcy Av,-73.957757,40.708359,3793.7610712323776
13:03:00,1,M18,Delancey St-Essex St,-73.987437,40.718315,3419.9577378990443
12:07:00,1,M19,Bowery,-73.993915,40.72028,3338.672791662485
12:07:00,1,M20,Canal St,-73.999892,40.718092,3223.359783472306
12:07:00,2,M21,Chambers St,-74.003401,40.713243,3129.716656107867
12:47:00,1,M22,Fulton St,-74.007582,40.710374,3223.682126656276
12:47:00,1,M23,Broad St,-74.011056,40.706476,3288.5891034004626
12:39:00,1,N02,8 Av,-74.011719,40.635064,4838.6635958701745
12:39:00,1,N03,Fort Hamilton Pkwy,-74.005351,40.631386,4957.789630359454
12:39:00,1,N04,New Utrecht Av,-73.996353,40.624842,5074.901178915885
12:39:00,1,N05,18 Av,-73.990414,40.620671,5170.871456326717
12:39:00,1,N06,20 Av,-73.985026,40.61741,5258.307964263225
12:39:00,1,N07,Bay Pkwy,-73.981848,40.611815,5356.079487442032
12:39:00,1,N08,Kings Hwy,-73.980353,40.603923,5483.583817888401
12:39:00,1,N09,Avenue U,-73.979137,40.597473,5599.27607423019
12:39:00,1,N10,86 St,-73.97823,40.592721,5694.898831827349
12:39:00,1,Q01,Canal St,-74.00046,40.718383,3240.820692695981
12:07:00,2,Q03,72 St,-73.958424,40.768799,2789.5725528025628
12:07:00,2,Q04,86 St,-73.951787,40.777891,2923.216520785016
12:07:00,2,Q05,96 St,-73.947152,40.784318,3016.2149846867055
13:59:00,1,R01,Astoria-Ditmars Blvd,-73.912034,40.775036,3527.671281945083
13:59:00,1,R03,Astoria Blvd,-73.917843,40.770258,3431.3759353164032
13:59:00,1,R04,30 Av,-73.921479,40.766779,3324.6789955335803
13:59:00,1,R05,Broadway,-73.925508,40.76182,3229.2980431526275
13:59:00,1,R06,36 Av,-73.929575,40.756804,3101.7584533335034
13:59:00,1,R08,39 Av-Dutch Kills,-73.932755,40.752882,2999.2719076765443
13:59:00,1,R09,Queensboro Plaza,-73.940202,40.750582,2806.7403890598725
12:07:00,2,R11,Lexington Av/59 St,-73.967258,40.76266,2547.7392194692293
12:07:00,2,R13,5 Av/59 St,-73.973347,40.764811,2645.3660681609244
12:07:00,2,R14,57 St-7 Av,-73.980658,40.764664,2785.5262954336517
12:07:00,2,R15,49 St,-73.984139,40.759901,2794.031545491356
12:07:00,2,R16,Times Sq-42 St,-73.986754,40.754672,2700.0266579058234
12:39:00,1,R17,34 St-Herald Sq,-73.98795,40.749567,2803.0064077569255
12:23:00,1,R18,28 St,-73.988691,40.745494,2889.383916897217
12:07:00,1,R19,23 St,-73.989344,40.741303,2972.2780580423573
12:07:00,2,R20,14 St-Union Sq,-73.990568,40.735736,2922.1556112469925
12:07:00,2,R21,8 St-NYU,-73.992629,40.730328,3046.627113837666
12:07:00,2,R22,Prince St,-73.997702,40.724329,3138.7765696039887
12:07:00,2,R23,Canal St,-74.001775,40.719527,3246.6913979666065
12:07:00,2,R24,City Hall,-74.006978,40.713282,3394.605915284219
12:07:00,2,R25,Cortlandt St,-74.011029,40.710668,3454.369181190129
12:07:00,2,R26,Rector St,-74.013342,40.70722,3569.817004272368
12:07:00,2,R27,Whitehall St-South Ferry,-74.012994,40.703087,3660.934283939266
12:07:00,2,R28,Court St,-73.991777,40.6941,3810.054329637724
12:15:00,1,R29,Jay St-MetroTech,-73.985942,40.69218,3830.845126594985
12:15:00,1,R30,DeKalb Av,-73.981824,40.690635,3802.496191810242
12:39:00,1,R31,Atlantic Av-Barclays Ctr,-73.97881,40.683666,3904.4873425634582
13:11:00,1,R32,Union St,-73.98311,40.677316,4050.6415079148146
13:11:00,1,R33,4 Av-9 St,-73.988302,40.670847,4162.696784296724
13:11:00,1,R34,Prospect Av,-73.992872,40.665414,4272.380201382151
13:11:00,1,R35,25 St,-73.998091,40.660397,4389.606089707025
12:39:00,1,R36,36 St,-74.003549,40.655144,4346.698252857238
13:11:00,1,R39,45 St,-74.010006,40.648939,4520.376705908764
12:39:00,1,R40,53 St,-74.014034,40.645069,4614.152068227604
12:39:00,1,R41,59 St,-74.017881,40.641362,4665.140209250873
13:11:00,1,R42,Bay Ridge Av,-74.023377,40.634967,4829.614458037081
13:11:00,1,R43,77 St,-74.02551,40.629742,4912.2231251414805
13:11:00,1,R44,86 St,-74.028398,40.622687,5096.675060222629
13:11:00,1,R45,Bay Ridge-95 St,-74.030876,40.616622,5165.256799353064
12:39:00,1,S01,Franklin Av,-73.955827,40.680596,4205.114743180225
12:39:00,1,S03,Park Pl,-73.957624,40.674772,4321.455020958003
12:07:00,2,S04,Botanic Garden,-73.959245,40.670343,4398.38966422351
