start_time,ntransfers,stop_id,stop_name,stop_lon,stop_lat,duration
12:06:00,0,101,Van Cortlandt Park-242 St,-73.898583,40.889248,3024.6924188632056
12:06:00,0,103,238 St,-73.90087,40.884667,2922.1780746009103
12:06:00,0,104,231 St,-73.904834,40.878856,2829.0635105934894
12:06:00,0,106,Marble Hill-225 St,-73.909831,40.874561,2731.9734873916336
12:06:00,0,107,215 St,-73.915279,40.869444,2632.2201324633597
12:06:00,0,108,207 St,-73.918822,40.864621,2533.5275237677074
12:06:00,0,109,Dyckman St,-73.925536,40.860531,2425.3866472024124
12:06:00,0,110,191 St,-73.929412,40.855225,2335.167599583365
12:06:00,0,111,181 St,-73.933596,40.849505,2239.923010838776
12:06:00,0,112,168 St-Washington Hts,-73.940133,40.840556,2119.0726854591667
12:06:00,0,113,157 St,-73.94489,40.834041,2019.7962556498082
12:06:00,0,114,145 St,-73.95036,40.826551,1904.1316083109941
12:06:00,0,115,137 St-City College,-73.953676,40.822008,1803.088825251357
12:06:00,0,116,125 St,-73.958372,40.815581,1704.3276933329219
12:06:00,0,117,116 St-Columbia University,-73.96411,40.807722,1586.1716239687598
12:06:00,0,118,Cathedral Pkwy (110 St),-73.966847,40.803967,1508.140810493
12:06:00,0,119,103 St,-73.968379,40.799446,1428.8226286748181
12:02:00,0,120,96 St,-73.972323,40.793919,1158.563796488746
12:10:00,0,121,86 St,-73.976218,40.788644,1214.683026801282
12:10:00,0,122,79 St,-73.979917,40.783934,1135.9079656765875
12:02:00,0,123,72 St,-73.98197,40.778453,966.701495387155
12:02:00,0,124,66 St-Lincoln Center,-73.982209,40.77344,1120.5090527822601
12:02:00,0,125,59 St-Columbus Circle,-73.981929,40.768247,1058.9476626102917
12:02:00,0,126,50 St,-73.983849,40.761728,950.3202116298994
12:02:00,0,127,Times Sq-42 St,-73.987495,40.75529,718.1231170087766
12:02:00,0,128,34 St-Penn Station,-73.991057,40.750373,610.733606519266
12:06:00,0,129,28 St,-73.993365,40.747215,874.8749475565612
12:06:00,0,130,23 St,-73.995657,40.744081,806.2477171453897
12:06:00,0,131,18 St,-73.997871,40.74104,737.8072039261052
12:02:00,0,132,14 St,-74.000201,40.737826,451.73010020790565
12:10:00,0,133,Christopher St-Sheridan Sq,-74.002906,40.733422,728.2218271359606
12:10:00,0,134,Houston St,-74.005367,40.728251,645.071551762239
12:10:00,0,135,Canal St,-74.006277,40.722854,557.7962065945861
12:10:00,0,136,Franklin St,-74.006886,40.719318,493.0437155623024
12:02:00,0,137,Chambers St,-74.009266,40.715478,204.07880740566947
12:02:00,0,138,WTC Cortlandt,-74.012188,40.711835,487.7788520054088
12:02:00,0,139,Rector St,-74.013783,40.707513,567.0774188843898
12:02:00,0,142,South Ferry,-74.013664,40.702068,631.3015153332834
12:06:00,0,201,Wakefield-241 St,-73.85062,40.903125,4047.3193855774125
12:06:00,0,204,Nereid Av,-73.854376,40.898379,3876.6827644979894
12:06:00,0,205,233 St,-73.857473,40.893193,3744.68276449799
12:06:00,0,206,225 St,-73.860341,40.888022,3648.68276449799
12:06:00,0,207,219 St,-73.862633,40.883895,3566.68276449799
12:06:00,0,208,Gun Hill Rd,-73.866256,40.87785,3458.18276449799
12:06:00,0,209,Burke Av,-73.867164,40.871356,3490.077383864056
12:06:00,0,210,Allerton Av,-73.867352,40.865462,3402.6469202878975
12:06:00,0,211,Pelham Pkwy,-73.867615,40.857192,3294.787298031644
12:06:00,0,212,Bronx Park East,-73.868457,40.848828,3171.758112163748
12:06:00,0,213,E 180 St,-73.873488,40.841894,2981.2792366193466
12:06:00,0,214,West Farms Sq-E Tremont Av,-73.880049,40.840295,2862.4035468345296
12:06:00,0,215,174 St,-73.887734,40.837288,2747.9929330826235
12:06:00,0,216,Freeman St,-73.891865,40.829993,2627.3016778773886
12:06:00,0,217,Simpson St,-73.893064,40.824073,2513.576374347087
12:06:00,0,218,Intervale Av,-73.896736,40.822181,2431.6038692554375
12:06:00,0,219,Prospect Av,-73.90177,40.819585,2349.1433496426002
12:06:00,0,220,Jackson Av,-73.907807,40.81649,2240.968503016833
12:06:00,0,221,3 Av-149 St,-73.917757,40.816109,2087.2028298410883
12:06:00,0,222,149 St-Grand Concourse,-73.926718,40.81841,1956.1052688654784
12:02:00,0,224,135 St,-73.94077,40.814229,1716.3430119996272
12:02:00,0,225,125 St,-73.945495,40.807754,1602.5386910119728
12:02:00,0,226,116 St,-73.949625,40.802098,1502.6806663206146
12:02:00,0,227,Central Park North (110 St),-73.951822,40.799075,1423.7988365874505
12:02:00,0,228,Park Place,-74.008811,40.713051,114.87265135699374
12:05:30,0,229,Fulton St,-74.006571,40.709416,0.0
12:00:30,0,230,Wall St,-74.0091,40.706821,75.41509433962264
12:00:30,0,231,Clark St,-73.993086,40.697466,264.6286932407215
12:00:30,0,232,Borough Hall,-73.989998,40.693219,379.7637387571517
12:00:30,0,233,Hoyt St,-73.985065,40.690545,470.1652644604805
12:00:30,0,234,Nevins St,-73.980492,40.688246,568.6837323127377
12:00:30,0,235,Atlantic Av-Barclays Ctr,-73.977666,40.684359,652.0125181244703
12:00:30,0,236,Bergen St,-73.975098,40.680829,729.5683004373954
12:00:30,0,237,Grand Army Plaza,-73.971046,40.675235,843.6351020568286
12:00:30,0,238,Eastern Pkwy-Brooklyn Museum,-73.964375,40.671987,947.0890361523229
12:05:30,0,239,Franklin Av-Medgar Evers College,-73.958131,40.670682,986.9394030916122
12:05:30,0,241,President St-Medgar Evers College,-73.950683,40.667883,1176.5385427406309
12:05:30,0,242,Sterling St,-73.95085,40.662742,1268.5310136509663
12:05:30,0,243,Winthrop St,-73.9502,40.656652,1357.584682129227
12:05:30,0,244,Church Av,-73.949575,40.650843,1436.4230579254054
12:05:30,0,245,Beverly Rd,-73.948959,40.645098,1515.652322928777
12:05:30,0,246,Newkirk Av-Little Haiti,-73.948411,40.639967,1602.8408364422905
12:05:30,0,247,Flatbush Av-Brooklyn College,-73.947642,40.632836,1753.4603939012484
12:05:30,0,248,Nostrand Av,-73.950466,40.669847,1122.5668381167525
12:05:30,0,249,Kingston Av,-73.942161,40.669399,1211.0885772471875
12:00:30,0,250,Crown Hts-Utica Av,-73.932942,40.668897,1237.8237551128
12:05:30,0,251,Sutter Av-Rutland Rd,-73.92261,40.664717,1380.9487551128
12:05:30,0,252,Saratoga Av,-73.916327,40.661453,1494.0958302116553
12:05:30,0,253,Rockaway Av,-73.908946,40.662549,1581.9724368954599
12:05:30,0,254,Junius St,-73.902447,40.663515,1665.4660101602415
12:05:30,0,255,Pennsylvania Av,-73.894895,40.664635,1765.8147281089593
12:05:30,0,256,Van Siclen Av,-73.889395,40.665449,1845.0975044585737
12:05:30,0,257,New Lots Av,-73.884079,40.666235,1928.580897969943
12:02:00,0,301,Harlem-148 St,-73.93647,40.82388,1975.128684785801
12:02:00,0,302,145 St,-73.936245,40.820421,1855.296253894889
12:02:00,2,401,Woodlawn,-73.878751,40.886037,3343.106853320296
12:02:00,2,402,Mosholu Pkwy,-73.884655,40.87975,3185.6584820586786
12:02:00,2,405,Bedford Park Blvd-Lehman College,-73.890064,40.873412,3070.269626101358
12:02:00,2,406,Kingsbridge Rd,-73.897174,40.86776,2953.896989838844
12:02:00,2,407,Fordham Rd,-73.901034,40.862803,2856.974767616622
12:02:00,2,408,183 St,-73.903879,40.858407,2772.377975581224
12:02:00,2,409,Burnside Av,-73.907684,40.853453,2671.1004819750856
12:02:00,2,410,176 St,-73.911794,40.84848,2600.436273099147
12:02:00,2,411,Mt Eden Av,-73.914685,40.844434,2521.0893343236366
12:02:00,2,412,170 St,-73.917791,40.840075,2440.882950173939
12:02:00,2,413,167 St,-73.9214,40.835537,2351.7544025946404
12:02:00,2,414,161 St-Yankee Stadium,-73.925831,40.827994,2173.199014880642
12:02:00,2,415,149 St-Grand Concourse,-73.927351,40.818375,1995.2848319412794
12:06:00,2,416,138 St-Grand Concourse,-73.929849,40.813224,1840.511910857538
12:05:30,1,418,Fulton St,-74.009509,40.710368,337.25409865379333
12:05:30,1,419,Wall St,-74.011862,40.707557,421.587045766096
12:05:30,1,420,Bowling Green,-74.014065,40.704817,501.17264024068896
12:05:30,0,423,Borough Hall,-73.990151,40.692404,720.0363155260391
13:58:00,0,501,Eastchester-Dyre Av,-73.830834,40.8883,3698.7495320147523
13:58:00,0,502,Baychester Av,-73.838591,40.878663,3568.0756068332894
13:58:00,0,503,Gun Hill Rd,-73.846384,40.869526,3431.2792366193466
13:58:00,0,504,Pelham Pkwy,-73.855359,40.858985,3281.2792366193466
13:58:00,0,505,Morris Park,-73.860495,40.854364,3191.2792366193466
13:36:30,1,601,Pelham Bay Park,-73.828121,40.852462,3453.4141842771273
13:36:30,1,602,Buhre Av,-73.832569,40.84681,3276.1510263823902
13:36:30,1,603,Middletown Rd,-73.836322,40.843863,3205.857922934114
13:36:30,1,604,Westchester Sq-E Tremont Av,-73.842952,40.839892,3073.681452345879
13:36:30,1,606,Zerega Av,-73.847036,40.836488,2986.6314523458786
13:36:30,1,607,Castle Hill Av,-73.851222,40.834255,2917.3855507065346
12:24:30,1,608,Parkchester,-73.860816,40.833226,2731.971757603086
12:24:30,1,609,St Lawrence Av,-73.867618,40.831509,2975.8320902658847
12:24:30,1,610,Morrison Av-Soundview,-73.874516,40.829521,2874.6810462854314
12:24:30,1,611,Elder Av,-73.879159,40.828584,2801.9556418254397
12:24:30,1,612,Whitlock Av,-73.886283,40.826525,2689.250879920678
12:24:30,1,613,Hunts Point Av,-73.890549,40.820948,2459.5717576030866
12:02:00,2,614,Longwood Av,-73.896435,40.816104,2578.6630529965923
12:02:00,2,615,E 149 St,-73.904098,40.812118,2475.892270901167
12:02:00,2,616,E 143 St-St Mary's St,-73.907657,40.808719,2399.218174813995
12:02:00,2,617,Cypress Av,-73.914042,40.805368,2287.8032246071416
12:02:00,2,618,Brook Av,-73.91924,40.807566,2212.1842754966738
12:02:00,2,619,3 Av-138 St,-73.926138,40.810476,2091.9263675321645
12:06:00,2,621,125 St,-73.937594,40.804138,1657.5283366131225
12:06:00,2,622,116 St,-73.941617,40.798629,1868.0388435883408
12:02:00,2,623,110 St,-73.94425,40.79502,1786.1505583591388
12:02:00,2,624,103 St,-73.947478,40.7906,1708.5095675209982
12:02:00,2,625,96 St,-73.95107,40.785672,1618.1351615467959
12:06:00,2,626,86 St,-73.955589,40.779492,1349.2077904492735
12:02:00,2,627,77 St,-73.959874,40.77362,1412.6977119707235
12:02:00,2,628,68 St-Hunter College,-73.96387,40.768141,1319.1605441267948
12:06:00,2,629,59 St,-73.967967,40.762526,1143.7792366193466
12:02:00,2,630,51 St,-73.97192,40.757107,1109.506356967989
12:05:30,1,631,Grand Central-42 St,-73.976848,40.751776,982.3061998772795
12:06:00,2,632,33 St,-73.982076,40.746081,1109.7499024070858
12:02:00,2,633,28 St,-73.984264,40.74307,1104.840141678851
12:02:00,2,634,23 St,-73.986599,40.739864,1038.538366530922
12:05:30,1,635,14 St-Union Sq,-73.989951,40.734673,734.1491117546742
12:02:00,2,636,Astor Pl,-73.99107,40.730054,822.031754912043
12:02:00,2,637,Bleecker St,-73.994659,40.725915,726.1925276690829
12:02:00,2,638,Spring St,-73.997141,40.722301,655.6667544732065
12:05:30,1,639,Canal St,-74.000193,40.718803,581.5837934010942
12:05:30,1,640,Brooklyn Bridge-City Hall,-74.004131,40.713065,455.90867707627746
12:14:00,1,701,Flushing-Main St,-73.83003,40.7596,2645.2827138452235
12:14:00,1,702,Mets-Willets Point,-73.845625,40.754622,2480.260060123541
12:14:00,1,705,111 St,-73.855334,40.75173,2544.4804955860463
12:14:00,1,706,103 St-Corona Plaza,-73.8627,40.749865,2465.573125741557
12:14:00,1,707,Junction Blvd,-73.869527,40.749145,2261.39901228755
12:14:00,1,708,90 St-Elmhurst Av,-73.876613,40.748408,2344.479873768907
12:10:00,2,709,82 St-Jackson Hts,-73.883697,40.747659,2239.4191303418897
12:14:00,1,710,74 St-Broadway,-73.891394,40.746848,2129.3671455069275
12:14:00,1,711,69 St,-73.896403,40.746325,2043.1959649834237
12:14:00,1,712,61 St-Woodside,-73.902984,40.74563,1959.7292003855537
12:14:00,1,713,52 St,-73.912549,40.744149,1799.6713656277188
12:14:00,1,714,46 St-Bliss St,-73.918435,40.743132,1743.3818919435082
12:14:00,1,715,40 St-Lowery St,-73.924016,40.743781,1685.076208820661
12:14:00,1,716,33 St-Rawson St,-73.930997,40.744587,1600.6841969863415
12:14:00,1,718,Queensboro Plaza,-73.940202,40.750582,1456.4025643332802
12:14:00,1,719,Court Sq,-73.945264,40.747023,1350.1651041999082
12:14:00,1,720,Hunters Point Av,-73.948916,40.742216,1250.6904367784532
12:14:00,1,721,Vernon Blvd-Jackson Av,-73.953581,40.742626,1207.7129448170385
12:14:00,1,723,Grand Central-42 St,-73.976041,40.751431,993.7792366193468
12:14:00,1,724,5 Av,-73.981963,40.753821,911.8735346499393
12:14:00,1,725,Times Sq-42 St,-73.987691,40.755477,838.1231170087766
12:06:00,1,726,34 St-Hudson Yards,-74.00191,40.755882,982.7253067897984
12:06:00,1,901,Grand Central-42 St,-73.979189,40.752769,873.7792366193469
12:06:00,1,902,Times Sq-42 St,-73.986229,40.755983,778.1231170087766
12:50:00,1,A02,Inwood-207 St,-73.919899,40.868072,2534.1237079638145
13:50:00,1,A03,Dyckman St,-73.927271,40.865491,2434.3848811481716
13:50:00,1,A05,190 St,-73.93418,40.859022,2304.0048701651954
13:50:00,1,A06,181 St,-73.937969,40.851695,2191.119958270922
13:50:00,1,A07,175 St,-73.939704,40.847391,2098.3349527582427
12:38:00,1,A09,168 St,-73.939561,40.840719,1963.7409761826714
13:34:00,1,A10,163 St-Amsterdam Av,-73.939892,40.836013,1997.3534513391105
13:34:00,1,A11,155 St,-73.941514,40.830518,1912.4836244015632
12:38:00,1,A12,145 St,-73.944216,40.824783,1717.929478117442
12:38:00,1,A14,135 St,-73.947649,40.817894,1629.060425073218
12:38:00,1,A15,125 St,-73.952343,40.811109,1503.6648695176625
12:02:00,1,A16,116 St,-73.954882,40.805085,1641.6032901425203
12:14:00,1,A17,Cathedral Pkwy (110 St),-73.958161,40.800603,1647.7111682169223
12:14:00,1,A18,103 St,-73.961454,40.796092,1563.6496946036848
12:14:00,1,A19,96 St,-73.964696,40.791642,1476.5227224023322
12:14:00,1,A20,86 St,-73.968916,40.785868,1375.7150300946398
12:14:00,1,A21,81 St-Museum of Natural History,-73.972143,40.781433,1277.2404281234496
12:14:00,1,A22,72 St,-73.97641,40.775594,1185.3775493355708
13:34:00,1,A24,59 St-Columbus Circle,-73.981736,40.768296,1002.6544356900954
12:10:00,1,A25,50 St,-73.985984,40.762456,940.8062853256082
13:34:00,1,A27,42 St-Port Authority Bus Terminal,-73.989735,40.757308,838.1231170087766
13:34:00,1,A28,34 St-Penn Station,-73.993391,40.752287,850.6886771639562
13:42:00,1,A30,23 St,-73.998041,40.745906,742.4501340723009
13:34:00,1,A31,14 St,-74.00169,40.740893,644.4656379482699
13:34:00,1,A32,W 4 St-Wash Sq,-74.000495,40.732338,523.8712937259393
12:38:00,1,A33,Spring St,-74.003739,40.726227,441.2340238953186
12:38:00,1,A34,Canal St,-74.005229,40.720824,327.31275250167556
12:05:30,1,A36,Chambers St,-74.008585,40.714111,316.5650567719803
12:18:00,1,A38,Fulton St,-74.007691,40.710197,217.25409865379333
12:18:00,1,A40,High St,-73.990531,40.699337,410.34057426968076
12:18:00,1,A41,Jay St-MetroTech,-73.987342,40.692338,541.5418860759371
12:18:00,1,A42,Hoyt-Schermerhorn Sts,-73.985001,40.688484,668.9339480314065
12:34:00,1,A43,Lafayette Av,-73.973946,40.686113,821.1742077716664
12:34:00,1,A44,Clinton-Washington Avs,-73.965838,40.683263,901.4677231300282
12:34:00,1,A45,Franklin Av,-73.956848,40.68138,1016.1150790356179
12:18:00,1,A46,Nostrand Av,-73.950426,40.680438,957.4171740236143
12:06:00,1,A47,Kingston-Throop Avs,-73.940858,40.679921,1062.3965857883202
12:18:00,1,A48,Utica Av,-73.930729,40.679364,1132.872855841796
12:06:00,1,A49,Ralph Av,-73.920786,40.678822,1242.5479347061496
12:06:00,1,A50,Rockaway Av,-73.911946,40.67834,1344.2662009600194
12:18:00,1,A51,Broadway Junction,-73.905316,40.678334,1367.568261400503
12:18:00,1,A52,Liberty Av,-73.896548,40.674542,1490.5167462489878
12:18:00,1,A53,Van Siclen Av,-73.890358,40.67271,1577.1203498525913
12:18:00,1,A54,Shepherd Av,-73.88075,40.67413,1685.7791035617902
12:18:00,1,A55,Euclid Av,-73.872106,40.675377,1722.5411427564352
12:18:00,1,A57,Grant Av,-73.86505,40.677044,1827.3149580959564
12:18:00,1,A59,80 St,-73.858992,40.679371,1941.4776827884823
12:18:00,1,A60,88 St,-73.85147,40.679843,2034.2501720792964
12:18:00,1,A61,Rockaway Blvd,-73.843853,40.680429,2145.2550123503515
12:18:00,1,A63,104 St,-73.837683,40.681711,2238.071338880964
13:17:30,1,A64,111 St,-73.832163,40.684331,2332.6458056647252
13:17:30,1,A65,Ozone Park-Lefferts Blvd,-73.825798,40.685951,2420.2168898461496
12:06:00,1,B04,21 St-Queensbridge,-73.942836,40.754203,1718.8763369119777
12:06:00,1,B06,Roosevelt Island,-73.95326,40.759145,1550.4054663709398
12:06:00,1,B08,Lexington Av/63 St,-73.966113,40.764629,1220.7763857865318
12:02:00,1,B10,57 St,-73.97745,40.763972,1288.6542307860964
12:05:30,1,B12,9 Av,-73.994324,40.646292,1601.229593980076
12:05:30,1,B13,Fort Hamilton Pkwy,-73.994304,40.640914,1703.0444875970973
12:05:30,1,B14,50 St,-73.994791,40.63626,1783.8044307789157
12:05:30,1,B15,55 St,-73.995476,40.631435,1886.8328802810493
12:05:30,1,B16,62 St,-73.996895,40.626472,1951.7812624073974
12:05:30,1,B17,71 St,-73.998864,40.619589,2054.678551993703
12:05:30,1,B18,79 St,-74.00061,40.613501,2159.1293365871406
12:05:30,1,B19,18 Av,-74.001736,40.607954,2243.612908015712
12:05:30,1,B20,20 Av,-73.998168,40.604556,2328.8244877154975
12:05:30,1,B21,Bay Pkwy,-73.993728,40.601875,2409.9824202352393
12:05:30,1,B22,25 Av,-73.986829,40.597704,2536.7885718804464
12:05:30,1,B23,Bay 50 St,-73.983765,40.588841,2786.673794262082
12:02:00,1,D01,Norwood-205 St,-73.878855,40.874811,3017.8704451737226
12:02:00,1,D03,Bedford Park Blvd,-73.887138,40.873244,2849.170690851582
12:02:00,1,D04,Kingsbridge Rd,-73.893509,40.866978,2730.6303062361976
12:02:00,1,D05,Fordham Rd,-73.897749,40.861296,2630.497420330157
12:02:00,1,D06,182-183 Sts,-73.900741,40.856093,2545.3246330499405
12:02:00,1,D07,Tremont Av,-73.905227,40.85041,2461.724259567214
12:02:00,1,D08,174-175 Sts,-73.910136,40.8459,2434.8059857109665
12:02:00,1,D09,170 St,-73.9134,40.839306,2329.262176187157
12:02:00,1,D10,167 St,-73.91844,40.833771,2222.0239639864876
12:02:00,1,D11,161 St-Yankee Stadium,-73.925651,40.827905,2073.245252501894
12:02:00,1,D12,155 St,-73.938209,40.830135,1939.7698763049036
12:38:00,1,D13,145 St,-73.944216,40.824783,1791.8580595081164
12:02:00,1,D14,7 Av,-73.981637,40.762862,1034.3323327485075
12:30:00,1,D15,47-50 Sts-Rockefeller Ctr,-73.981329,40.758663,1162.782438480933
12:02:00,1,D16,42 St-Bryant Pk,-73.984569,40.754222,1062.2734976281133
12:02:00,1,D17,34 St-Herald Sq,-73.987823,40.749719,973.552889052733
12:02:00,1,D18,23 St,-73.992821,40.742878,876.8239769551562
12:06:00,1,D19,14 St,-73.996209,40.738228,799.9119189315842
12:06:00,1,D20,W 4 St-Wash Sq,-74.000495,40.732338,763.8712937259393
12:06:00,1,D21,Broadway-Lafayette St,-73.996204,40.725297,912.0492738583896
12:06:00,1,D22,Grand St,-73.993753,40.718267,1051.5331980133772
12:13:30,1,D24,Atlantic Av-Barclays Ctr,-73.97689,40.68446,878.4086620323724
12:16:30,1,D25,7 Av,-73.972367,40.67705,1022.1800906038009
12:16:30,1,D26,Prospect Park,-73.962246,40.661614,1235.968502123889
12:16:30,1,D27,Parkside Av,-73.961495,40.655292,1331.840085086381
12:16:30,1,D28,Church Av,-73.962982,40.650527,1393.8083438100364
12:16:30,1,D29,Beverley Rd,-73.964492,40.644031,1500.90476201373
12:16:30,1,D30,Cortelyou Rd,-73.963891,40.640927,1579.0417919691158
12:08:30,1,D31,Newkirk Plaza,-73.962793,40.635082,1572.5523438100363
12:08:30,1,D32,Avenue H,-73.961639,40.62927,1685.87712285395
12:08:30,1,D33,Avenue J,-73.960803,40.625039,1782.7616642266248
12:08:30,1,D34,Avenue M,-73.959399,40.617618,1893.5680134329739
12:08:30,1,D35,Kings Hwy,-73.957734,40.60867,1837.9477160434367
12:29:30,1,D37,Avenue U,-73.955929,40.5993,2057.2959591583026
12:29:30,1,D38,Neck Rd,-73.955161,40.595246,2161.3937164901026
12:29:30,1,D39,Sheepshead Bay,-73.954155,40.586896,2107.108122134807
12:29:30,1,D40,Brighton Beach,-73.961376,40.577621,2268.415022237794
12:29:30,1,D41,Ocean Pkwy,-73.968501,40.576312,2423.821290644491
12:29:30,1,D42,W 8 St-NY Aquarium,-73.975939,40.576127,2538.3709710628523
12:29:30,1,D43,Coney Island-Stillwell Av,-73.981233,40.577422,2627.136928509661
12:38:00,1,E01,World Trade Center,-74.009781,40.712582,184.60127931769725
12:30:00,1,F01,Jamaica-179 St,-73.783817,40.712646,3296.8735346499393
12:26:00,1,F02,169 St,-73.793604,40.71047,3206.8735346499393
12:06:00,1,F03,Parsons Blvd,-73.803326,40.707564,3086.8735346499393
12:06:00,1,F04,Sutphin Blvd,-73.810708,40.70546,2996.8735346499393
12:06:00,1,F05,Briarwood,-73.820574,40.709179,2876.8735346499393
12:10:00,1,F06,Kew Gardens-Union Tpke,-73.831008,40.714441,2753.8881716122974
12:06:00,1,F07,75 Av,-73.837324,40.718331,2662.6143711106165
12:10:00,1,F09,Court Sq-23 St,-73.946,40.747846,1465.5300636024754
12:10:00,1,F11,Lexington Av/53 St,-73.969055,40.757552,1234.6539870474514
12:10:00,1,F12,5 Av/53 St,-73.975224,40.760167,1141.1449221619553
12:58:00,1,F14,2 Av,-73.989938,40.723402,1022.7577973224556
13:17:30,1,F15,Delancey St-Essex St,-73.988114,40.718611,944.1103993187271
13:17:30,1,F16,East Broadway,-73.990173,40.713715,946.5418860759371
13:17:30,1,F18,York St,-73.986751,40.701397,766.5418860759371
12:34:00,1,F20,Bergen St,-73.990862,40.686145,837.8564428594404
12:34:00,1,F21,Carroll St,-73.995048,40.680303,942.645916543651
12:34:00,1,F22,Smith-9 Sts,-73.995959,40.67358,1093.4053078893476
12:34:00,1,F23,4 Av-9 St,-73.989779,40.670272,1176.7719745560141
12:34:00,1,F24,7 Av,-73.980305,40.666271,1096.541886075937
12:34:00,1,F25,15 St-Prospect Park,-73.979493,40.660365,1258.911395974983
12:34:00,1,F26,Fort Hamilton Pkwy,-73.975776,40.650782,1431.6839078233243
12:34:00,1,F27,Church Av,-73.979678,40.644041,1336.541886075937
13:34:00,1,F29,Ditmas Av,-73.978172,40.636119,1456.541886075937
13:34:00,1,F30,18 Av,-73.976971,40.629755,1576.541886075937
13:34:00,1,F31,Avenue I,-73.976127,40.625322,1636.541886075937
13:34:00,1,F32,Bay Pkwy,-73.975264,40.620769,1696.541886075937
13:34:00,1,F33,Avenue N,-73.974197,40.61514,1816.541886075937
13:34:00,1,F34,Avenue P,-73.973022,40.608944,1906.541886075937
13:34:00,1,F35,Kings Hwy,-73.972361,40.603217,2122.364122250754
13:34:00,1,F36,Avenue U,-73.973357,40.596063,2234.205169753799
13:34:00,1,F38,Avenue X,-73.97425,40.58962,2331.119383905333
12:48:30,1,F39,Neptune Av,-73.974574,40.581011,2457.499063049718
13:34:00,1,G05,Jamaica Center-Parsons/Archer,-73.801109,40.702147,2944.3073914206443
12:10:00,1,G06,Sutphin Blvd-Archer Av-JFK Airport,-73.807969,40.700486,2884.3073914206443
12:10:00,1,G07,Jamaica-Van Wyck,-73.816859,40.702566,3002.0992335592
12:06:00,1,G08,Forest Hills-71 Av,-73.844521,40.721691,2529.1021759886653
12:06:00,1,G09,67 Av,-73.852719,40.726523,2678.092108432372
12:06:00,1,G10,63 Dr-Rego Park,-73.861604,40.729846,2550.6298657961
12:06:00,1,G11,Woodhaven Blvd,-73.869229,40.733106,2438.5044045414875
12:06:00,1,G12,Grand Av-Newtown,-73.877223,40.737015,2320.401273786423
12:06:00,1,G13,Elmhurst Av,-73.882017,40.742454,2214.8101135654288
12:06:00,1,G14,Jackson Hts-Roosevelt Av,-73.891338,40.746644,2073.062070215197
12:02:00,1,G15,65 St,-73.898453,40.749669,2160.1777278060517
12:30:00,1,G16,Northern Blvd,-73.906006,40.752885,2065.847830898835
12:30:00,1,G18,46 St,-73.913333,40.756312,1975.8478308988351
12:30:00,1,G19,Steinway St,-73.92074,40.756879,1858.94061440399
12:30:00,1,G20,36 St,-73.928781,40.752039,1738.94061440399
12:10:00,1,G21,Queens Plaza,-73.937243,40.748973,1593.5324511386837
12:18:00,2,G22,Court Sq,-73.943832,40.746554,1410.1651041999082
12:18:00,2,G24,21 St,-73.949724,40.744065,1504.8998868086037
12:18:00,2,G26,Greenpoint Av,-73.954449,40.731352,1619.1740685361654
12:18:00,2,G28,Nassau Av,-73.951277,40.724635,1521.7097186260394
12:14:00,1,G29,Metropolitan Av,-73.951418,40.712792,1381.6876290738005
12:14:00,1,G30,Broadway,-73.950308,40.706092,1498.7220096310027
12:14:00,1,G31,Flushing Av,-73.950234,40.700377,1458.996471823187
12:14:00,1,G32,Myrtle-Willoughby Avs,-73.949046,40.694568,1372.9192186043028
12:14:00,1,G33,Bedford-Nostrand Avs,-73.953522,40.689627,1267.6312929077085
12:14:00,1,G34,Classon Av,-73.96007,40.688873,1184.0207159846314
12:14:00,1,G35,Clinton-Washington Avs,-73.966839,40.688089,1102.5083525573746
12:14:00,1,G36,Fulton St,-73.975375,40.687119,1011.7025106329759
12:46:00,1,H01,Aqueduct Racetrack,-73.834058,40.668234,2361.3409800992667
13:58:00,1,H02,Aqueduct-N Conduit Av,-73.834058,40.668234,2328.8198978465343
13:58:00,1,H03,Howard Beach-JFK Airport,-73.830301,40.660476,2480.0111024354446
13:58:00,1,H04,Broad Channel,-73.815925,40.608382,2965.6036596873532
13:58:00,1,H06,Beach 67 St,-73.796924,40.590927,3262.0619139568025
13:58:00,1,H07,Beach 60 St,-73.788522,40.592374,3370.6638370337255
13:58:00,1,H08,Beach 44 St,-73.776013,40.592943,3482.1609412808302
13:58:00,1,H09,Beach 36 St,-73.768175,40.595398,3582.3421428312176
13:58:00,1,H10,Beach 25 St,-73.761353,40.600066,3692.636203201227
13:58:00,1,H11,Far Rockaway-Mott Av,-73.755405,40.603995,3770.434522528958
13:58:00,1,H12,Beach 90 St,-73.813641,40.588034,3274.5261906986398
13:58:00,1,H13,Beach 98 St,-73.820558,40.585307,3374.6299642835456
13:58:00,1,H14,Beach 105 St,-73.827559,40.583209,3464.3061547597363
13:58:00,1,H15,Rockaway Park-Beach 116 St,-73.835592,40.580903,3567.8556053091866
12:14:00,1,J12,121 St,-73.828294,40.700492,2644.3073914206443
13:30:00,2,J13,111 St,-73.836345,40.697418,2805.3724920917857
13:30:00,2,J14,104 St,-73.84433,40.695178,2464.3073914206443
13:30:00,2,J15,Woodhaven Blvd,-73.851576,40.693879,2374.3073914206443
13:30:00,2,J16,85 St-Forest Pkwy,-73.86001,40.692435,2386.691598732126
13:30:00,2,J17,75 St-Elderts Ln,-73.867139,40.691324,2194.3073914206443
13:30:00,2,J19,Cypress Hills,-73.87255,40.689941,2219.0702395088247
13:30:00,2,J20,Crescent St,-73.873785,40.683194,2044.3073914206445
13:30:00,2,J21,Norwood Av,-73.880039,40.68141,1954.3073914206445
13:30:00,2,J22,Cleveland St,-73.884639,40.679947,1952.2852971969278
13:30:00,2,J23,Van Siclen Av,-73.891688,40.678024,1804.3073914206445
13:30:00,2,J24,Alabama Av,-73.898654,40.676992,1744.3073914206445
13:33:30,1,J27,Broadway Junction,-73.904512,40.679498,1637.808137273367
13:30:00,2,J28,Chauncey St,-73.910456,40.682893,1712.1427950183609
13:33:30,1,J29,Halsey St,-73.916559,40.68637,1714.1447827424788
13:33:30,1,J30,Gates Av,-73.92227,40.68963,1559.646795018361
13:33:30,1,J31,Kosciuszko St,-73.928814,40.693342,1526.8622029552448
12:02:00,1,L01,8 Av,-74.002578,40.739777,704.4656379482699
12:18:00,1,L02,6 Av,-73.996786,40.737335,676.7301002079056
12:18:00,1,L03,14 St-Union Sq,-73.99073,40.734789,766.7338277578887
12:18:00,1,L05,3 Av,-73.986122,40.732849,840.8936556864128
12:18:00,1,L06,1 Av,-73.981628,40.730953,878.728329861795
12:18:00,1,L08,Bedford Av,-73.956872,40.717304,1082.804925606476
12:18:00,1,L10,Lorimer St,-73.950275,40.714063,1168.4733448922057
12:18:00,1,L11,Graham Av,-73.944053,40.714565,1209.135104443555
12:18:00,1,L12,Grand St,-73.94067,40.711926,1297.72738632275
12:18:00,1,L13,Montrose Av,-73.93985,40.707739,1335.2902666472935
12:18:00,1,L14,Morgan Av,-73.933147,40.706152,1416.3535237132423
12:18:00,1,L15,Jefferson St,-73.922913,40.706607,1504.9972934987125
12:18:00,1,L16,DeKalb Av,-73.918425,40.703811,1572.7339447841443
12:18:00,1,L17,Myrtle-Wyckoff Avs,-73.911586,40.699814,1651.4915802521245
12:18:00,1,L19,Halsey St,-73.904084,40.695602,1699.7752166157609
12:18:00,1,L20,Wilson Av,-73.904046,40.688764,1777.0453699668394
12:18:00,2,L21,Bushwick Av-Aberdeen St,-73.905249,40.682829,1711.369381686198
12:18:00,1,L22,Broadway Junction,-73.90324,40.678856,1630.4470256324369
12:18:00,2,L24,Atlantic Av,-73.903097,40.675345,1708.9941743465629
12:06:00,2,L25,Sutter Av,-73.901975,40.669367,1792.1729592071206
12:06:00,2,L26,Livonia Av,-73.900571,40.664038,1868.460888332259
12:06:00,2,L27,New Lots Av,-73.899232,40.658733,1951.579336354734
12:06:00,2,L28,East 105 St,-73.899485,40.650573,2061.8057579913498
12:06:00,2,L29,Canarsie-Rockaway Pkwy,-73.90185,40.646654,2172.8222724073453
12:02:00,2,M01,Middle Village-Metropolitan Av,-73.889601,40.711396,2148.4767189282297
12:02:00,2,M04,Fresh Pond Rd,-73.895877,40.706186,2038.6171200743618
12:02:00,2,M05,Forest Av,-73.903077,40.704423,1920.9409163060434
12:02:00,2,M06,Seneca Av,-73.90774,40.702762,1826.0812794345352
13:14:00,1,M08,Myrtle-Wyckoff Avs,-73.912385,40.69943,1753.4742697402771
13:18:00,2,M09,Knickerbocker Av,-73.919711,40.698664,1625.1866744526817
13:14:00,1,M10,Central Av,-73.927397,40.697857,1538.1632745903282
13:33:30,1,M11,Myrtle Av,-73.935657,40.697207,1374.1347950183608
12:13:30,1,M12,Flushing Av,-73.941126,40.70026,1374.8965327099424
12:13:30,1,M13,Lorimer St,-73.947408,40.703869,1283.658014191424
12:13:30,1,M14,Hewes St,-73.953431,40.70687,1187.996315234643
12:13:30,1,M16,Marcy Av,-73.957757,40.708359,1092.9137326520604
12:13:30,1,M18,Delancey St-Essex St,-73.987437,40.718315,719.1103993187271
12:13:30,1,M19,Bowery,-73.993915,40.72028,637.825453082168
12:13:30,1,M20,Canal St,-73.999892,40.718092,536.3190815194585
12:13:30,1,M21,Chambers St,-74.003401,40.713243,428.86931752755015
12:13:30,1,M22,Fulton St,-74.007582,40.710374,334.90384697914124
12:05:30,1,M23,Broad St,-74.011056,40.706476,399.8108237233273
12:13:30,1,N02,8 Av,-74.011719,40.635064,1809.6232680694122
12:13:30,1,N03,Fort Hamilton Pkwy,-74.005351,40.631386,1897.4039347360788
12:13:30,1,N04,New Utrecht Av,-73.996353,40.624842,2014.5154832925093
12:13:30,1,N05,18 Av,-73.990414,40.620671,2110.485760703342
12:13:30,1,N06,20 Av,-73.985026,40.61741,2197.9222686398493
12:13:30,1,N07,Bay Pkwy,-73.981848,40.611815,2295.6937918186577
12:13:30,1,N08,Kings Hwy,-73.980353,40.603923,2423.1981222650265
12:13:30,1,N09,Avenue U,-73.979137,40.597473,2538.890378606816
12:13:30,1,N10,86 St,-73.97823,40.592721,2681.8970810196843
12:38:00,2,Q01,Canal St,-74.00046,40.718383,762.0402345403172
12:06:00,1,Q03,72 St,-73.958424,40.768799,1351.2142521405763
12:06:00,1,Q04,86 St,-73.951787,40.777891,1476.2536871023187
12:06:00,1,Q05,96 St,-73.947152,40.784318,1569.2521510040085
12:14:00,1,R01,Astoria-Ditmars Blvd,-73.912034,40.775036,2194.246716390152
12:14:00,1,R03,Astoria Blvd,-73.917843,40.770258,2097.951369761472
12:14:00,1,R04,30 Av,-73.921479,40.766779,1991.2544299786491
12:14:00,1,R05,Broadway,-73.925508,40.76182,1895.8734775976966
12:14:00,1,R06,36 Av,-73.929575,40.756804,1783.3922523012538
12:14:00,1,R08,39 Av-Dutch Kills,-73.932755,40.752882,1665.847342121613
12:14:00,1,R09,Queensboro Plaza,-73.940202,40.750582,1503.4025660022103
12:14:00,1,R11,Lexington Av/59 St,-73.967258,40.76266,1310.003413466318
12:14:00,1,R13,5 Av/59 St,-73.973347,40.764811,1201.322576317855
12:14:00,1,R14,57 St-7 Av,-73.980658,40.764664,1021.256928239362
12:14:00,1,R15,49 St,-73.984139,40.759901,932.1280045943093
12:06:00,1,R16,Times Sq-42 St,-73.986754,40.754672,838.1231170087766
12:06:00,1,R17,34 St-Herald Sq,-73.98795,40.749567,941.1028668598784
12:06:00,1,R18,28 St,-73.988691,40.745494,1027.4803760001707
12:02:00,2,R19,23 St,-73.989344,40.741303,991.5666918857193
12:10:00,1,R20,14 St-Union Sq,-73.990568,40.735736,899.3902604609523
12:26:00,1,R21,8 St-NYU,-73.992629,40.730328,788.8385826086034
12:26:00,1,R22,Prince St,-73.997702,40.724329,665.1315933612915
12:26:00,1,R23,Canal St,-74.001775,40.719527,551.9182240162544
12:26:00,1,R24,City Hall,-74.006978,40.713282,386.46479097750523
12:06:00,1,R25,Cortlandt St,-74.011029,40.710668,244.60127931769725
12:10:00,1,R26,Rector St,-74.013342,40.70722,360.0491023999364
12:10:00,1,R27,Whitehall St-South Ferry,-74.012994,40.703087,451.16638206683433
12:06:00,1,R28,Court St,-73.991777,40.6941,600.6173976717178
12:13:30,1,R29,Jay St-MetroTech,-73.985942,40.69218,676.5418860759371
12:13:30,1,R30,DeKalb Av,-73.981824,40.690635,774.5141240940884
12:13:30,1,R31,Atlantic Av-Barclays Ctr,-73.97881,40.683666,877.0125181244703
12:16:30,1,R32,Union St,-73.98311,40.677316,977.3625181244702
12:16:30,1,R33,4 Av-9 St,-73.988302,40.670847,1082.9625181244703
12:16:30,1,R34,Prospect Av,-73.992872,40.665414,1195.5414654928913
12:16:30,1,R35,25 St,-73.998091,40.660397,1291.9139251902673
12:05:30,1,R36,36 St,-74.003549,40.655144,1343.9317685792273
12:16:30,1,R39,45 St,-74.010006,40.648939,1459.9910102853885
12:13:30,1,R40,53 St,-74.014034,40.645069,1553.766372604229
12:13:30,1,R41,59 St,-74.017881,40.641362,1626.8047327486086
12:16:30,1,R42,Bay Ridge Av,-74.023377,40.634967,1791.2789815348167
12:16:30,1,R43,77 St,-74.02551,40.629742,1873.887648639216
12:16:30,1,R44,86 St,-74.028398,40.622687,2058.3395837203648
12:56:30,1,R45,Bay Ridge-95 St,-74.030876,40.616622,2126.9213228507992
12:13:30,1,S01,Franklin Av,-73.955827,40.680596,1076.115079035618
12:13:30,1,S03,Park Pl,-73.957624,40.674772,1192.4553568133956
12:08:30,1,S04,Botanic Garden,-73.959245,40.670343,1211.9394030916121
