start_time,ntransfers,stop_id,stop_name,stop_lon,stop_lat,duration
12:36:30,0,101,Van Cortlandt Park-242 St,-73.898583,40.889248,4779.483877508899
12:36:30,0,103,238 St,-73.90087,40.884667,4676.969533246604
12:36:30,0,104,231 St,-73.904834,40.878856,4583.854969239183
12:36:30,0,106,Marble Hill-225 St,-73.909831,40.874561,4486.764946037327
12:36:30,0,107,215 St,-73.915279,40.869444,4387.011591109053
12:36:30,0,108,207 St,-73.918822,40.864621,4288.318982413401
12:36:30,0,109,Dyckman St,-73.925536,40.860531,4180.178105848106
12:36:30,0,110,191 St,-73.929412,40.855225,4089.9590582290584
12:36:30,0,111,181 St,-73.933596,40.849505,3994.714469484469
12:36:30,0,112,168 St-Washington Hts,-73.940133,40.840556,3873.8641441048594
12:36:30,0,113,157 St,-73.94489,40.834041,3774.5877142955005
12:36:30,0,114,145 St,-73.95036,40.826551,3658.9230669566864
12:36:30,0,115,137 St-City College,-73.953676,40.822008,3557.880283897049
12:36:30,0,116,125 St,-73.958372,40.815581,3459.119151978614
12:36:30,0,117,116 St-Columbia University,-73.96411,40.807722,3340.963082614452
12:36:30,0,118,Cathedral Pkwy (110 St),-73.966847,40.803967,3262.9322691386924
12:36:30,0,119,103 St,-73.968379,40.799446,3183.6140873205104
12:20:30,0,120,96 St,-73.972323,40.793919,2912.0241903899946
12:28:30,0,121,86 St,-73.976218,40.788644,2969.4744854469745
12:28:30,0,122,79 St,-73.979917,40.783934,2890.6994243222803
12:20:30,0,123,72 St,-73.98197,40.778453,2720.1618892884035
12:20:30,0,124,66 St-Lincoln Center,-73.982209,40.77344,2875.3005114279526
12:20:30,0,125,59 St-Columbus Circle,-73.981929,40.768247,2812.4080565115405
12:20:30,0,126,50 St,-73.983849,40.761728,2703.7806055311485
12:20:30,0,127,Times Sq-42 St,-73.987495,40.75529,2471.5835109100253
12:20:30,0,128,34 St-Penn Station,-73.991057,40.750373,2364.194000420515
12:36:30,0,129,28 St,-73.993365,40.747215,2628.33534145781
12:36:30,0,130,23 St,-73.995657,40.744081,2559.7081110466384
12:36:30,0,131,18 St,-73.997871,40.74104,2491.2675978273537
12:20:30,0,132,14 St,-74.000201,40.737826,2205.1904941091543
12:28:30,0,133,Christopher St-Sheridan Sq,-74.002906,40.733422,2462.4751709200177
12:28:30,0,134,Houston St,-74.005367,40.728251,2382.475577424083
12:28:30,0,135,Canal St,-74.006277,40.722854,2292.717964756604
12:28:30,0,136,Franklin St,-74.006886,40.719318,2227.562715465968
12:20:30,0,137,Chambers St,-74.009266,40.715478,1957.539201306918
12:20:30,0,138,WTC Cortlandt,-74.012188,40.711835,2086.2836447807645
12:20:30,0,139,Rector St,-74.013783,40.707513,2006.9850779017836
12:20:30,0,142,South Ferry,-74.013664,40.702068,1902.2646565079426
13:40:30,0,201,Wakefield-241 St,-73.85062,40.903125,5464.540905776729
13:40:30,0,204,Nereid Av,-73.854376,40.898379,5236.276857438361
13:40:30,0,205,233 St,-73.857473,40.893193,5104.276857438361
13:40:30,0,206,225 St,-73.860341,40.888022,5008.276857438361
13:40:30,0,207,219 St,-73.862633,40.883895,4926.276857438362
13:40:30,0,208,Gun Hill Rd,-73.866256,40.87785,4817.776857438362
13:40:30,0,209,Burke Av,-73.867164,40.871356,4895.276857438362
13:40:30,0,210,Allerton Av,-73.867352,40.865462,4950.904235012773
13:40:30,0,211,Pelham Pkwy,-73.867615,40.857192,4838.996189035762
13:40:30,0,212,Bronx Park East,-73.868457,40.848828,4711.846189035761
13:40:30,0,213,E 180 St,-73.873488,40.841894,4405.9837539900855
12:20:30,0,214,West Farms Sq-E Tremont Av,-73.880049,40.840295,4274.289558394833
12:20:30,0,215,174 St,-73.887734,40.837288,4148.250194276741
12:20:30,0,216,Freeman St,-73.891865,40.829993,4025.7423054713317
12:20:30,0,217,Simpson St,-73.893064,40.824073,3912.5296189041674
13:40:30,0,218,Intervale Av,-73.896736,40.822181,3837.8651843803577
13:40:30,0,219,Prospect Av,-73.90177,40.819585,3754.299805479912
12:20:30,0,220,Jackson Av,-73.907807,40.81649,3654.5732718509394
13:40:30,0,221,3 Av-149 St,-73.917757,40.816109,3515.601864226306
12:20:30,0,222,149 St-Grand Concourse,-73.926718,40.81841,3383.942415407408
12:20:30,0,224,135 St,-73.94077,40.814229,3469.8034059008755
12:20:30,0,225,125 St,-73.945495,40.807754,3355.999084913221
12:20:30,0,226,116 St,-73.949625,40.802098,3256.141060221863
12:20:30,0,227,Central Park North (110 St),-73.951822,40.799075,3177.2592304886994
12:20:30,0,228,Park Place,-74.008811,40.713051,1868.333045258242
12:20:30,0,229,Fulton St,-74.006571,40.709416,1753.4603939012484
12:20:30,0,230,Wall St,-74.0091,40.706821,1671.3688542230886
12:20:30,0,231,Clark St,-73.993086,40.697466,1464.3127506472563
12:20:30,0,232,Borough Hall,-73.989998,40.693219,1369.6749066203574
12:20:30,0,233,Hoyt St,-73.985065,40.690545,1280.6207853703336
12:20:30,0,234,Nevins St,-73.980492,40.688246,1139.6547104853003
12:20:30,0,235,Atlantic Av-Barclays Ctr,-73.977666,40.684359,1039.4399542270658
12:23:30,0,236,Bergen St,-73.975098,40.680829,1072.1508906791703
12:23:30,0,237,Grand Army Plaza,-73.971046,40.675235,957.1684242852484
12:23:30,0,238,Eastern Pkwy-Brooklyn Museum,-73.964375,40.671987,849.4219289581456
12:20:30,0,239,Franklin Av-Medgar Evers College,-73.958131,40.670682,723.568651748284
12:04:00,0,241,President St-Medgar Evers College,-73.950683,40.667883,565.7794166208053
12:04:00,0,242,Sterling St,-73.95085,40.662742,469.7697848927599
12:04:00,0,243,Winthrop St,-73.9502,40.656652,381.0976351480066
12:04:00,0,244,Church Av,-73.949575,40.650843,301.76707248816007
12:04:00,0,245,Beverly Rd,-73.948959,40.645098,215.99999999999997
12:04:00,0,246,Newkirk Av-Little Haiti,-73.948411,40.639967,135.14922711058264
12:20:30,0,247,Flatbush Av-Brooklyn College,-73.947642,40.632836,0.0
12:23:30,0,248,Nostrand Av,-73.950466,40.669847,860.197903610583
12:23:30,0,249,Kingston Av,-73.942161,40.669399,948.7196427410178
12:20:30,0,250,Crown Hts-Utica Av,-73.932942,40.668897,975.4548206066305
12:23:30,0,251,Sutter Av-Rutland Rd,-73.92261,40.664717,1118.5798206066306
12:23:30,0,252,Saratoga Av,-73.916327,40.661453,1233.4339872732974
12:23:30,0,253,Rockaway Av,-73.908946,40.662549,1322.038153939964
12:23:30,0,254,Junius St,-73.902447,40.663515,1409.5798206066306
12:23:30,0,255,Pennsylvania Av,-73.894895,40.664635,1515.6214872732974
12:23:30,0,256,Van Siclen Av,-73.889395,40.665449,1594.9548206066306
12:23:30,0,257,New Lots Av,-73.884079,40.666235,1666.2119634637736
12:20:30,0,301,Harlem-148 St,-73.93647,40.82388,3729.920143431494
12:20:30,0,302,145 St,-73.936245,40.820421,3608.7566477961373
13:43:30,0,401,Woodlawn,-73.878751,40.886037,4782.08608791344
13:43:30,0,402,Mosholu Pkwy,-73.884655,40.87975,4624.637716651823
12:23:30,0,405,Bedford Park Blvd-Lehman College,-73.890064,40.873412,4509.248860694502
12:23:30,0,406,Kingsbridge Rd,-73.897174,40.86776,4392.876224431988
12:23:30,0,407,Fordham Rd,-73.901034,40.862803,4295.954002209766
12:23:30,0,408,183 St,-73.903879,40.858407,4211.3572101743675
12:23:30,0,409,Burnside Av,-73.907684,40.853453,4110.07971656823
12:23:30,0,410,176 St,-73.911794,40.84848,4039.415507692291
12:23:30,0,411,Mt Eden Av,-73.914685,40.844434,3960.068568916781
12:23:30,0,412,170 St,-73.917791,40.840075,3879.8621847670834
12:23:30,0,413,167 St,-73.9214,40.835537,3790.733637187784
12:23:30,0,414,161 St-Yankee Stadium,-73.925831,40.827994,3612.1782494737863
12:23:30,0,415,149 St-Grand Concourse,-73.927351,40.818375,3434.2640665344234
12:20:30,0,416,138 St-Grand Concourse,-73.929849,40.813224,3200.1060037979096
12:20:30,0,418,Fulton St,-74.009509,40.710368,1702.52512631325
12:20:30,0,419,Wall St,-74.011862,40.707557,1622.7109670212144
12:20:30,0,420,Bowling Green,-74.014065,40.704817,1543.3500009637733
12:20:30,0,423,Borough Hall,-73.990151,40.692404,1278.896066868279
13:40:30,0,501,Eastchester-Dyre Av,-73.830834,40.8883,5133.684843156206
13:40:30,0,502,Baychester Av,-73.838591,40.878663,4986.052835922932
13:40:30,0,503,Gun Hill Rd,-73.846384,40.869526,4873.868381882216
13:40:30,0,504,Pelham Pkwy,-73.855359,40.858985,4735.115303064483
13:40:30,0,505,Morris Park,-73.860495,40.854364,4640.501611132942
13:19:30,0,601,Pelham Bay Park,-73.828121,40.852462,4813.008277217498
13:19:30,0,602,Buhre Av,-73.832569,40.84681,4635.745119322762
13:19:30,0,603,Middletown Rd,-73.836322,40.843863,4565.452015874486
13:19:30,0,604,Westchester Sq-E Tremont Av,-73.842952,40.839892,4433.275545286251
13:19:30,0,606,Zerega Av,-73.847036,40.836488,4346.225545286251
13:19:30,0,607,Castle Hill Av,-73.851222,40.834255,4276.979643646907
12:23:30,0,608,Parkchester,-73.860816,40.833226,4091.5658505434585
12:23:30,0,609,St Lawrence Av,-73.867618,40.831509,4335.426183206257
12:23:30,0,610,Morrison Av-Soundview,-73.874516,40.829521,4234.275139225803
12:23:30,0,611,Elder Av,-73.879159,40.828584,4161.549734765812
12:23:30,0,612,Whitlock Av,-73.886283,40.826525,4048.8449728610503
12:23:30,0,613,Hunts Point Av,-73.890549,40.820948,3819.165850543458
12:20:30,0,614,Longwood Av,-73.896435,40.816104,3938.257145936964
12:20:30,0,615,E 149 St,-73.904098,40.812118,3835.4863638415386
12:20:30,0,616,E 143 St-St Mary's St,-73.907657,40.808719,3758.8122677543665
12:20:30,0,617,Cypress Av,-73.914042,40.805368,3647.397317547513
12:20:30,0,618,Brook Av,-73.91924,40.807566,3571.7783684370456
12:20:30,0,619,3 Av-138 St,-73.926138,40.810476,3451.5204604725363
12:20:30,0,621,125 St,-73.937594,40.804138,3017.122429553494
12:20:30,0,622,116 St,-73.941617,40.798629,3344.9374222920064
12:20:30,0,623,110 St,-73.94425,40.79502,3264.387086721537
12:20:30,0,624,103 St,-73.947478,40.7906,3185.347351622199
12:20:30,0,625,96 St,-73.95107,40.785672,3095.577614780094
12:20:30,0,626,86 St,-73.955589,40.779492,2708.801883389645
12:20:30,0,627,77 St,-73.959874,40.77362,2926.115935834947
12:20:30,0,628,68 St-Hunter College,-73.96387,40.768141,2832.3652574351754
12:20:30,0,629,59 St,-73.967967,40.762526,2508.7471858349472
12:20:30,0,630,51 St,-73.97192,40.757107,2668.485591561133
12:20:30,0,631,Grand Central-42 St,-73.976848,40.751776,2341.9002928176506
12:20:30,0,632,33 St,-73.982076,40.746081,2570.454017776142
12:20:30,0,633,28 St,-73.984264,40.74307,2500.632554041321
12:20:30,0,634,23 St,-73.986599,40.739864,2426.0640999233974
12:20:30,0,635,14 St-Union Sq,-73.989951,40.734673,2093.7432046950453
12:20:30,0,636,Astor Pl,-73.99107,40.730054,2214.350016289399
12:20:30,0,637,Bleecker St,-73.994659,40.725915,2118.510789046439
12:20:30,0,638,Spring St,-73.997141,40.722301,2047.9850158505626
12:20:30,0,639,Canal St,-74.000193,40.718803,1973.9020547784505
12:20:30,0,640,Brooklyn Bridge-City Hall,-74.004131,40.713065,1821.187578904906
12:20:30,1,701,Flushing-Main St,-73.83003,40.7596,4204.261948438368
12:20:30,1,702,Mets-Willets Point,-73.845625,40.754622,4039.2392947166845
12:20:30,1,705,111 St,-73.855334,40.75173,4103.459730179191
12:20:30,1,706,103 St-Corona Plaza,-73.8627,40.749865,4024.5523603347015
12:20:30,1,707,Junction Blvd,-73.869527,40.749145,3820.378246880694
12:20:30,1,708,90 St-Elmhurst Av,-73.876613,40.748408,3903.4591083620503
13:43:30,2,709,82 St-Jackson Hts,-73.883697,40.747659,3798.3983649350334
12:20:30,1,710,74 St-Broadway,-73.891394,40.746848,3688.346380100071
12:20:30,1,711,69 St,-73.896403,40.746325,3602.175199576567
12:20:30,1,712,61 St-Woodside,-73.902984,40.74563,3518.7084349786974
12:20:30,1,713,52 St,-73.912549,40.744149,3358.6506002208625
12:20:30,1,714,46 St-Bliss St,-73.918435,40.743132,3302.361126536652
12:20:30,1,715,40 St-Lowery St,-73.924016,40.743781,3244.055443413805
12:20:30,1,716,33 St-Rawson St,-73.930997,40.744587,3159.6634315794854
12:20:30,1,718,Queensboro Plaza,-73.940202,40.750582,3015.3817989264244
12:20:30,1,719,Court Sq,-73.945264,40.747023,2909.144338793052
12:20:30,1,720,Hunters Point Av,-73.948916,40.742216,2809.6696713715974
12:20:30,1,721,Vernon Blvd-Jackson Av,-73.953581,40.742626,2766.6921794101822
12:36:30,1,723,Grand Central-42 St,-73.976041,40.751431,2552.758471212491
12:36:30,1,724,5 Av,-73.981963,40.753821,2623.076771622479
12:36:30,1,725,Times Sq-42 St,-73.987691,40.755477,2591.5835109100253
12:36:30,1,726,34 St-Hudson Yards,-74.00191,40.755882,2736.1857006910473
12:36:30,1,901,Grand Central-42 St,-73.979189,40.752769,2492.758471212491
12:20:30,1,902,Times Sq-42 St,-73.986229,40.755983,2531.5835109100253
13:08:30,1,A02,Inwood-207 St,-73.919899,40.868072,4287.5841018650635
13:08:30,1,A03,Dyckman St,-73.927271,40.865491,4187.845275049422
13:08:30,1,A05,190 St,-73.93418,40.859022,4057.465264066445
13:08:30,1,A06,181 St,-73.937969,40.851695,3944.5803521721714
13:08:30,1,A07,175 St,-73.939704,40.847391,3851.795346659492
13:08:30,1,A09,168 St,-73.939561,40.840719,3717.2013700839207
13:48:30,1,A10,163 St-Amsterdam Av,-73.939892,40.836013,3750.813845240359
13:48:30,1,A11,155 St,-73.941514,40.830518,3665.944018302812
13:08:30,1,A12,145 St,-73.944216,40.824783,3471.3898720186908
13:08:30,1,A14,135 St,-73.947649,40.817894,3382.5208189744667
13:03:30,1,A15,125 St,-73.952343,40.811109,3257.1252634189113
12:28:30,1,A16,116 St,-73.954882,40.805085,3395.063684043769
12:28:30,1,A17,Cathedral Pkwy (110 St),-73.958161,40.800603,3401.171562118171
12:28:30,1,A18,103 St,-73.961454,40.796092,3317.1100885049336
12:28:30,1,A19,96 St,-73.964696,40.791642,3229.983116303581
12:28:30,1,A20,86 St,-73.968916,40.785868,3129.1754239958887
12:28:30,1,A21,81 St-Museum of Natural History,-73.972143,40.781433,3030.7008220246985
12:28:30,1,A22,72 St,-73.97641,40.775594,2938.8379432368192
12:28:30,1,A24,59 St-Columbus Circle,-73.981736,40.768296,2756.114829591344
13:08:30,1,A25,50 St,-73.985984,40.762456,2694.266679226857
12:28:30,1,A27,42 St-Port Authority Bus Terminal,-73.989735,40.757308,2591.5835109100253
12:28:30,1,A28,34 St-Penn Station,-73.993391,40.752287,2606.5854493228203
12:28:30,1,A30,23 St,-73.998041,40.745906,2498.3469062311647
12:28:30,1,A31,14 St,-74.00169,40.740893,2400.3624101071337
12:28:30,1,A32,W 4 St-Wash Sq,-74.000495,40.732338,2279.7680658848035
12:20:30,1,A33,Spring St,-74.003739,40.726227,2197.130796054183
12:28:30,1,A34,Canal St,-74.005229,40.720824,2083.2095246605395
12:28:30,1,A36,Chambers St,-74.008585,40.714111,2024.767117804316
12:04:00,2,A38,Fulton St,-74.007691,40.710197,1925.4561596861288
12:20:30,2,A40,High St,-73.990531,40.699337,1808.5687245286902
13:24:30,2,A41,Jay St-MetroTech,-73.987342,40.692338,1681.939954227066
13:24:30,2,A42,Hoyt-Schermerhorn Sts,-73.985001,40.688484,1596.1446341933854
13:56:30,2,A43,Lafayette Av,-73.973946,40.686113,1459.688704706206
13:56:30,2,A44,Clinton-Washington Avs,-73.965838,40.683263,1370.2199243818684
13:56:30,2,A45,Franklin Av,-73.956848,40.68138,1268.9697295260617
12:28:30,2,A46,Nostrand Av,-73.950426,40.680438,1350.416143708173
12:28:30,2,A47,Kingston-Throop Avs,-73.940858,40.679921,1448.5917413998463
12:28:30,2,A48,Utica Av,-73.930729,40.679364,1548.4638536110676
12:28:30,2,A49,Ralph Av,-73.920786,40.678822,1657.8711383792795
12:28:30,2,A50,Rockaway Av,-73.911946,40.67834,1753.2250615846217
12:28:30,2,A51,Broadway Junction,-73.905316,40.678334,1832.8644320302453
12:28:30,2,A52,Liberty Av,-73.896548,40.674542,1969.089992662316
12:28:30,2,A53,Van Siclen Av,-73.890358,40.67271,2058.3887374321907
12:28:30,2,A54,Shepherd Av,-73.88075,40.67413,2169.4727004884458
12:28:30,2,A55,Euclid Av,-73.872106,40.675377,2150.1918867490253
12:28:30,2,A57,Grant Av,-73.86505,40.677044,2280.3985682635016
12:28:30,2,A59,80 St,-73.858992,40.679371,2377.9052120697597
12:28:30,2,A60,88 St,-73.85147,40.679843,2477.094852480719
12:28:30,2,A61,Rockaway Blvd,-73.843853,40.680429,2570.518770183248
12:28:30,2,A63,104 St,-73.837683,40.681711,2661.5667213602314
13:08:30,2,A64,111 St,-73.832163,40.684331,2752.702100421603
13:08:30,2,A65,Ozone Park-Lefferts Blvd,-73.825798,40.685951,2863.5805601087272
13:40:30,1,B04,21 St-Queensbridge,-73.942836,40.754203,3083.452984018814
13:40:30,1,B06,Roosevelt Island,-73.95326,40.759145,2975.5910112749843
13:08:30,1,B08,Lexington Av/63 St,-73.966113,40.764629,2868.7471858349472
13:08:30,1,B10,57 St,-73.97745,40.763972,2936.2375547956403
12:28:30,1,B12,9 Av,-73.994324,40.646292,2098.99403186124
12:28:30,1,B13,Fort Hamilton Pkwy,-73.994304,40.640914,2200.8089254782612
12:28:30,1,B14,50 St,-73.994791,40.63626,2281.5688686600793
12:28:30,1,B15,55 St,-73.995476,40.631435,2384.597318162213
12:28:30,1,B16,62 St,-73.996895,40.626472,2449.5457002885614
12:28:30,1,B17,71 St,-73.998864,40.619589,2552.4429898748667
12:28:30,1,B18,79 St,-74.00061,40.613501,2656.8937744683044
12:28:30,1,B19,18 Av,-74.001736,40.607954,2741.3773458968762
12:28:30,1,B20,20 Av,-73.998168,40.604556,2826.5889255966617
12:28:30,1,B21,Bay Pkwy,-73.993728,40.601875,2907.746858116403
13:48:30,1,B22,25 Av,-73.986829,40.597704,3008.5671133305545
13:48:30,1,B23,Bay 50 St,-73.983765,40.588841,2866.554995983616
12:15:00,1,D01,Norwood-205 St,-73.878855,40.874811,4771.330839074971
12:15:00,1,D03,Bedford Park Blvd,-73.887138,40.873244,4602.631084752829
12:15:00,1,D04,Kingsbridge Rd,-73.893509,40.866978,4484.090700137445
12:15:00,1,D05,Fordham Rd,-73.897749,40.861296,4383.957814231406
12:15:00,1,D06,182-183 Sts,-73.900741,40.856093,4298.785026951189
13:24:30,1,D07,Tremont Av,-73.905227,40.85041,4215.184653468463
13:24:30,1,D08,174-175 Sts,-73.910136,40.8459,4188.266379612214
13:24:30,1,D09,170 St,-73.9134,40.839306,4082.7225700884046
13:24:30,1,D10,167 St,-73.91844,40.833771,3975.484357887737
13:24:30,1,D11,161 St-Yankee Stadium,-73.925651,40.827905,3826.705646403143
13:24:30,1,D12,155 St,-73.938209,40.830135,3693.230270206153
13:03:30,1,D13,145 St,-73.944216,40.824783,3545.3184534093652
12:28:30,1,D14,7 Av,-73.981637,40.762862,2787.7927266497563
12:28:30,1,D15,47-50 Sts-Rockefeller Ctr,-73.981329,40.758663,2677.5084794617624
12:28:30,1,D16,42 St-Bryant Pk,-73.984569,40.754222,2565.2468592758396
12:28:30,1,D17,34 St-Herald Sq,-73.987823,40.749719,2478.7892208502226
12:28:30,1,D18,23 St,-73.992821,40.742878,2611.9175102225727
12:28:30,1,D19,14 St,-73.996209,40.738228,2510.253635877023
12:28:30,1,D20,W 4 St-Wash Sq,-74.000495,40.732338,2252.4600651773994
12:28:30,1,D21,Broadway-Lafayette St,-73.996204,40.725297,2103.4382829991814
12:28:30,1,D22,Grand St,-73.993753,40.718267,1966.7517356168087
12:28:30,1,D24,Atlantic Av-Barclays Ctr,-73.97689,40.68446,1266.701857513046
12:52:30,1,D25,7 Av,-73.972367,40.67705,1388.9445485155757
12:39:30,1,D26,Prospect Park,-73.962246,40.661614,1056.019499205911
12:39:30,1,D27,Parkside Av,-73.961495,40.655292,1402.1069113269996
12:39:30,1,D28,Church Av,-73.962982,40.650527,1325.8809149586527
12:39:30,1,D29,Beverley Rd,-73.964492,40.644031,1432.9773331623467
12:39:30,1,D30,Cortelyou Rd,-73.963891,40.640927,1511.1143631177324
12:39:30,1,D31,Newkirk Plaza,-73.962793,40.635082,1504.6249149586529
12:39:30,1,D32,Avenue H,-73.961639,40.62927,1617.9496940025665
12:39:30,1,D33,Avenue J,-73.960803,40.625039,1714.8342353752412
12:39:30,1,D34,Avenue M,-73.959399,40.617618,1825.6405845815905
12:39:30,1,D35,Kings Hwy,-73.957734,40.60867,1770.0202871920533
12:28:30,1,D37,Avenue U,-73.955929,40.5993,1989.3685303069192
12:28:30,1,D38,Neck Rd,-73.955161,40.595246,2093.4662876387188
12:39:30,1,D39,Sheepshead Bay,-73.954155,40.586896,2039.1806932834238
12:28:30,1,D40,Brighton Beach,-73.961376,40.577621,2200.4875933864105
12:28:30,1,D41,Ocean Pkwy,-73.968501,40.576312,2389.2325205116085
12:28:30,1,D42,W 8 St-NY Aquarium,-73.975939,40.576127,2503.78220092997
12:28:30,1,D43,Coney Island-Stillwell Av,-73.981233,40.577422,2592.5481583767782
13:16:30,1,E01,World Trade Center,-74.009781,40.712582,1940.4980514765614
13:51:30,1,F01,Jamaica-179 St,-73.783817,40.712646,4384.3749660427775
12:23:30,1,F02,169 St,-73.793604,40.71047,4294.3749660427775
12:52:30,1,F03,Parsons Blvd,-73.803326,40.707564,4130.639741644266
12:52:30,1,F04,Sutphin Blvd,-73.810708,40.70546,4040.639741644266
12:52:30,1,F05,Briarwood,-73.820574,40.709179,3799.3749660427775
12:52:30,1,F06,Kew Gardens-Union Tpke,-73.831008,40.714441,3909.9204989794416
12:52:30,1,F07,75 Av,-73.837324,40.718331,4050.569279467247
12:52:30,1,F09,Court Sq-23 St,-73.946,40.747846,3029.144338793052
12:28:30,1,F11,Lexington Av/53 St,-73.969055,40.757552,2906.416624934012
12:28:30,1,F12,5 Av/53 St,-73.975224,40.760167,2894.605316063204
12:04:00,2,F14,2 Av,-73.989938,40.723402,2140.266015498983
13:24:30,2,F15,Delancey St-Essex St,-73.988114,40.718611,2028.3324055404769
13:40:30,2,F16,East Broadway,-73.990173,40.713715,1937.2018589889706
13:40:30,2,F18,York St,-73.986751,40.701397,1771.939954227066
12:04:00,2,F20,Bergen St,-73.990862,40.686145,1822.7892902842673
13:00:30,2,F21,Carroll St,-73.995048,40.680303,1937.85880021602
13:00:30,2,F22,Smith-9 Sts,-73.995959,40.67358,1856.1566208937325
12:20:30,2,F23,4 Av-9 St,-73.989779,40.670272,1772.789954227066
12:20:30,2,F24,7 Av,-73.980305,40.666271,1883.7240330969894
12:20:30,2,F25,15 St-Prospect Park,-73.979493,40.660365,1997.9284040361504
12:20:30,2,F26,Fort Hamilton Pkwy,-73.975776,40.650782,2170.7009158844917
12:20:30,2,F27,Church Av,-73.979678,40.644041,2171.889172056874
12:20:30,2,F29,Ditmas Av,-73.978172,40.636119,2291.889172056874
12:20:30,2,F30,18 Av,-73.976971,40.629755,2411.889172056874
12:20:30,2,F31,Avenue I,-73.976127,40.625322,2471.889172056874
12:20:30,2,F32,Bay Pkwy,-73.975264,40.620769,2531.889172056874
12:20:30,2,F33,Avenue N,-73.974197,40.61514,2651.889172056874
12:20:30,2,F34,Avenue P,-73.973022,40.608944,2741.889172056874
12:47:30,1,F35,Kings Hwy,-73.972361,40.603217,2911.170240581845
12:47:30,1,F36,Avenue U,-73.973357,40.596063,3019.1464310580354
12:47:30,1,F38,Avenue X,-73.97425,40.58962,2953.78220092997
12:47:30,1,F39,Neptune Av,-73.974574,40.581011,2818.78220092997
12:07:00,3,G05,Jamaica Center-Parsons/Archer,-73.801109,40.702147,3355.5552276661783
12:07:00,3,G06,Sutphin Blvd-Archer Av-JFK Airport,-73.807969,40.700486,3295.5552276661783
12:52:30,1,G07,Jamaica-Van Wyck,-73.816859,40.702566,3661.709437032539
12:52:30,1,G08,Forest Hills-71 Av,-73.844521,40.721691,3963.7471858349472
12:52:30,1,G09,67 Av,-73.852719,40.726523,4099.29781345001
12:52:30,1,G10,63 Dr-Rego Park,-73.861604,40.729846,4114.244140986678
12:52:30,1,G11,Woodhaven Blvd,-73.869229,40.733106,4002.118679732065
12:52:30,1,G12,Grand Av-Newtown,-73.877223,40.737015,3884.015548977001
12:52:30,1,G13,Elmhurst Av,-73.882017,40.742454,3778.424388756006
12:52:30,1,G14,Jackson Hts-Roosevelt Av,-73.891338,40.746644,3543.7471858349472
12:36:30,1,G15,65 St,-73.898453,40.749669,3718.821208366445
13:16:30,1,G16,Northern Blvd,-73.906006,40.752885,3621.5543814433677
13:16:30,1,G18,46 St,-73.913333,40.756312,3525.1804753176716
13:16:30,1,G19,Steinway St,-73.92074,40.756879,3417.919848997134
13:16:30,1,G20,36 St,-73.928781,40.752039,3297.919848997134
12:52:30,1,G21,Queens Plaza,-73.937243,40.748973,3152.511685731828
13:08:30,2,G22,Court Sq,-73.943832,40.746554,2969.144338793052
13:08:30,2,G24,21 St,-73.949724,40.744065,2964.9809577475194
13:08:30,2,G26,Greenpoint Av,-73.954449,40.731352,2824.3861783814536
13:08:30,2,G28,Nassau Av,-73.951277,40.724635,2713.436423479493
13:08:30,2,G29,Metropolitan Av,-73.951418,40.712792,2561.3188126420546
13:08:30,2,G30,Broadway,-73.950308,40.706092,2472.361889565131
13:08:30,2,G31,Flushing Av,-73.950234,40.700377,2380.9615205614414
13:08:30,2,G32,Myrtle-Willoughby Avs,-73.949046,40.694568,2294.8842673425575
13:08:30,2,G33,Bedford-Nostrand Avs,-73.953522,40.689627,2189.596341645963
13:08:30,2,G34,Classon Av,-73.96007,40.688873,2105.985764722886
13:08:30,2,G35,Clinton-Washington Avs,-73.966839,40.688089,2024.473401295629
13:08:30,2,G36,Fulton St,-73.975375,40.687119,1933.6675593712307
12:36:30,2,H01,Aqueduct Racetrack,-73.834058,40.668234,2781.397274856145
13:48:30,2,H02,Aqueduct-N Conduit Av,-73.834058,40.668234,2816.9288795292277
13:48:30,2,H03,Howard Beach-JFK Airport,-73.830301,40.660476,2959.1437859147877
13:48:30,2,H04,Broad Channel,-73.815925,40.608382,3424.5253425983747
13:48:30,2,H06,Beach 67 St,-73.796924,40.590927,3750.1708956394955
13:48:30,2,H07,Beach 60 St,-73.788522,40.592374,3858.7728187164194
13:48:30,2,H08,Beach 44 St,-73.776013,40.592943,3970.2699229635236
13:48:30,2,H09,Beach 36 St,-73.768175,40.595398,4070.451124513911
13:48:30,2,H10,Beach 25 St,-73.761353,40.600066,4180.745184883921
13:48:30,2,H11,Far Rockaway-Mott Av,-73.755405,40.603995,4258.543504211652
13:48:30,2,H12,Beach 90 St,-73.813641,40.588034,3694.5824854555176
13:48:30,2,H13,Beach 98 St,-73.820558,40.585307,3794.6862590404235
13:48:30,2,H14,Beach 105 St,-73.827559,40.583209,3884.362449516614
13:48:30,2,H15,Rockaway Park-Beach 116 St,-73.835592,40.580903,3987.9119000660644
13:35:30,2,J12,121 St,-73.828294,40.700492,3055.5552276661783
13:35:30,2,J13,111 St,-73.836345,40.697418,3216.6203283373197
13:35:30,2,J14,104 St,-73.84433,40.695178,2875.5552276661783
13:35:30,2,J15,Woodhaven Blvd,-73.851576,40.693879,2785.5552276661783
13:35:30,2,J16,85 St-Forest Pkwy,-73.86001,40.692435,2827.1486399139317
13:35:30,2,J17,75 St-Elderts Ln,-73.867139,40.691324,2605.5552276661783
13:35:30,2,J19,Cypress Hills,-73.87255,40.689941,2659.5272806906305
13:35:30,2,J20,Crescent St,-73.873785,40.683194,2455.5552276661783
13:35:30,2,J21,Norwood Av,-73.880039,40.68141,2365.5552276661783
13:35:30,2,J22,Cleveland St,-73.884639,40.679947,2381.0365130499067
13:35:30,2,J23,Van Siclen Av,-73.891688,40.678024,2215.5552276661783
13:35:30,2,J24,Alabama Av,-73.898654,40.676992,2155.5552276661783
12:07:00,3,J27,Broadway Junction,-73.904512,40.679498,2057.8644320302456
12:07:00,3,J28,Chauncey St,-73.910456,40.682893,2125.5552276661783
12:07:00,3,J29,Halsey St,-73.916559,40.68637,2284.1192071382593
12:07:00,3,J30,Gates Av,-73.92227,40.68963,2275.5552276661783
12:07:00,3,J31,Kosciuszko St,-73.928814,40.693342,2471.401786925493
12:44:30,1,L01,8 Av,-74.002578,40.739777,2460.3624101071337
12:44:30,1,L02,6 Av,-73.996786,40.737335,2397.707972026599
12:44:30,1,L03,14 St-Union Sq,-73.99073,40.734789,2307.7042444766157
12:52:30,1,L05,3 Av,-73.986122,40.732849,2381.8640724051397
12:52:30,1,L06,1 Av,-73.981628,40.730953,2419.698746580522
12:52:30,1,L08,Bedford Av,-73.956872,40.717304,2623.775342325203
12:52:30,1,L10,Lorimer St,-73.950275,40.714063,2723.0513857034484
12:52:30,1,L11,Graham Av,-73.944053,40.714565,2765.0661063306998
12:52:30,1,L12,Grand St,-73.94067,40.711926,2679.9683546200445
12:52:30,1,L13,Montrose Av,-73.93985,40.707739,2633.4901574782343
12:52:30,1,L14,Morgan Av,-73.933147,40.706152,2569.683538399714
12:07:00,3,L15,Jefferson St,-73.922913,40.706607,2474.0232059524847
12:07:00,3,L16,DeKalb Av,-73.918425,40.703811,2409.4202299633066
12:07:00,3,L17,Myrtle-Wyckoff Avs,-73.911586,40.699814,2334.1353938977327
12:07:00,3,L19,Halsey St,-73.904084,40.695602,2263.3937582100007
12:07:00,3,L20,Wilson Av,-73.904046,40.688764,2132.9420264487626
12:07:00,3,L21,Bushwick Av-Aberdeen St,-73.905249,40.682829,2069.9777673273925
12:31:30,1,L22,Broadway Junction,-73.90324,40.678856,1986.3436821143598
12:31:30,1,L24,Atlantic Av,-73.903097,40.675345,1907.796533400234
12:31:30,1,L25,Sutter Av,-73.901975,40.669367,1824.6177485396763
12:31:30,1,L26,Livonia Av,-73.900571,40.664038,1748.3298194145377
12:31:30,1,L27,New Lots Av,-73.899232,40.658733,1823.4020350669869
12:31:30,1,L28,East 105 St,-73.899485,40.650573,1933.6284567036025
12:31:30,1,L29,Canarsie-Rockaway Pkwy,-73.90185,40.646654,2052.6912034896236
13:08:30,1,M01,Middle Village-Metropolitan Av,-73.889601,40.711396,2960.1501122043046
13:08:30,1,M04,Fresh Pond Rd,-73.895877,40.706186,2839.568326174243
13:08:30,1,M05,Forest Av,-73.903077,40.704423,2740.5924248037854
12:31:30,2,M06,Seneca Av,-73.90774,40.702762,2645.732787932277
13:08:30,1,M08,Myrtle-Wyckoff Avs,-73.912385,40.69943,2560.5917046467866
12:31:30,2,M09,Knickerbocker Av,-73.919711,40.698664,2660.988095437079
13:08:30,1,M10,Central Av,-73.927397,40.697857,2659.5249116022137
12:28:30,1,M11,Myrtle Av,-73.935657,40.697207,2455.5552276661783
12:28:30,1,M12,Flushing Av,-73.941126,40.70026,2655.058121497346
12:28:30,1,M13,Lorimer St,-73.947408,40.703869,2758.7841288233535
12:28:30,1,M14,Hewes St,-73.953431,40.70687,2700.314576611999
12:28:30,1,M16,Marcy Av,-73.957757,40.708359,2605.2319940294165
12:28:30,1,M18,Delancey St-Essex St,-73.987437,40.718315,2231.428660696083
12:20:30,1,M19,Bowery,-73.993915,40.72028,2150.143714459524
12:20:30,1,M20,Canal St,-73.999892,40.718092,2034.8307062693445
12:20:30,1,M21,Chambers St,-74.003401,40.713243,1941.1875789049059
12:20:30,1,M22,Fulton St,-74.007582,40.710374,2035.1530494533151
12:52:30,1,M23,Broad St,-74.011056,40.706476,2100.0600261975014
12:36:30,1,N02,8 Av,-74.011719,40.635064,2270.521699356405
12:36:30,1,N03,Fort Hamilton Pkwy,-74.005351,40.631386,2395.1683726172423
12:36:30,1,N04,New Utrecht Av,-73.996353,40.624842,2512.279921173673
12:36:30,1,N05,18 Av,-73.990414,40.620671,2608.250198584505
12:36:30,1,N06,20 Av,-73.985026,40.61741,2695.686706521013
12:36:30,1,N07,Bay Pkwy,-73.981848,40.611815,2793.458229699821
12:36:30,1,N08,Kings Hwy,-73.980353,40.603923,2920.9625601461903
12:36:30,1,N09,Avenue U,-73.979137,40.597473,2952.055954385029
12:36:30,1,N10,86 St,-73.97823,40.592721,2871.5371208491847
13:56:30,1,Q01,Canal St,-74.00046,40.718383,1973.1726164539382
12:39:30,1,Q03,72 St,-73.958424,40.768799,2999.0087242964855
12:39:30,1,Q04,86 St,-73.951787,40.777891,3124.224487150734
12:39:30,1,Q05,96 St,-73.947152,40.784318,3217.2229510524235
12:52:30,1,R01,Astoria-Ditmars Blvd,-73.912034,40.775036,3753.225950983296
12:52:30,1,R03,Astoria Blvd,-73.917843,40.770258,3656.930604354616
12:52:30,1,R04,30 Av,-73.921479,40.766779,3533.8758938064743
12:52:30,1,R05,Broadway,-73.925508,40.76182,3421.299956922845
12:52:30,1,R06,36 Av,-73.929575,40.756804,3292.280981590777
12:52:30,1,R08,39 Av-Dutch Kills,-73.932755,40.752882,3208.1374681271204
12:52:30,1,R09,Queensboro Plaza,-73.940202,40.750582,2997.804533995384
12:36:30,1,R11,Lexington Av/59 St,-73.967258,40.76266,2738.261747726503
12:36:30,1,R13,5 Av/59 St,-73.973347,40.764811,2836.430213096436
12:44:30,1,R14,57 St-7 Av,-73.980658,40.764664,2728.309124318273
13:56:30,1,R15,49 St,-73.984139,40.759901,2685.588398495558
12:44:30,1,R16,Times Sq-42 St,-73.986754,40.754672,2545.1753130876878
13:56:30,1,R17,34 St-Herald Sq,-73.98795,40.749567,2442.1955632365857
12:52:30,1,R18,28 St,-73.988691,40.745494,2507.6079482677724
12:52:30,1,R19,23 St,-73.989344,40.741303,2422.5574532182673
13:56:30,1,R20,14 St-Union Sq,-73.990568,40.735736,2258.184521215843
13:48:30,1,R21,8 St-NYU,-73.992629,40.730328,2413.114800963243
13:48:30,1,R22,Prince St,-73.997702,40.724329,2316.582291640035
13:48:30,1,R23,Canal St,-74.001775,40.719527,2213.9020547784503
13:48:30,1,R24,City Hall,-74.006978,40.713282,2070.5581376504388
13:48:30,1,R25,Cortlandt St,-74.011029,40.710668,1928.6946259906308
13:48:30,1,R26,Rector St,-74.013342,40.70722,1798.2013093644098
13:48:30,1,R27,Whitehall St-South Ferry,-74.012994,40.703087,1722.1295232414936
13:24:30,1,R28,Court St,-73.991777,40.6941,1518.1607732414936
12:20:30,1,R29,Jay St-MetroTech,-73.985942,40.69218,1546.939954227066
12:28:30,1,R30,DeKalb Av,-73.981824,40.690635,1436.4929312517265
13:40:30,1,R31,Atlantic Av-Barclays Ctr,-73.97881,40.683666,1279.4399542270658
12:20:30,1,R32,Union St,-73.98311,40.677316,1414.7399542270657
12:20:30,1,R33,4 Av-9 St,-73.988302,40.670847,1532.789954227066
12:20:30,1,R34,Prospect Av,-73.992872,40.665414,1626.8399542270658
12:20:30,1,R35,25 St,-73.998091,40.660397,1692.9452173849606
12:28:30,1,R36,36 St,-74.003549,40.655144,1778.556356343468
12:20:30,1,R39,45 St,-74.010006,40.648939,1957.755448166552
12:20:30,1,R40,53 St,-74.014034,40.645069,2051.5308104853925
12:36:30,1,R41,59 St,-74.017881,40.641362,2096.998312737104
12:20:30,1,R42,Bay Ridge Av,-74.023377,40.634967,2261.472561523312
12:20:30,1,R43,77 St,-74.02551,40.629742,2344.0812286277114
12:20:30,1,R44,86 St,-74.028398,40.622687,2528.53316370886
13:00:30,1,R45,Bay Ridge-95 St,-74.030876,40.616622,2597.1149028392942
12:28:30,1,S01,Franklin Av,-73.955827,40.680596,1174.4847310076634
12:28:30,1,S03,Park Pl,-73.957624,40.674772,1079.4953693055359
12:39:30,1,S04,Botanic Garden,-73.959245,40.670343,948.568651748284
