start_time,ntransfers,stop_id,stop_name,stop_lon,stop_lat,duration
12:12:30,0,101,Van Cortlandt Park-242 St,-73.898583,40.889248,4606.664855758666
12:12:30,0,103,238 St,-73.90087,40.884667,4504.150511496371
12:12:30,0,104,231 St,-73.904834,40.878856,4409.98252276114
12:12:30,0,106,Marble Hill-225 St,-73.909831,40.874561,4313.9459242870935
12:12:30,0,107,215 St,-73.915279,40.869444,4208.386092803826
12:12:30,0,108,207 St,-73.918822,40.864621,4115.499960663167
12:12:30,0,109,Dyckman St,-73.925536,40.860531,4007.3590840978723
12:12:30,0,110,191 St,-73.929412,40.855225,3917.140036478825
12:12:30,0,111,181 St,-73.933596,40.849505,3821.895447734236
12:12:30,0,112,168 St-Washington Hts,-73.940133,40.840556,3701.0451223546265
12:12:30,0,113,157 St,-73.94489,40.834041,3601.768692545268
12:12:30,0,114,145 St,-73.95036,40.826551,3486.1040452064535
12:12:30,0,115,137 St-City College,-73.953676,40.822008,3385.0612621468167
12:12:30,0,116,125 St,-73.958372,40.815581,3286.3001302283815
12:12:30,0,117,116 St-Columbia University,-73.96411,40.807722,3168.1440608642197
12:12:30,0,118,Cathedral Pkwy (110 St),-73.966847,40.803967,3090.1132473884595
12:12:30,0,119,103 St,-73.968379,40.799446,3010.795065570278
12:04:30,0,120,96 St,-73.972323,40.793919,2742.9708849348795
12:04:30,0,121,86 St,-73.976218,40.788644,2796.655463696742
12:04:30,0,122,79 St,-73.979917,40.783934,2717.880402572048
12:04:30,0,123,72 St,-73.98197,40.778453,2551.1085838332883
12:20:30,0,124,66 St-Lincoln Center,-73.982209,40.77344,2702.48148967772
12:20:30,0,125,59 St-Columbus Circle,-73.981929,40.768247,2643.354751056425
12:20:30,0,126,50 St,-73.983849,40.761728,2534.727300076033
12:04:30,0,127,Times Sq-42 St,-73.987495,40.75529,2302.53020545491
12:04:30,0,128,34 St-Penn Station,-73.991057,40.750373,2195.1406949653992
12:12:30,0,129,28 St,-73.993365,40.747215,2377.270201788288
12:12:30,0,130,23 St,-73.995657,40.744081,2308.6429713771163
12:12:30,0,131,18 St,-73.997871,40.74104,2240.2024581578316
12:04:30,0,132,14 St,-74.000201,40.737826,2036.1371886540387
12:04:30,0,133,Christopher St-Sheridan Sq,-74.002906,40.733422,2255.0785247670256
12:04:30,0,134,Houston St,-74.005367,40.728251,2213.4222719689674
12:04:30,0,135,Canal St,-74.006277,40.722854,2123.664659301489
12:04:30,0,136,Franklin St,-74.006886,40.719318,2058.5094100108527
12:04:30,0,137,Chambers St,-74.009266,40.715478,1788.4858958518025
12:20:30,0,138,WTC Cortlandt,-74.012188,40.711835,1917.2303393256493
12:20:30,0,139,Rector St,-74.013783,40.707513,1837.9317724466684
12:20:30,0,142,South Ferry,-74.013664,40.702068,1733.2113510528272
13:40:30,0,201,Wakefield-241 St,-73.85062,40.903125,5295.487600321614
13:40:30,0,204,Nereid Av,-73.854376,40.898379,5067.223551983246
13:40:30,0,205,233 St,-73.857473,40.893193,4935.223551983246
13:40:30,0,206,225 St,-73.860341,40.888022,4839.223551983246
13:40:30,0,207,219 St,-73.862633,40.883895,4757.223551983247
13:40:30,0,208,Gun Hill Rd,-73.866256,40.87785,4648.723551983247
13:40:30,0,209,Burke Av,-73.867164,40.871356,4726.223551983247
13:40:30,0,210,Allerton Av,-73.867352,40.865462,4770.68330439531
13:40:30,0,211,Pelham Pkwy,-73.867615,40.857192,4658.775258418299
13:40:30,0,212,Bronx Park East,-73.868457,40.848828,4531.625258418299
13:40:30,0,213,E 180 St,-73.873488,40.841894,4236.930448534969
12:04:30,0,214,West Farms Sq-E Tremont Av,-73.880049,40.840295,4105.236252939718
12:04:30,0,215,174 St,-73.887734,40.837288,3979.1968888216256
12:04:30,0,216,Freeman St,-73.891865,40.829993,3856.6890000162166
12:04:30,0,217,Simpson St,-73.893064,40.824073,3743.476313449052
13:40:30,0,218,Intervale Av,-73.896736,40.822181,3668.8118789252426
13:40:30,0,219,Prospect Av,-73.90177,40.819585,3585.2465000247967
12:04:30,0,220,Jackson Av,-73.907807,40.81649,3485.5199663958238
13:40:30,0,221,3 Av-149 St,-73.917757,40.816109,3346.5485587711905
12:04:30,0,222,149 St-Grand Concourse,-73.926718,40.81841,3214.889109952293
12:04:30,0,224,135 St,-73.94077,40.814229,3300.411645027315
12:04:30,0,225,125 St,-73.945495,40.807754,3186.945779458106
12:04:30,0,226,116 St,-73.949625,40.802098,3087.087754766748
12:04:30,0,227,Central Park North (110 St),-73.951822,40.799075,3008.205925033584
12:04:30,0,228,Park Place,-74.008811,40.713051,1699.2797398031269
12:04:30,0,229,Fulton St,-74.006571,40.709416,1581.9724368954599
12:04:30,0,230,Wall St,-74.0091,40.706821,1498.5498324728555
12:04:30,0,231,Clark St,-73.993086,40.697466,1291.4937288970232
12:04:30,0,232,Borough Hall,-73.989998,40.693219,1200.4936904456686
12:04:30,0,233,Hoyt St,-73.985065,40.690545,1108.000983800612
12:04:30,0,234,Nevins St,-73.980492,40.688246,970.601405030185
12:04:30,0,235,Atlantic Av-Barclays Ctr,-73.977666,40.684359,870.3866487719505
12:04:30,0,236,Bergen St,-73.975098,40.680829,949.5250090076016
12:04:30,0,237,Grand Army Plaza,-73.971046,40.675235,849.042250386912
12:04:30,0,238,Eastern Pkwy-Brooklyn Museum,-73.964375,40.671987,749.6409426071742
12:04:30,0,239,Franklin Av-Medgar Evers College,-73.958131,40.670682,560.1613239612244
12:04:30,0,241,President St-Medgar Evers College,-73.950683,40.667883,745.1163027793463
12:04:30,0,242,Sterling St,-73.95085,40.662742,837.1087736896816
12:04:30,0,243,Winthrop St,-73.9502,40.656652,926.1624421679426
12:04:30,0,244,Church Av,-73.949575,40.650843,1005.000817964121
12:04:30,0,245,Beverly Rd,-73.948959,40.645098,1084.2300829674925
12:04:30,0,246,Newkirk Av-Little Haiti,-73.948411,40.639967,1171.418596481006
12:04:30,0,247,Flatbush Av-Brooklyn College,-73.947642,40.632836,1322.0381539399639
12:04:30,0,248,Nostrand Av,-73.950466,40.669847,479.24734486719586
12:04:30,0,249,Kingston Av,-73.942161,40.669399,376.42619102104203
12:04:30,0,250,Crown Hts-Utica Av,-73.932942,40.668897,292.84795972852504
12:04:30,0,251,Sutter Av-Rutland Rd,-73.92261,40.664717,191.39246418789264
12:04:30,0,252,Saratoga Av,-73.916327,40.661453,86.03703703703704
12:06:00,0,253,Rockaway Av,-73.908946,40.662549,0.0
12:06:00,0,254,Junius St,-73.902447,40.663515,81.1826923076923
12:06:00,0,255,Pennsylvania Av,-73.894895,40.664635,181.38456669951373
12:06:00,0,256,Van Siclen Av,-73.889395,40.665449,256.9232784757011
12:06:00,0,257,New Lots Av,-73.884079,40.666235,344.0957166382453
12:04:30,0,301,Harlem-148 St,-73.93647,40.82388,3557.1011216812617
12:04:30,0,302,145 St,-73.936245,40.820421,3439.703342341022
13:40:30,0,401,Woodlawn,-73.878751,40.886037,4578.779261750365
13:40:30,0,402,Mosholu Pkwy,-73.884655,40.87975,4421.330890488748
12:04:30,0,405,Bedford Park Blvd-Lehman College,-73.890064,40.873412,4305.9420345314265
12:04:30,0,406,Kingsbridge Rd,-73.897174,40.86776,4189.569398268913
12:04:30,0,407,Fordham Rd,-73.901034,40.862803,4092.6471760466907
12:04:30,0,408,183 St,-73.903879,40.858407,4008.0503840112924
12:04:30,0,409,Burnside Av,-73.907684,40.853453,3906.772890405154
12:04:30,0,410,176 St,-73.911794,40.84848,3836.1086815292156
12:04:30,0,411,Mt Eden Av,-73.914685,40.844434,3756.761742753705
12:04:30,0,412,170 St,-73.917791,40.840075,3676.555358604008
12:04:30,0,413,167 St,-73.9214,40.835537,3587.426811024709
12:04:30,0,414,161 St-Yankee Stadium,-73.925831,40.827994,3408.871423310711
12:04:30,0,415,149 St-Grand Concourse,-73.927351,40.818375,3230.9572403713482
12:04:30,0,416,138 St-Grand Concourse,-73.929849,40.813224,3031.052698342794
12:04:30,0,418,Fulton St,-74.009509,40.710368,1533.4718208581346
12:04:30,0,419,Wall St,-74.011862,40.707557,1453.6576615660993
12:04:30,0,420,Bowling Green,-74.014065,40.704817,1374.2966955086579
12:04:30,0,423,Borough Hall,-73.990151,40.692404,1109.8427614131635
13:40:30,0,501,Eastchester-Dyre Av,-73.830834,40.8883,4964.631537701091
13:40:30,0,502,Baychester Av,-73.838591,40.878663,4816.999530467817
13:40:30,0,503,Gun Hill Rd,-73.846384,40.869526,4704.815076427101
13:40:30,0,504,Pelham Pkwy,-73.855359,40.858985,4566.061997609367
13:40:30,0,505,Morris Park,-73.860495,40.854364,4471.448305677826
13:16:30,0,601,Pelham Bay Park,-73.828121,40.852462,4643.954971762383
13:16:30,0,602,Buhre Av,-73.832569,40.84681,4466.6918138676465
13:16:30,0,603,Middletown Rd,-73.836322,40.843863,4396.398710419371
13:16:30,0,604,Westchester Sq-E Tremont Av,-73.842952,40.839892,4264.222239831135
13:16:30,0,606,Zerega Av,-73.847036,40.836488,4177.172239831136
13:16:30,0,607,Castle Hill Av,-73.851222,40.834255,4107.926338191791
12:04:30,0,608,Parkchester,-73.860816,40.833226,3922.512545088343
12:04:30,0,609,St Lawrence Av,-73.867618,40.831509,4166.3728777511415
12:04:30,0,610,Morrison Av-Soundview,-73.874516,40.829521,4065.2218337706886
12:04:30,0,611,Elder Av,-73.879159,40.828584,3992.496429310697
12:04:30,0,612,Whitlock Av,-73.886283,40.826525,3879.7916674059347
12:04:30,0,613,Hunts Point Av,-73.890549,40.820948,3650.112545088343
12:04:30,0,614,Longwood Av,-73.896435,40.816104,3769.2038404818486
12:04:30,0,615,E 149 St,-73.904098,40.812118,3666.4330583864235
12:04:30,0,616,E 143 St-St Mary's St,-73.907657,40.808719,3589.7589622992514
12:04:30,0,617,Cypress Av,-73.914042,40.805368,3478.344012092398
12:04:30,0,618,Brook Av,-73.91924,40.807566,3402.72506298193
12:04:30,0,619,3 Av-138 St,-73.926138,40.810476,3282.4671550174207
12:04:30,0,621,125 St,-73.937594,40.804138,2848.069124098379
12:04:30,0,622,116 St,-73.941617,40.798629,3175.8841168368913
12:04:30,0,623,110 St,-73.94425,40.79502,3095.3337812664213
12:04:30,0,624,103 St,-73.947478,40.7906,3016.2940461670837
12:04:30,0,625,96 St,-73.95107,40.785672,2926.5243093249783
12:04:30,0,626,86 St,-73.955589,40.779492,2539.7485779345297
12:04:30,0,627,77 St,-73.959874,40.77362,2757.0626303798317
12:04:30,0,628,68 St-Hunter College,-73.96387,40.768141,2663.3119519800603
12:04:30,0,629,59 St,-73.967967,40.762526,2339.6938803798316
12:04:30,0,630,51 St,-73.97192,40.757107,2465.1787653980577
12:04:30,0,631,Grand Central-42 St,-73.976848,40.751776,2172.8469873625354
12:04:30,0,632,33 St,-73.982076,40.746081,2343.0245229055954
12:04:30,0,633,28 St,-73.984264,40.74307,2271.117049595987
12:04:30,0,634,23 St,-73.986599,40.739864,2191.2933809569336
12:04:30,0,635,14 St-Union Sq,-73.989951,40.734673,1924.68989923993
12:04:30,0,636,Astor Pl,-73.99107,40.730054,2045.2967108342837
12:04:30,0,637,Bleecker St,-73.994659,40.725915,1949.4574835913236
12:04:30,0,638,Spring St,-73.997141,40.722301,1878.9317103954472
12:04:30,0,639,Canal St,-74.000193,40.718803,1804.848749323335
12:04:30,0,640,Brooklyn Bridge-City Hall,-74.004131,40.713065,1652.134273449791
12:12:30,2,701,Flushing-Main St,-73.83003,40.7596,3519.072039551269
12:12:30,2,702,Mets-Willets Point,-73.845625,40.754622,3354.049385829586
12:12:30,2,705,111 St,-73.855334,40.75173,3418.269821292092
12:12:30,2,706,103 St-Corona Plaza,-73.8627,40.749865,3339.362451447602
12:12:30,2,707,Junction Blvd,-73.869527,40.749145,3135.188337993595
12:12:30,2,708,90 St-Elmhurst Av,-73.876613,40.748408,3211.7983316982945
12:12:30,2,709,82 St-Jackson Hts,-73.883697,40.747659,3124.130766212933
12:20:30,1,710,74 St-Broadway,-73.891394,40.746848,2963.293288735455
12:20:30,1,711,69 St,-73.896403,40.746325,2894.3568022489685
12:20:30,1,712,61 St-Woodside,-73.902984,40.74563,2812.4372797229767
12:20:30,1,713,52 St,-73.912549,40.744149,2717.8471928922963
12:20:30,1,714,46 St-Bliss St,-73.918435,40.743132,2657.1175242175977
12:20:30,1,715,40 St-Lowery St,-73.924016,40.743781,2589.003269593006
12:20:30,1,716,33 St-Rawson St,-73.930997,40.744587,2510.2593301990664
12:06:00,3,718,Queensboro Plaza,-73.940202,40.750582,2370.280749406377
12:20:30,1,719,Court Sq,-73.945264,40.747023,2275.144385770013
12:20:30,1,720,Hunters Point Av,-73.948916,40.742216,2370.2313422917523
12:20:30,1,721,Vernon Blvd-Jackson Av,-73.953581,40.742626,2397.2313422917523
12:36:30,1,723,Grand Central-42 St,-73.976041,40.751431,2349.4516450494157
12:36:30,1,724,5 Av,-73.981963,40.753821,2419.769945459404
12:36:30,1,725,Times Sq-42 St,-73.987691,40.755477,2422.53020545491
12:36:30,1,726,34 St-Hudson Yards,-74.00191,40.755882,2567.1323952359317
12:36:30,1,901,Grand Central-42 St,-73.979189,40.752769,2289.4516450494157
12:20:30,1,902,Times Sq-42 St,-73.986229,40.755983,2362.53020545491
13:08:30,1,A02,Inwood-207 St,-73.919899,40.868072,4069.944309250359
13:08:30,1,A03,Dyckman St,-73.927271,40.865491,3970.2054824347165
13:08:30,1,A05,190 St,-73.93418,40.859022,3839.8254714517407
13:08:30,1,A06,181 St,-73.937969,40.851695,3726.940559557467
13:08:30,1,A07,175 St,-73.939704,40.847391,3634.155554044788
13:08:30,1,A09,168 St,-73.939561,40.840719,3499.5615774692164
13:48:30,1,A10,163 St-Amsterdam Av,-73.939892,40.836013,3533.1740526256553
13:48:30,1,A11,155 St,-73.941514,40.830518,3448.304225688108
13:08:30,1,A12,145 St,-73.944216,40.824783,3253.750079403987
13:08:30,1,A14,135 St,-73.947649,40.817894,3164.881026359763
13:08:30,1,A15,125 St,-73.952343,40.811109,3039.4854708042076
12:28:30,1,A16,116 St,-73.954882,40.805085,3177.4238914290654
12:28:30,1,A17,Cathedral Pkwy (110 St),-73.958161,40.800603,3228.8146082312305
12:28:30,1,A18,103 St,-73.961454,40.796092,3142.3853947480843
12:28:30,1,A19,96 St,-73.964696,40.791642,3055.258422546732
12:28:30,1,A20,86 St,-73.968916,40.785868,2954.45073023904
12:28:30,1,A21,81 St-Museum of Natural History,-73.972143,40.781433,2855.976128267849
12:28:30,1,A22,72 St,-73.97641,40.775594,2764.1132494799704
12:28:30,1,A24,59 St-Columbus Circle,-73.981736,40.768296,2538.4750369766402
13:08:30,1,A25,50 St,-73.985984,40.762456,2519.541985470008
12:28:30,1,A27,42 St-Port Authority Bus Terminal,-73.989735,40.757308,2373.9437182953216
12:22:00,2,A28,34 St-Penn Station,-73.993391,40.752287,2272.147452507293
12:28:30,1,A30,23 St,-73.998041,40.745906,2212.5732876832167
12:28:30,1,A31,14 St,-74.00169,40.740893,2123.3726727716103
12:28:30,1,A32,W 4 St-Wash Sq,-74.000495,40.732338,2107.1482643150816
12:20:30,1,A33,Spring St,-74.003739,40.726227,2024.510994484461
12:28:30,1,A34,Canal St,-74.005229,40.720824,1910.589723090818
12:28:30,1,A36,Chambers St,-74.008585,40.714111,1855.7138123492007
12:06:00,2,A38,Fulton St,-74.007691,40.710197,1756.4028542310136
12:20:30,2,A40,High St,-73.990531,40.699337,1639.5154190735748
12:46:00,2,A41,Jay St-MetroTech,-73.987342,40.692338,1512.8866487719506
12:46:00,2,A42,Hoyt-Schermerhorn Sts,-73.985001,40.688484,1432.7373064063258
12:46:00,2,A43,Lafayette Av,-73.973946,40.686113,1296.2813769191464
12:46:00,2,A44,Clinton-Washington Avs,-73.965838,40.683263,1206.8125965948088
12:46:00,2,A45,Franklin Av,-73.956848,40.68138,1105.562401739002
12:46:00,2,A46,Nostrand Av,-73.950426,40.680438,1187.0088159211134
12:46:00,2,A47,Kingston-Throop Avs,-73.940858,40.679921,1255.6485699537232
12:46:00,2,A48,Utica Av,-73.930729,40.679364,1101.9343518770236
12:06:00,2,A49,Ralph Av,-73.920786,40.678822,1057.284190372219
12:06:00,2,A50,Rockaway Av,-73.911946,40.67834,960.6200566336172
13:02:00,2,A51,Broadway Junction,-73.905316,40.678334,871.3758793233242
12:06:00,2,A52,Liberty Av,-73.896548,40.674542,1009.3915743905889
12:06:00,2,A53,Van Siclen Av,-73.890358,40.67271,1105.5500198315456
13:42:00,2,A54,Shepherd Av,-73.88075,40.67413,1207.0481387179261
13:42:00,2,A55,Euclid Av,-73.872106,40.675377,1188.703334042104
13:42:00,2,A57,Grant Av,-73.86505,40.677044,1318.9100155565804
13:42:00,2,A59,80 St,-73.858992,40.679371,1416.4166593628386
13:42:00,2,A60,88 St,-73.85147,40.679843,1515.6062997737972
13:42:00,2,A61,Rockaway Blvd,-73.843853,40.680429,1609.0302174763265
13:42:00,2,A63,104 St,-73.837683,40.681711,1700.0781686533098
13:42:00,2,A64,111 St,-73.832163,40.684331,1791.2135477146817
13:42:00,2,A65,Ozone Park-Lefferts Blvd,-73.825798,40.685951,1902.0920074018054
13:40:30,1,B04,21 St-Queensbridge,-73.942836,40.754203,2914.3996785636987
13:40:30,1,B06,Roosevelt Island,-73.95326,40.759145,2806.537705819869
13:08:30,1,B08,Lexington Av/63 St,-73.966113,40.764629,2699.6938803798316
13:08:30,1,B10,57 St,-73.97745,40.763972,2644.3247079220137
12:28:30,1,B12,9 Av,-73.994324,40.646292,1933.227166575355
12:28:30,1,B13,Fort Hamilton Pkwy,-73.994304,40.640914,2049.9454607625566
12:28:30,1,B14,50 St,-73.994791,40.63626,2130.7054039443747
12:28:30,1,B15,55 St,-73.995476,40.631435,2233.733853446509
12:28:30,1,B16,62 St,-73.996895,40.626472,2298.682235572857
12:28:30,1,B17,71 St,-73.998864,40.619589,2401.579525159162
12:28:30,1,B18,79 St,-74.00061,40.613501,2506.0303097526
12:28:30,1,B19,18 Av,-74.001736,40.607954,2590.5138811811717
12:28:30,1,B20,20 Av,-73.998168,40.604556,2675.725460880957
12:28:30,1,B21,Bay Pkwy,-73.993728,40.601875,2756.8833934006984
13:48:30,1,B22,25 Av,-73.986829,40.597704,2845.159785543495
13:48:30,1,B23,Bay 50 St,-73.983765,40.588841,2703.1476681965564
12:04:30,1,D01,Norwood-205 St,-73.878855,40.874811,4553.691046460267
12:04:30,1,D03,Bedford Park Blvd,-73.887138,40.873244,4384.991292138126
12:04:30,1,D04,Kingsbridge Rd,-73.893509,40.866978,4266.4509075227415
12:04:30,1,D05,Fordham Rd,-73.897749,40.861296,4166.318021616701
12:04:30,1,D06,182-183 Sts,-73.900741,40.856093,4081.1452343364854
13:24:30,1,D07,Tremont Av,-73.905227,40.85041,3997.544860853759
13:24:30,1,D08,174-175 Sts,-73.910136,40.8459,3970.6265869975114
13:24:30,1,D09,170 St,-73.9134,40.839306,3865.0827774737018
13:24:30,1,D10,167 St,-73.91844,40.833771,3757.844565273033
13:24:30,1,D11,161 St-Yankee Stadium,-73.925651,40.827905,3609.065853788439
13:24:30,1,D12,155 St,-73.938209,40.830135,3475.5904775914487
13:24:30,1,D13,145 St,-73.944216,40.824783,3327.6786607946615
12:28:30,1,D14,7 Av,-73.981637,40.762862,2612.1497732912885
12:28:30,1,D15,47-50 Sts-Rockefeller Ctr,-73.981329,40.758663,2507.5067190134596
12:28:30,1,D16,42 St-Bryant Pk,-73.984569,40.754222,2396.193553820724
12:28:30,1,D17,34 St-Herald Sq,-73.987823,40.749719,2309.735915395107
12:28:30,1,D18,23 St,-73.992821,40.742878,2259.2192311868826
12:28:30,1,D19,14 St,-73.996209,40.738228,2179.1253544396322
12:28:30,1,D20,W 4 St-Wash Sq,-74.000495,40.732338,2083.406759722284
12:28:30,1,D21,Broadway-Lafayette St,-73.996204,40.725297,1934.384977544066
12:28:30,1,D22,Grand St,-73.993753,40.718267,1797.6984301616938
12:20:30,1,D24,Atlantic Av-Barclays Ctr,-73.97689,40.68446,1097.6485520579308
12:20:30,1,D25,7 Av,-73.972367,40.67705,1225.537220728516
12:20:30,1,D26,Prospect Park,-73.962246,40.661614,892.6121714188515
12:28:30,1,D27,Parkside Av,-73.961495,40.655292,1238.69958353994
12:20:30,1,D28,Church Av,-73.962982,40.650527,1162.4735871715932
12:28:30,1,D29,Beverley Rd,-73.964492,40.644031,1269.570005375287
12:28:30,1,D30,Cortelyou Rd,-73.963891,40.640927,1347.7070353306729
12:20:30,1,D31,Newkirk Plaza,-73.962793,40.635082,1341.2175871715933
12:28:30,1,D32,Avenue H,-73.961639,40.62927,1454.542366215507
12:28:30,1,D33,Avenue J,-73.960803,40.625039,1551.4269075881816
12:28:30,1,D34,Avenue M,-73.959399,40.617618,1662.233256794531
12:20:30,1,D35,Kings Hwy,-73.957734,40.60867,1606.6129594049937
12:20:30,1,D37,Avenue U,-73.955929,40.5993,1825.9612025198596
12:20:30,1,D38,Neck Rd,-73.955161,40.595246,1930.0589598516594
12:20:30,1,D39,Sheepshead Bay,-73.954155,40.586896,1875.773365496364
12:20:30,1,D40,Brighton Beach,-73.961376,40.577621,2037.0802655993507
12:20:30,1,D41,Ocean Pkwy,-73.968501,40.576312,2225.8251927245487
12:20:30,1,D42,W 8 St-NY Aquarium,-73.975939,40.576127,2340.37487314291
12:20:30,1,D43,Coney Island-Stillwell Av,-73.981233,40.577422,2429.140830589719
13:16:30,1,E01,World Trade Center,-74.009781,40.712582,1767.8782499068398
12:22:00,2,F01,Jamaica-179 St,-73.783817,40.712646,3190.195617699923
13:26:00,2,F02,169 St,-73.793604,40.71047,3100.195617699923
13:26:00,2,F03,Parsons Blvd,-73.803326,40.707564,2936.4603933014114
13:26:00,2,F04,Sutphin Blvd,-73.810708,40.70546,2846.4603933014114
13:26:00,2,F05,Briarwood,-73.820574,40.709179,2605.195617699923
13:26:00,2,F06,Kew Gardens-Union Tpke,-73.831008,40.714441,2715.741150636587
12:54:00,2,F07,75 Av,-73.837324,40.718331,2856.3899311243918
12:52:30,1,F09,Court Sq-23 St,-73.946,40.747846,2275.144385770013
12:28:30,1,F11,Lexington Av/53 St,-73.969055,40.757552,2478.7158143414417
12:28:30,1,F12,5 Av/53 St,-73.975224,40.760167,2562.3831279365304
12:04:30,2,F14,2 Av,-73.989938,40.723402,1971.2127100438684
12:04:30,2,F15,Delancey St-Essex St,-73.988114,40.718611,1859.279100085362
13:40:30,2,F16,East Broadway,-73.990173,40.713715,1768.1485535338552
13:40:30,2,F18,York St,-73.986751,40.701397,1602.8866487719506
12:46:00,2,F20,Bergen St,-73.990862,40.686145,1653.735984829152
13:00:30,2,F21,Carroll St,-73.995048,40.680303,1768.8054947609048
13:00:30,2,F22,Smith-9 Sts,-73.995959,40.67358,1678.2687817027472
12:20:30,2,F23,4 Av-9 St,-73.989779,40.670272,1586.8815948258145
12:20:30,2,F24,7 Av,-73.980305,40.666271,1705.5295351611921
12:20:30,2,F25,15 St-Prospect Park,-73.979493,40.660365,1819.7339061003534
12:20:30,2,F26,Fort Hamilton Pkwy,-73.975776,40.650782,1986.3371881008554
12:20:30,2,F27,Church Av,-73.979678,40.644041,1993.694674121077
12:20:30,2,F29,Ditmas Av,-73.978172,40.636119,2113.694674121077
12:20:30,2,F30,18 Av,-73.976971,40.629755,2233.694674121077
12:20:30,2,F31,Avenue I,-73.976127,40.625322,2293.694674121077
12:20:30,2,F32,Bay Pkwy,-73.975264,40.620769,2353.694674121077
12:20:30,2,F33,Avenue N,-73.974197,40.61514,2473.694674121077
12:20:30,2,F34,Avenue P,-73.973022,40.608944,2563.694674121077
12:20:30,1,F35,Kings Hwy,-73.972361,40.603217,2732.9757426460474
12:20:30,1,F36,Avenue U,-73.973357,40.596063,2840.951933122238
12:20:30,1,F38,Avenue X,-73.97425,40.58962,2790.37487314291
12:20:30,1,F39,Neptune Av,-73.974574,40.581011,2655.37487314291
13:26:00,2,G05,Jamaica Center-Parsons/Archer,-73.801109,40.702147,2161.3758793233237
13:26:00,2,G06,Sutphin Blvd-Archer Av-JFK Airport,-73.807969,40.700486,2101.3758793233237
13:26:00,2,G07,Jamaica-Van Wyck,-73.816859,40.702566,2467.5300886896844
13:26:00,2,G08,Forest Hills-71 Av,-73.844521,40.721691,2940.527146260219
12:22:00,2,G09,67 Av,-73.852719,40.726523,3089.5170787039256
12:22:00,2,G10,63 Dr-Rego Park,-73.861604,40.729846,3200.71751600108
12:52:30,1,G11,Woodhaven Blvd,-73.869229,40.733106,3248.1187267090254
12:52:30,1,G12,Grand Av-Newtown,-73.877223,40.737015,3130.015595953961
12:52:30,1,G13,Elmhurst Av,-73.882017,40.742454,3024.4244357329667
12:52:30,1,G14,Jackson Hts-Roosevelt Av,-73.891338,40.746644,2878.0413517853012
12:36:30,1,G15,65 St,-73.898453,40.749669,2965.1570093761566
13:16:30,1,G16,Northern Blvd,-73.906006,40.752885,2870.82711246894
13:16:30,1,G18,46 St,-73.913333,40.756312,2780.82711246894
13:16:30,1,G19,Steinway St,-73.92074,40.756879,2663.9198959740947
13:16:30,1,G20,36 St,-73.928781,40.752039,2543.9198959740947
12:52:30,1,G21,Queens Plaza,-73.937243,40.748973,2398.5117327087887
12:06:00,2,G22,Court Sq,-73.943832,40.746554,2160.650197954184
12:06:00,2,G24,21 St,-73.949724,40.744065,2094.290982937119
12:06:00,2,G26,Greenpoint Av,-73.954449,40.731352,1899.475209306776
12:06:00,2,G28,Nassau Av,-73.951277,40.724635,1802.0108593966502
13:42:00,2,G29,Metropolitan Av,-73.951418,40.712792,1661.9887698444113
12:22:00,2,G30,Broadway,-73.950308,40.706092,1779.0231504016135
12:22:00,2,G31,Flushing Av,-73.950234,40.700377,1869.042711753125
13:42:00,2,G32,Myrtle-Willoughby Avs,-73.949046,40.694568,1946.0925633851728
13:42:00,2,G33,Bedford-Nostrand Avs,-73.953522,40.689627,2026.1890138589038
13:42:00,2,G34,Classon Av,-73.96007,40.688873,1942.5784369358269
13:42:00,2,G35,Clinton-Washington Avs,-73.966839,40.688089,1861.0660735085698
13:42:00,2,G36,Fulton St,-73.975375,40.687119,1770.2602315841712
12:54:00,2,H01,Aqueduct Racetrack,-73.834058,40.668234,1819.9087221492234
13:34:00,2,H02,Aqueduct-N Conduit Av,-73.834058,40.668234,1898.8246962951146
13:34:00,2,H03,Howard Beach-JFK Airport,-73.830301,40.660476,1997.655233207866
13:34:00,2,H04,Broad Channel,-73.815925,40.608382,2463.0367898914533
13:34:00,2,H06,Beach 67 St,-73.796924,40.590927,2792.00330151936
13:34:00,2,H07,Beach 60 St,-73.788522,40.592374,2917.8600482846095
13:34:00,2,H08,Beach 44 St,-73.776013,40.592943,3027.5362740015385
13:34:00,2,H09,Beach 36 St,-73.768175,40.595398,3128.8084962237604
13:34:00,2,H10,Beach 25 St,-73.761353,40.600066,3229.249016669857
13:34:00,2,H11,Far Rockaway-Mott Av,-73.755405,40.603995,3319.5486034467167
12:14:00,2,H12,Beach 90 St,-73.813641,40.588034,2733.093932748596
12:14:00,2,H13,Beach 98 St,-73.820558,40.585307,2833.197706333502
12:14:00,2,H14,Beach 105 St,-73.827559,40.583209,2922.8738968096927
12:14:00,2,H15,Rockaway Park-Beach 116 St,-73.835592,40.580903,3026.4233473591435
13:26:00,2,J12,121 St,-73.828294,40.700492,1861.3758793233242
13:26:00,2,J13,111 St,-73.836345,40.697418,2022.440979994465
13:26:00,2,J14,104 St,-73.84433,40.695178,1681.3758793233242
13:26:00,2,J15,Woodhaven Blvd,-73.851576,40.693879,1591.3758793233242
13:26:00,2,J16,85 St-Forest Pkwy,-73.86001,40.692435,1603.7600866348055
13:26:00,2,J17,75 St-Elderts Ln,-73.867139,40.691324,1411.3758793233242
13:26:00,2,J19,Cypress Hills,-73.87255,40.689941,1436.1387274115045
13:26:00,2,J20,Crescent St,-73.873785,40.683194,1261.3758793233242
13:26:00,2,J21,Norwood Av,-73.880039,40.68141,1171.3758793233242
13:26:00,2,J22,Cleveland St,-73.884639,40.679947,1169.3537850996074
13:26:00,2,J23,Van Siclen Av,-73.891688,40.678024,1021.3758793233242
13:26:00,2,J24,Alabama Av,-73.898654,40.676992,961.3758793233242
12:46:00,2,J27,Broadway Junction,-73.904512,40.679498,871.3758793233242
12:06:00,2,J28,Chauncey St,-73.910456,40.682893,931.3758793233242
12:06:00,2,J29,Halsey St,-73.916559,40.68637,1060.7306538591333
12:06:00,2,J30,Gates Av,-73.92227,40.68963,1081.3758793233242
12:06:00,2,J31,Kosciuszko St,-73.928814,40.693342,1248.0132336463673
12:22:00,1,L01,8 Av,-74.002578,40.739777,2063.3726727716103
12:22:00,1,L02,6 Av,-73.996786,40.737335,1954.125354439632
12:22:00,1,L03,14 St-Union Sq,-73.99073,40.734789,1864.1216268896487
12:22:00,1,L05,3 Av,-73.986122,40.732849,1789.9617989611245
12:22:00,1,L06,1 Av,-73.981628,40.730953,1752.1271247857424
12:22:00,1,L08,Bedford Av,-73.956872,40.717304,1548.0505290410615
12:22:00,1,L10,Lorimer St,-73.950275,40.714063,1448.7744856628165
12:22:00,1,L11,Graham Av,-73.944053,40.714565,1406.6689780317615
12:22:00,1,L12,Grand St,-73.94067,40.711926,1321.5712263211065
12:22:00,1,L13,Montrose Av,-73.93985,40.707739,1275.0930291792963
12:22:00,1,L14,Morgan Av,-73.933147,40.706152,1211.2864101007758
12:22:00,1,L15,Jefferson St,-73.922913,40.706607,1125.858161148825
12:22:00,1,L16,DeKalb Av,-73.918425,40.703811,1058.1215098633932
12:22:00,1,L17,Myrtle-Wyckoff Avs,-73.911586,40.699814,979.363874395413
12:22:00,1,L19,Halsey St,-73.904084,40.695602,930.787067059895
12:22:00,1,L20,Wilson Av,-73.904046,40.688764,800.335335298657
12:22:00,1,L21,Bushwick Av-Aberdeen St,-73.905249,40.682829,718.0561468015864
12:22:00,1,L22,Broadway Junction,-73.90324,40.678856,653.7369909642543
12:22:00,1,L24,Atlantic Av,-73.903097,40.675345,553.4109592954667
12:22:00,1,L25,Sutter Av,-73.901975,40.669367,476.9112928511706
12:06:00,1,L26,Livonia Av,-73.900571,40.664038,411.18269230769226
13:02:00,1,L27,New Lots Av,-73.899232,40.658733,465.00490676804856
13:02:00,1,L28,East 105 St,-73.899485,40.650573,575.2313284046644
12:06:00,1,L29,Canarsie-Rockaway Pkwy,-73.90185,40.646654,699.005497870883
12:22:00,2,M01,Middle Village-Metropolitan Av,-73.889601,40.711396,1603.9222819529305
12:22:00,2,M04,Fresh Pond Rd,-73.895877,40.706186,1483.3404959228687
12:22:00,2,M05,Forest Av,-73.903077,40.704423,1385.8209053014657
12:22:00,2,M06,Seneca Av,-73.90774,40.702762,1290.9612684299573
12:06:00,2,M08,Myrtle-Wyckoff Avs,-73.912385,40.69943,1204.363874395413
13:02:00,2,M09,Knickerbocker Av,-73.919711,40.698664,1304.7602651857055
13:02:00,2,M10,Central Av,-73.927397,40.697857,1419.7809418774348
12:06:00,2,M11,Myrtle Av,-73.935657,40.697207,1261.3758793233242
12:06:00,2,M12,Flushing Av,-73.941126,40.70026,1457.1424894184956
12:06:00,2,M13,Lorimer St,-73.947408,40.703869,1548.3810079370141
12:06:00,2,M14,Hewes St,-73.953431,40.70687,1644.0427068937952
12:06:00,2,M16,Marcy Av,-73.957757,40.708359,1521.3758793233242
12:06:00,2,M18,Delancey St-Essex St,-73.987437,40.718315,1954.8250836243994
12:06:00,2,M19,Bowery,-73.993915,40.72028,1981.0904090044087
12:20:30,1,M20,Canal St,-73.999892,40.718092,1865.7774008142296
12:20:30,1,M21,Chambers St,-74.003401,40.713243,1772.134273449791
12:20:30,1,M22,Fulton St,-74.007582,40.710374,1866.0997439981998
12:12:30,1,M23,Broad St,-74.011056,40.706476,1931.0067207423858
12:36:30,1,N02,8 Av,-74.011719,40.635064,2101.46839390129
12:36:30,1,N03,Fort Hamilton Pkwy,-74.005351,40.631386,2244.3049079015377
12:36:30,1,N04,New Utrecht Av,-73.996353,40.624842,2361.4164564579683
12:36:30,1,N05,18 Av,-73.990414,40.620671,2457.386733868801
12:36:30,1,N06,20 Av,-73.985026,40.61741,2544.823241805309
12:36:30,1,N07,Bay Pkwy,-73.981848,40.611815,2642.594764984117
12:36:30,1,N08,Kings Hwy,-73.980353,40.603923,2770.099095430486
12:36:30,1,N09,Avenue U,-73.979137,40.597473,2788.6486265979697
12:36:30,1,N10,86 St,-73.97823,40.592721,2708.129793062125
13:56:30,1,Q01,Canal St,-74.00046,40.718383,1749.3232893231855
12:04:30,1,Q03,72 St,-73.958424,40.768799,2829.9554188413704
12:04:30,1,Q04,86 St,-73.951787,40.777891,2955.1711816956185
12:04:30,1,Q05,96 St,-73.947152,40.784318,3048.1696455973083
12:12:30,1,R01,Astoria-Ditmars Blvd,-73.912034,40.775036,3112.817207981803
12:12:30,1,R03,Astoria Blvd,-73.917843,40.770258,3016.5218613531233
12:12:30,1,R04,30 Av,-73.921479,40.766779,2909.8249215703
12:12:30,1,R05,Broadway,-73.925508,40.76182,2814.4439691893476
12:12:30,1,R06,36 Av,-73.929575,40.756804,2701.962743892905
12:12:30,1,R08,39 Av-Dutch Kills,-73.932755,40.752882,2584.4178337132644
12:12:30,1,R09,Queensboro Plaza,-73.940202,40.750582,2421.9730575938615
12:36:30,1,R11,Lexington Av/59 St,-73.967258,40.76266,2569.2084422713874
12:36:30,1,R13,5 Av/59 St,-73.973347,40.764811,2667.3769076413205
12:04:30,1,R14,57 St-7 Av,-73.980658,40.764664,2534.320184844683
12:04:30,1,R15,49 St,-73.984139,40.759901,2482.5440386353093
12:04:30,1,R16,Times Sq-42 St,-73.986754,40.754672,2351.186373614097
13:56:30,1,R17,34 St-Herald Sq,-73.98795,40.749567,2248.206623762995
12:12:30,1,R18,28 St,-73.988691,40.745494,2252.2665609302103
12:12:30,1,R19,23 St,-73.989344,40.741303,2167.2160658807056
13:56:30,1,R20,14 St-Union Sq,-73.990568,40.735736,2034.33519408509
13:48:30,1,R21,8 St-NYU,-73.992629,40.730328,2188.634344523568
13:48:30,1,R22,Prince St,-73.997702,40.724329,2147.5289861849187
13:48:30,1,R23,Canal St,-74.001775,40.719527,2044.8487493233347
13:48:30,1,R24,City Hall,-74.006978,40.713282,1901.5048321953236
13:48:30,1,R25,Cortlandt St,-74.011029,40.710668,1759.6413205355154
13:48:30,1,R26,Rector St,-74.013342,40.70722,1629.1480039092944
13:48:30,1,R27,Whitehall St-South Ferry,-74.012994,40.703087,1553.0762177863783
13:24:30,1,R28,Court St,-73.991777,40.6941,1349.1074677863783
12:20:30,1,R29,Jay St-MetroTech,-73.985942,40.69218,1377.8866487719506
12:28:30,1,R30,DeKalb Av,-73.981824,40.690635,1267.4396257966112
13:40:30,1,R31,Atlantic Av-Barclays Ctr,-73.97881,40.683666,1110.3866487719506
12:20:30,1,R32,Union St,-73.98311,40.677316,1240.87618787391
12:20:30,1,R33,4 Av-9 St,-73.988302,40.670847,1346.4761878739102
12:20:30,1,R34,Prospect Av,-73.992872,40.665414,1457.7866487719505
12:20:30,1,R35,25 St,-73.998091,40.660397,1523.8919119298453
12:28:30,1,R36,36 St,-74.003549,40.655144,1609.5030508883528
12:20:30,1,R39,45 St,-74.010006,40.648939,1805.3854038295294
12:20:30,1,R40,53 St,-74.014034,40.645069,1900.6673457696882
12:36:30,1,R41,59 St,-74.017881,40.641362,1927.9450072819884
12:20:30,1,R42,Bay Ridge Av,-74.023377,40.634967,2092.4192560681963
12:20:30,1,R43,77 St,-74.02551,40.629742,2175.027923172596
12:20:30,1,R44,86 St,-74.028398,40.622687,2359.4798582537446
13:00:30,1,R45,Bay Ridge-95 St,-74.030876,40.616622,2428.061597384179
12:28:30,1,S01,Franklin Av,-73.955827,40.680596,1011.0774032206041
12:28:30,1,S03,Park Pl,-73.957624,40.674772,916.0880415184763
12:20:30,1,S04,Botanic Garden,-73.959245,40.670343,785.1613239612244
