start_time,ntransfers,stop_id,stop_name,stop_lon,stop_lat,duration
12:09:00,0,101,Van Cortlandt Park-242 St,-73.898583,40.889248,4714.22674216891
12:09:00,0,103,238 St,-73.90087,40.884667,4607.475993985926
12:09:00,0,104,231 St,-73.904834,40.878856,4512.640887602947
12:09:00,0,106,Marble Hill-225 St,-73.909831,40.874561,4419.169021091499
12:09:00,0,107,215 St,-73.915279,40.869444,4311.044457645632
12:09:00,0,108,207 St,-73.918822,40.864621,4232.059662323994
12:09:00,0,109,Dyckman St,-73.925536,40.860531,4134.023035266504
12:09:00,0,110,191 St,-73.929412,40.855225,4043.8039876474563
12:09:00,0,111,181 St,-73.933596,40.849505,3948.5593989028675
12:09:00,0,112,168 St-Washington Hts,-73.940133,40.840556,3827.709073523258
12:09:00,0,113,157 St,-73.94489,40.834041,3815.983933470616
12:09:00,0,114,145 St,-73.95036,40.826551,3700.319286131802
12:09:00,0,115,137 St-City College,-73.953676,40.822008,3599.2765030721653
12:09:00,0,116,125 St,-73.958372,40.815581,3500.5153711537296
12:09:00,0,117,116 St-Columbia University,-73.96411,40.807722,3382.3593017895682
12:09:00,0,118,Cathedral Pkwy (110 St),-73.966847,40.803967,3304.328488313808
12:09:00,0,119,103 St,-73.968379,40.799446,3225.010306495626
12:01:00,0,120,96 St,-73.972323,40.793919,2976.7189813855184
12:01:00,0,121,86 St,-73.976218,40.788644,3010.87070462209
12:01:00,0,122,79 St,-73.979917,40.783934,2932.095643497396
12:01:00,0,123,72 St,-73.98197,40.778453,2801.187349274939
12:17:00,0,124,66 St-Lincoln Center,-73.982209,40.77344,2881.6396939782558
12:17:00,0,125,59 St-Columbus Circle,-73.981929,40.768247,2800.5417236425806
12:17:00,0,126,50 St,-73.983849,40.761728,2691.9142726621885
12:01:00,0,127,Times Sq-42 St,-73.987495,40.75529,2554.049175667472
12:01:00,0,128,34 St-Penn Station,-73.991057,40.750373,2446.6596651779614
12:09:00,0,129,28 St,-73.993365,40.747215,2485.8010062152566
12:09:00,0,130,23 St,-73.995657,40.744081,2417.173775804085
12:09:00,0,131,18 St,-73.997871,40.74104,2348.7332625848003
12:01:00,0,132,14 St,-74.000201,40.737826,2272.6561588666004
12:01:00,0,133,Christopher St-Sheridan Sq,-74.002906,40.733422,2363.609329193994
12:01:00,0,134,Houston St,-74.005367,40.728251,2443.608922689929
12:01:00,0,135,Canal St,-74.006277,40.722854,2396.537906102787
12:01:00,0,136,Franklin St,-74.006886,40.719318,2331.382656812151
12:01:00,0,137,Chambers St,-74.009266,40.715478,2061.4025625184695
12:17:00,0,138,WTC Cortlandt,-74.012188,40.711835,2190.103586126948
12:17:00,0,139,Rector St,-74.013783,40.707513,2110.805019247967
12:17:00,0,142,South Ferry,-74.013664,40.702068,2006.0845978541256
13:37:00,0,201,Wakefield-241 St,-73.85062,40.903125,5557.411172179872
13:37:00,0,204,Nereid Av,-73.854376,40.898379,5329.147123841503
13:37:00,0,205,233 St,-73.857473,40.893193,5197.147123841503
13:37:00,0,206,225 St,-73.860341,40.888022,5101.147123841503
13:37:00,0,207,219 St,-73.862633,40.883895,5019.147123841504
13:37:00,0,208,Gun Hill Rd,-73.866256,40.87785,4910.647123841504
13:37:00,0,209,Burke Av,-73.867164,40.871356,4974.194369701502
13:37:00,0,210,Allerton Av,-73.867352,40.865462,4883.76908234518
13:37:00,0,211,Pelham Pkwy,-73.867615,40.857192,4771.861036368169
13:37:00,0,212,Bronx Park East,-73.868457,40.848828,4644.711036368169
13:37:00,0,213,E 180 St,-73.873488,40.841894,4441.113471098188
12:01:00,0,214,West Farms Sq-E Tremont Av,-73.880049,40.840295,4367.1598247979755
12:01:00,0,215,174 St,-73.887734,40.837288,4241.120460679884
12:01:00,0,216,Freeman St,-73.891865,40.829993,4118.612571874474
12:01:00,0,217,Simpson St,-73.893064,40.824073,4005.39988530731
13:37:00,0,218,Intervale Av,-73.896736,40.822181,3930.7354507835007
13:37:00,0,219,Prospect Av,-73.90177,40.819585,3847.170071883055
12:01:00,0,220,Jackson Av,-73.907807,40.81649,3747.443538254082
13:37:00,0,221,3 Av-149 St,-73.917757,40.816109,3608.4721306294487
12:01:00,0,222,149 St-Grand Concourse,-73.926718,40.81841,3476.8126818105507
12:01:00,0,224,135 St,-73.94077,40.814229,3514.6268859526635
12:01:00,0,225,125 St,-73.945495,40.807754,3403.67492772812
12:01:00,0,226,116 St,-73.949625,40.802098,3304.5316930558156
12:01:00,0,227,Central Park North (110 St),-73.951822,40.799075,3235.1501350271983
12:01:00,0,228,Park Place,-74.008811,40.713051,1969.174050692499
12:01:00,0,229,Fulton St,-74.006571,40.709416,1845.0975044585737
12:01:00,0,230,Wall St,-74.0091,40.706821,1761.6749000359691
12:01:00,0,231,Clark St,-73.993086,40.697466,1554.6187964601368
12:01:00,0,232,Borough Hall,-73.989998,40.693219,1463.6187580087824
12:01:00,0,233,Hoyt St,-73.985065,40.690545,1371.1260513637258
12:01:00,0,234,Nevins St,-73.980492,40.688246,1243.5180716968516
12:01:00,0,235,Atlantic Av-Barclays Ctr,-73.977666,40.684359,1143.3033154386171
12:01:00,0,236,Bergen St,-73.975098,40.680829,1220.4211980499547
12:01:00,0,237,Grand Army Plaza,-73.971046,40.675235,1119.9384394292651
12:01:00,0,238,Eastern Pkwy-Brooklyn Museum,-73.964375,40.671987,1020.9509394292652
12:01:00,0,239,Franklin Av-Medgar Evers College,-73.958131,40.670682,823.2863915243382
12:01:00,0,241,President St-Medgar Evers College,-73.950683,40.667883,1018.0329694460131
12:01:00,0,242,Sterling St,-73.95085,40.662742,1110.0254403563486
12:01:00,0,243,Winthrop St,-73.9502,40.656652,1199.0791088346093
12:01:00,0,244,Church Av,-73.949575,40.650843,1277.9174846307876
12:01:00,0,245,Beverly Rd,-73.948959,40.645098,1357.146749634159
12:01:00,0,246,Newkirk Av-Little Haiti,-73.948411,40.639967,1444.3352631476725
12:01:00,0,247,Flatbush Av-Brooklyn College,-73.947642,40.632836,1594.9548206066306
12:01:00,0,248,Nostrand Av,-73.950466,40.669847,767.9809215278987
12:01:00,0,249,Kingston Av,-73.942161,40.669399,665.1597676817448
12:01:00,0,250,Crown Hts-Utica Av,-73.932942,40.668897,581.5815363892277
12:01:00,0,251,Sutter Av-Rutland Rd,-73.92261,40.664717,448.3157426635937
12:01:00,0,252,Saratoga Av,-73.916327,40.661453,345.0003019743956
12:01:00,0,253,Rockaway Av,-73.908946,40.662549,256.92327847570107
12:01:00,0,254,Junius St,-73.902447,40.663515,175.61463650039244
12:01:00,0,255,Pennsylvania Av,-73.894895,40.664635,75.53871177618738
12:02:00,0,256,Van Siclen Av,-73.889395,40.665449,0.0
12:02:00,0,257,New Lots Av,-73.884079,40.666235,71.25714285714285
12:01:00,0,301,Harlem-148 St,-73.93647,40.82388,3771.3163626066103
12:01:00,0,302,145 St,-73.936245,40.820421,3654.756340879288
13:37:00,0,401,Woodlawn,-73.878751,40.886037,4800.565494256876
13:37:00,0,402,Mosholu Pkwy,-73.884655,40.87975,4643.117122995261
12:01:00,0,405,Bedford Park Blvd-Lehman College,-73.890064,40.873412,4527.728267037939
12:01:00,0,406,Kingsbridge Rd,-73.897174,40.86776,4411.355630775426
12:01:00,0,407,Fordham Rd,-73.901034,40.862803,4314.433408553204
12:01:00,0,408,183 St,-73.903879,40.858407,4229.836616517805
12:01:00,0,409,Burnside Av,-73.907684,40.853453,4128.559122911667
12:01:00,0,410,176 St,-73.911794,40.84848,4057.8949140357277
12:01:00,0,411,Mt Eden Av,-73.914685,40.844434,3978.5479752602173
12:01:00,0,412,170 St,-73.917791,40.840075,3898.34159111052
12:01:00,0,413,167 St,-73.9214,40.835537,3809.2130435312215
12:01:00,0,414,161 St-Yankee Stadium,-73.925831,40.827994,3630.6576558172233
12:01:00,0,415,149 St-Grand Concourse,-73.927351,40.818375,3452.7434728778603
12:01:00,0,416,138 St-Grand Concourse,-73.929849,40.813224,3292.976270201052
12:01:00,0,418,Fulton St,-74.009509,40.710368,1806.3884875248013
12:01:00,0,419,Wall St,-74.011862,40.707557,1726.5743282327658
12:01:00,0,420,Bowling Green,-74.014065,40.704817,1647.2133621753246
12:01:00,0,423,Borough Hall,-73.990151,40.692404,1382.4774024767758
13:37:00,0,501,Eastchester-Dyre Av,-73.830834,40.8883,5164.368839445334
13:37:00,0,502,Baychester Av,-73.838591,40.878663,5033.694914263871
13:37:00,0,503,Gun Hill Rd,-73.846384,40.869526,4891.113471098188
13:37:00,0,504,Pelham Pkwy,-73.855359,40.858985,4741.113471098188
13:37:00,0,505,Morris Park,-73.860495,40.854364,4651.113471098188
13:13:00,0,601,Pelham Bay Park,-73.828121,40.852462,4905.878543620641
13:13:00,0,602,Buhre Av,-73.832569,40.84681,4728.615385725904
13:13:00,0,603,Middletown Rd,-73.836322,40.843863,4658.322282277629
13:13:00,0,604,Westchester Sq-E Tremont Av,-73.842952,40.839892,4526.145811689394
13:13:00,0,606,Zerega Av,-73.847036,40.836488,4439.0958116893935
13:13:00,0,607,Castle Hill Av,-73.851222,40.834255,4369.849910050049
12:01:00,0,608,Parkchester,-73.860816,40.833226,4184.436116946601
12:01:00,0,609,St Lawrence Av,-73.867618,40.831509,4428.296449609399
12:01:00,0,610,Morrison Av-Soundview,-73.874516,40.829521,4327.145405628946
12:01:00,0,611,Elder Av,-73.879159,40.828584,4254.4200011689545
12:01:00,0,612,Whitlock Av,-73.886283,40.826525,4141.715239264193
12:01:00,0,613,Hunts Point Av,-73.890549,40.820948,3912.0361169466005
12:01:00,0,614,Longwood Av,-73.896435,40.816104,4031.1274123401067
12:01:00,0,615,E 149 St,-73.904098,40.812118,3928.356630244681
12:01:00,0,616,E 143 St-St Mary's St,-73.907657,40.808719,3851.682534157509
12:01:00,0,617,Cypress Av,-73.914042,40.805368,3740.2675839506555
12:01:00,0,618,Brook Av,-73.91924,40.807566,3664.648634840188
12:01:00,0,619,3 Av-138 St,-73.926138,40.810476,3544.390726875679
12:01:00,0,621,125 St,-73.937594,40.804138,3109.9926959566365
12:01:00,0,622,116 St,-73.941617,40.798629,3422.632152838288
12:01:00,0,623,110 St,-73.94425,40.79502,3340.743867609086
12:01:00,0,624,103 St,-73.947478,40.7906,3263.102876770946
12:01:00,0,625,96 St,-73.95107,40.785672,3172.7284707967437
12:01:00,0,626,86 St,-73.955589,40.779492,2801.6721497927874
12:01:00,0,627,77 St,-73.959874,40.77362,2990.156352907304
12:01:00,0,628,68 St-Hunter College,-73.96387,40.768141,2896.6191850633754
12:01:00,0,629,59 St,-73.967967,40.762526,2601.6174522380898
12:01:00,0,630,51 St,-73.97192,40.757107,2686.96499790457
12:01:00,0,631,Grand Central-42 St,-73.976848,40.751776,2434.770559220793
12:01:00,0,632,33 St,-73.982076,40.746081,2451.555327332564
12:01:00,0,633,28 St,-73.984264,40.74307,2379.6478540229555
12:01:00,0,634,23 St,-73.986599,40.739864,2299.824185383902
12:01:00,0,635,14 St-Union Sq,-73.989951,40.734673,2186.613471098188
12:01:00,0,636,Astor Pl,-73.99107,40.730054,2265.576434061151
12:01:00,0,637,Bleecker St,-73.994659,40.725915,2222.37415025799
12:01:00,0,638,Spring St,-73.997141,40.722301,2151.8483770621137
12:01:00,0,639,Canal St,-74.000193,40.718803,2077.7654159900017
12:01:00,0,640,Brooklyn Bridge-City Hall,-74.004131,40.713065,1925.0509401164575
12:17:00,1,701,Flushing-Main St,-73.83003,40.7596,3627.6028439782376
12:17:00,1,702,Mets-Willets Point,-73.845625,40.754622,3462.5801902565545
12:17:00,1,705,111 St,-73.855334,40.75173,3526.80062571906
12:17:00,1,706,103 St-Corona Plaza,-73.8627,40.749865,3447.8932558745705
12:17:00,1,707,Junction Blvd,-73.869527,40.749145,3243.7191424205635
12:17:00,1,708,90 St-Elmhurst Av,-73.876613,40.748408,3320.329136125263
12:09:00,2,709,82 St-Jackson Hts,-73.883697,40.747659,3232.661570639901
12:17:00,1,710,74 St-Broadway,-73.891394,40.746848,3071.8240931624237
12:17:00,1,711,69 St,-73.896403,40.746325,3002.8876066759367
12:17:00,1,712,61 St-Woodside,-73.902984,40.74563,2920.9680841499453
12:17:00,1,713,52 St,-73.912549,40.744149,2826.377997319265
12:17:00,1,714,46 St-Bliss St,-73.918435,40.743132,2765.6483286445664
12:17:00,1,715,40 St-Lowery St,-73.924016,40.743781,2697.5340740199745
12:17:00,1,716,33 St-Rawson St,-73.930997,40.744587,2618.790134626035
12:17:00,1,718,Queensboro Plaza,-73.940202,40.750582,2478.811553833345
12:17:00,1,719,Court Sq,-73.945264,40.747023,2383.6751901969815
12:17:00,1,720,Hunters Point Av,-73.948916,40.742216,2478.762146718721
12:17:00,1,721,Vernon Blvd-Jackson Av,-73.953581,40.742626,2505.762146718721
12:33:00,1,723,Grand Central-42 St,-73.976041,40.751431,2571.2378775559278
12:33:00,1,724,5 Av,-73.981963,40.753821,2641.5561779659165
12:33:00,1,725,Times Sq-42 St,-73.987691,40.755477,2579.7171780410654
12:33:00,1,726,34 St-Hudson Yards,-74.00191,40.755882,2724.3193678220873
12:33:00,1,901,Grand Central-42 St,-73.979189,40.752769,2511.2378775559278
12:17:00,1,902,Times Sq-42 St,-73.986229,40.755983,2519.7171780410654
13:05:00,1,A02,Inwood-207 St,-73.919899,40.868072,4172.602674092166
13:05:00,1,A03,Dyckman St,-73.927271,40.865491,4072.863847276524
13:05:00,1,A05,190 St,-73.93418,40.859022,3942.4838362935475
13:05:00,1,A06,181 St,-73.937969,40.851695,3829.598924399274
13:05:00,1,A07,175 St,-73.939704,40.847391,3736.8139188865953
12:01:00,2,A09,168 St,-73.939561,40.840719,3602.2199423110237
13:45:00,1,A10,163 St-Amsterdam Av,-73.939892,40.836013,3635.832417467462
13:45:00,1,A11,155 St,-73.941514,40.830518,3550.9625905299154
12:01:00,2,A12,145 St,-73.944216,40.824783,3356.408444245794
13:05:00,1,A14,135 St,-73.947649,40.817894,3267.5393912015697
12:01:00,2,A15,125 St,-73.952343,40.811109,3142.1438356460144
12:25:00,1,A16,116 St,-73.954882,40.805085,3280.082256270872
12:25:00,1,A17,Cathedral Pkwy (110 St),-73.958161,40.800603,3331.4729730730373
12:25:00,1,A18,103 St,-73.961454,40.796092,3245.0437595898916
12:25:00,1,A19,96 St,-73.964696,40.791642,3157.916787388539
12:25:00,1,A20,86 St,-73.968916,40.785868,3057.1090950808466
12:25:00,1,A21,81 St-Museum of Natural History,-73.972143,40.781433,2958.6344931096564
12:25:00,1,A22,72 St,-73.97641,40.775594,2866.7716143217776
12:25:00,1,A24,59 St-Columbus Circle,-73.981736,40.768296,2641.133401818447
12:01:00,2,A25,50 St,-73.985984,40.762456,2622.200350311815
12:01:00,2,A27,42 St-Port Authority Bus Terminal,-73.989735,40.757308,2476.6020831371284
12:01:00,2,A28,34 St-Penn Station,-73.993391,40.752287,2374.8058173491
12:01:00,2,A30,23 St,-73.998041,40.745906,2315.231652525024
12:25:00,1,A31,14 St,-74.00169,40.740893,2226.031037613417
12:25:00,1,A32,W 4 St-Wash Sq,-74.000495,40.732338,2345.1109999840664
12:17:00,1,A33,Spring St,-74.003739,40.726227,2287.6360620475753
12:25:00,1,A34,Canal St,-74.005229,40.720824,2173.714790653932
12:25:00,1,A36,Chambers St,-74.008585,40.714111,2128.6304790158674
12:01:00,2,A38,Fulton St,-74.007691,40.710197,2029.3195208976804
12:25:00,2,A40,High St,-73.990531,40.699337,1912.4320857402415
13:45:00,2,A41,Jay St-MetroTech,-73.987342,40.692338,1785.8033154386173
13:45:00,2,A42,Hoyt-Schermerhorn Sts,-73.985001,40.688484,1695.8623739694394
13:45:00,2,A43,Lafayette Av,-73.973946,40.686113,1559.40644448226
13:45:00,2,A44,Clinton-Washington Avs,-73.965838,40.683263,1469.9376641579224
13:45:00,2,A45,Franklin Av,-73.956848,40.68138,1368.6874693021157
13:45:00,2,A46,Nostrand Av,-73.950426,40.680438,1372.661334761057
13:45:00,2,A47,Kingston-Throop Avs,-73.940858,40.679921,1358.3069347955302
13:45:00,2,A48,Utica Av,-73.930729,40.679364,1204.5927167188306
12:25:00,2,A49,Ralph Av,-73.920786,40.678822,1159.9425552140262
12:25:00,2,A50,Rockaway Av,-73.911946,40.67834,1063.2784214754242
13:21:00,2,A51,Broadway Junction,-73.905316,40.678334,974.0342441651313
12:25:00,2,A52,Liberty Av,-73.896548,40.674542,1112.049939232396
12:25:00,2,A53,Van Siclen Av,-73.890358,40.67271,1208.2083846733526
12:25:00,2,A54,Shepherd Av,-73.88075,40.67413,1309.7065035597334
13:05:00,2,A55,Euclid Av,-73.872106,40.675377,1291.3616988839112
13:05:00,2,A57,Grant Av,-73.86505,40.677044,1421.568380398388
13:05:00,2,A59,80 St,-73.858992,40.679371,1519.0750242046458
13:05:00,2,A60,88 St,-73.85147,40.679843,1618.2646646156047
13:05:00,2,A61,Rockaway Blvd,-73.843853,40.680429,1711.6885823181337
13:05:00,2,A63,104 St,-73.837683,40.681711,1802.736533495117
13:05:00,2,A64,111 St,-73.832163,40.684331,1893.871912556489
13:05:00,2,A65,Ozone Park-Lefferts Blvd,-73.825798,40.685951,2004.750372243613
13:37:00,1,B04,21 St-Queensbridge,-73.942836,40.754203,3176.3232504219563
13:37:00,1,B06,Roosevelt Island,-73.95326,40.759145,3014.606747933826
13:05:00,1,B08,Lexington Av/63 St,-73.966113,40.764629,2842.370446818821
13:05:00,1,B10,57 St,-73.97745,40.763972,2752.8555123489823
12:25:00,1,B12,9 Av,-73.994324,40.646292,2206.1438332420216
12:25:00,1,B13,Fort Hamilton Pkwy,-73.994304,40.640914,2313.0705283256702
12:25:00,1,B14,50 St,-73.994791,40.63626,2393.8304715074887
12:25:00,1,B15,55 St,-73.995476,40.631435,2496.8589210096225
12:25:00,1,B16,62 St,-73.996895,40.626472,2561.807303135971
12:25:00,1,B17,71 St,-73.998864,40.619589,2664.704592722276
12:25:00,1,B18,79 St,-74.00061,40.613501,2769.155377315714
12:25:00,1,B19,18 Av,-74.001736,40.607954,2853.6389487442852
12:25:00,1,B20,20 Av,-73.998168,40.604556,2938.850528444071
12:25:00,1,B21,Bay Pkwy,-73.993728,40.601875,3020.0084609638125
13:45:00,1,B22,25 Av,-73.986829,40.597704,3108.284853106609
13:45:00,1,B23,Bay 50 St,-73.983765,40.588841,2966.2727357596705
12:01:00,1,D01,Norwood-205 St,-73.878855,40.874811,4656.349411302074
12:01:00,1,D03,Bedford Park Blvd,-73.887138,40.873244,4487.649656979933
12:01:00,1,D04,Kingsbridge Rd,-73.893509,40.866978,4369.109272364549
12:01:00,1,D05,Fordham Rd,-73.897749,40.861296,4268.976386458509
12:01:00,1,D06,182-183 Sts,-73.900741,40.856093,4183.803599178293
13:21:00,1,D07,Tremont Av,-73.905227,40.85041,4100.203225695566
13:21:00,1,D08,174-175 Sts,-73.910136,40.8459,4073.2849518393186
13:21:00,1,D09,170 St,-73.9134,40.839306,3967.741142315509
13:21:00,1,D10,167 St,-73.91844,40.833771,3860.5029301148397
13:21:00,1,D11,161 St-Yankee Stadium,-73.925651,40.827905,3711.724218630246
13:21:00,1,D12,155 St,-73.938209,40.830135,3578.248842433256
13:21:00,1,D13,145 St,-73.944216,40.824783,3430.3370256364683
12:25:00,1,D14,7 Av,-73.981637,40.762862,2764.6802144273483
12:25:00,1,D15,47-50 Sts-Rockefeller Ctr,-73.981329,40.758663,2662.55975588046
12:25:00,1,D16,42 St-Bryant Pk,-73.984569,40.754222,2565.8106798808367
12:25:00,1,D17,34 St-Herald Sq,-73.987823,40.749719,2483.8135207899277
12:01:00,2,D18,23 St,-73.992821,40.742878,2367.750035613851
12:25:00,1,D19,14 St,-73.996209,40.738228,2287.6561588666004
12:25:00,1,D20,W 4 St-Wash Sq,-74.000495,40.732338,2356.323426388951
12:25:00,1,D21,Broadway-Lafayette St,-73.996204,40.725297,2207.301644210733
12:25:00,1,D22,Grand St,-73.993753,40.718267,2069.151797883777
12:17:00,1,D24,Atlantic Av-Barclays Ctr,-73.97689,40.68446,1370.5652187245973
12:17:00,1,D25,7 Av,-73.972367,40.67705,1488.66228829163
12:17:00,1,D26,Prospect Park,-73.962246,40.661614,1155.7372389819652
12:25:00,1,D27,Parkside Av,-73.961495,40.655292,1501.8246511030538
12:17:00,1,D28,Church Av,-73.962982,40.650527,1425.598654734707
12:25:00,1,D29,Beverley Rd,-73.964492,40.644031,1532.695072938401
12:25:00,1,D30,Cortelyou Rd,-73.963891,40.640927,1610.8321028937867
12:17:00,1,D31,Newkirk Plaza,-73.962793,40.635082,1604.3426547347071
12:25:00,1,D32,Avenue H,-73.961639,40.62927,1717.6674337786208
12:25:00,1,D33,Avenue J,-73.960803,40.625039,1814.5519751512954
12:25:00,1,D34,Avenue M,-73.959399,40.617618,1925.3583243576445
12:17:00,1,D35,Kings Hwy,-73.957734,40.60867,1869.7380269681075
12:17:00,1,D37,Avenue U,-73.955929,40.5993,2089.086270082974
12:17:00,1,D38,Neck Rd,-73.955161,40.595246,2193.1840274147735
12:17:00,1,D39,Sheepshead Bay,-73.954155,40.586896,2138.898433059478
12:17:00,1,D40,Brighton Beach,-73.961376,40.577621,2300.2053331624647
12:17:00,1,D41,Ocean Pkwy,-73.968501,40.576312,2488.950260287663
12:17:00,1,D42,W 8 St-NY Aquarium,-73.975939,40.576127,2603.499940706024
12:17:00,1,D43,Coney Island-Stillwell Av,-73.981233,40.577422,2692.2658981528325
13:13:00,1,E01,World Trade Center,-74.009781,40.712582,2031.0033174699536
12:25:00,2,F01,Jamaica-179 St,-73.783817,40.712646,3292.85398254173
12:25:00,2,F02,169 St,-73.793604,40.71047,3202.85398254173
12:25:00,2,F03,Parsons Blvd,-73.803326,40.707564,3039.1187581432187
12:25:00,2,F04,Sutphin Blvd,-73.810708,40.70546,2949.1187581432187
12:25:00,2,F05,Briarwood,-73.820574,40.709179,2707.85398254173
12:25:00,2,F06,Kew Gardens-Union Tpke,-73.831008,40.714441,2818.3995154783943
13:05:00,2,F07,75 Av,-73.837324,40.718331,2959.048295966199
12:49:00,1,F09,Court Sq-23 St,-73.946,40.747846,2383.6751901969815
12:25:00,1,F11,Lexington Av/53 St,-73.969055,40.757552,2587.2466187684104
12:25:00,1,F12,5 Av/53 St,-73.975224,40.760167,2670.913932363499
12:01:00,2,F14,2 Av,-73.989938,40.723402,2244.129376710535
12:01:00,2,F15,Delancey St-Essex St,-73.988114,40.718611,2132.1957667520282
12:01:00,2,F16,East Broadway,-73.990173,40.713715,2041.0652202005222
12:01:00,2,F18,York St,-73.986751,40.701397,1875.8033154386173
13:45:00,2,F20,Bergen St,-73.990862,40.686145,1926.6526514958186
12:57:00,2,F21,Carroll St,-73.995048,40.680303,2041.7221614275716
12:57:00,2,F22,Smith-9 Sts,-73.995959,40.67358,1949.1649707451004
12:17:00,2,F23,4 Av-9 St,-73.989779,40.670272,1857.7777838681677
12:17:00,2,F24,7 Av,-73.980305,40.666271,1976.4257242035453
12:17:00,2,F25,15 St-Prospect Park,-73.979493,40.660365,2090.6300951427065
12:17:00,2,F26,Fort Hamilton Pkwy,-73.975776,40.650782,2257.233377143209
12:17:00,2,F27,Church Av,-73.979678,40.644041,2264.59086316343
12:17:00,2,F29,Ditmas Av,-73.978172,40.636119,2384.59086316343
12:17:00,2,F30,18 Av,-73.976971,40.629755,2504.59086316343
12:17:00,2,F31,Avenue I,-73.976127,40.625322,2564.59086316343
12:17:00,2,F32,Bay Pkwy,-73.975264,40.620769,2624.59086316343
12:17:00,2,F33,Avenue N,-73.974197,40.61514,2744.59086316343
12:17:00,2,F34,Avenue P,-73.973022,40.608944,2834.59086316343
12:17:00,1,F35,Kings Hwy,-73.972361,40.603217,3003.8719316884008
12:17:00,1,F36,Avenue U,-73.973357,40.596063,3111.8481221645916
12:17:00,1,F38,Avenue X,-73.97425,40.58962,3053.499940706024
12:17:00,1,F39,Neptune Av,-73.974574,40.581011,2918.499940706024
13:45:00,2,G05,Jamaica Center-Parsons/Archer,-73.801109,40.702147,2264.0342441651314
13:45:00,2,G06,Sutphin Blvd-Archer Av-JFK Airport,-73.807969,40.700486,2204.0342441651314
12:25:00,2,G07,Jamaica-Van Wyck,-73.816859,40.702566,2570.1884535314916
12:25:00,2,G08,Forest Hills-71 Av,-73.844521,40.721691,3043.1855111020263
12:49:00,1,G09,67 Av,-73.852719,40.726523,3192.1754435457333
12:49:00,1,G10,63 Dr-Rego Park,-73.861604,40.729846,3303.3758808428875
12:49:00,1,G11,Woodhaven Blvd,-73.869229,40.733106,3356.649531135994
12:49:00,1,G12,Grand Av-Newtown,-73.877223,40.737015,3238.5464003809298
12:49:00,1,G13,Elmhurst Av,-73.882017,40.742454,3132.9552401599353
12:49:00,1,G14,Jackson Hts-Roosevelt Av,-73.891338,40.746644,2986.57215621227
12:33:00,1,G15,65 St,-73.898453,40.749669,3073.687813803125
13:13:00,1,G16,Northern Blvd,-73.906006,40.752885,2979.3579168959086
13:13:00,1,G18,46 St,-73.913333,40.756312,2889.3579168959086
13:13:00,1,G19,Steinway St,-73.92074,40.756879,2772.4507004010634
13:13:00,1,G20,36 St,-73.928781,40.752039,2652.4507004010634
12:49:00,1,G21,Queens Plaza,-73.937243,40.748973,2507.042537135757
13:45:00,2,G22,Court Sq,-73.943832,40.746554,2269.181002381153
13:45:00,2,G24,21 St,-73.949724,40.744065,2202.821787364088
13:45:00,2,G26,Greenpoint Av,-73.954449,40.731352,2008.006013733745
13:45:00,2,G28,Nassau Av,-73.951277,40.724635,1910.541663823619
12:01:00,2,G29,Metropolitan Av,-73.951418,40.712792,1770.51957427138
12:01:00,2,G30,Broadway,-73.950308,40.706092,1887.5539548285822
12:01:00,2,G31,Flushing Av,-73.950234,40.700377,1977.5735161800937
12:01:00,2,G32,Myrtle-Willoughby Avs,-73.949046,40.694568,2054.623367812141
12:01:00,2,G33,Bedford-Nostrand Avs,-73.953522,40.689627,2166.0370991554246
13:37:00,2,G34,Classon Av,-73.96007,40.688873,2205.7035044989398
13:37:00,2,G35,Clinton-Washington Avs,-73.966839,40.688089,2124.191141071683
13:37:00,2,G36,Fulton St,-73.975375,40.687119,2033.3852991472845
12:49:00,2,H01,Aqueduct Racetrack,-73.834058,40.668234,1922.567086991031
12:33:00,2,H02,Aqueduct-N Conduit Av,-73.834058,40.668234,2001.483061136922
12:33:00,2,H03,Howard Beach-JFK Airport,-73.830301,40.660476,2100.3135980496736
12:33:00,2,H04,Broad Channel,-73.815925,40.608382,2565.6951547332606
12:33:00,2,H06,Beach 67 St,-73.796924,40.590927,2894.661666361167
13:13:00,2,H07,Beach 60 St,-73.788522,40.592374,3020.518413126417
13:13:00,2,H08,Beach 44 St,-73.776013,40.592943,3130.1946388433457
13:13:00,2,H09,Beach 36 St,-73.768175,40.595398,3231.466861065568
13:13:00,2,H10,Beach 25 St,-73.761353,40.600066,3331.907381511665
13:13:00,2,H11,Far Rockaway-Mott Av,-73.755405,40.603995,3422.2069682885244
13:13:00,2,H12,Beach 90 St,-73.813641,40.588034,2835.7522975904035
13:13:00,2,H13,Beach 98 St,-73.820558,40.585307,2935.8560711753094
13:13:00,2,H14,Beach 105 St,-73.827559,40.583209,3025.5322616515
13:13:00,2,H15,Rockaway Park-Beach 116 St,-73.835592,40.580903,3129.0817122009507
13:45:00,2,J12,121 St,-73.828294,40.700492,1964.0342441651314
13:45:00,2,J13,111 St,-73.836345,40.697418,2125.0993448362724
13:45:00,2,J14,104 St,-73.84433,40.695178,1784.0342441651314
13:45:00,2,J15,Woodhaven Blvd,-73.851576,40.693879,1694.0342441651314
13:45:00,2,J16,85 St-Forest Pkwy,-73.86001,40.692435,1706.4184514766127
13:45:00,2,J17,75 St-Elderts Ln,-73.867139,40.691324,1514.0342441651314
13:45:00,2,J19,Cypress Hills,-73.87255,40.689941,1538.7970922533118
13:45:00,2,J20,Crescent St,-73.873785,40.683194,1364.0342441651314
13:45:00,2,J21,Norwood Av,-73.880039,40.68141,1274.0342441651314
13:45:00,2,J22,Cleveland St,-73.884639,40.679947,1272.0121499414145
13:45:00,2,J23,Van Siclen Av,-73.891688,40.678024,1124.0342441651314
13:45:00,2,J24,Alabama Av,-73.898654,40.676992,1064.0342441651314
13:05:00,2,J27,Broadway Junction,-73.904512,40.679498,974.0342441651313
12:25:00,2,J28,Chauncey St,-73.910456,40.682893,1034.0342441651314
12:25:00,2,J29,Halsey St,-73.916559,40.68637,1163.3890187009404
12:25:00,2,J30,Gates Av,-73.92227,40.68963,1184.0342441651314
12:25:00,2,J31,Kosciuszko St,-73.928814,40.693342,1350.6715984881746
12:01:00,1,L01,8 Av,-74.002578,40.739777,2166.031037613417
12:01:00,1,L02,6 Av,-73.996786,40.737335,2062.6561588666004
12:01:00,1,L03,14 St-Union Sq,-73.99073,40.734789,1972.6524313166174
12:01:00,1,L05,3 Av,-73.986122,40.732849,1898.4926033880934
12:01:00,1,L06,1 Av,-73.981628,40.730953,1860.6579292127112
12:01:00,1,L08,Bedford Av,-73.956872,40.717304,1656.5813334680304
12:01:00,1,L10,Lorimer St,-73.950275,40.714063,1557.305290089785
12:01:00,1,L11,Graham Av,-73.944053,40.714565,1515.1997824587302
12:01:00,1,L12,Grand St,-73.94067,40.711926,1430.102030748075
12:01:00,1,L13,Montrose Av,-73.93985,40.707739,1383.623833606265
12:01:00,1,L14,Morgan Av,-73.933147,40.706152,1319.8172145277447
12:01:00,1,L15,Jefferson St,-73.922913,40.706607,1234.3889655757937
12:01:00,1,L16,DeKalb Av,-73.918425,40.703811,1166.652314290362
12:01:00,1,L17,Myrtle-Wyckoff Avs,-73.911586,40.699814,1087.8946788223816
12:01:00,1,L19,Halsey St,-73.904084,40.695602,1033.4454319017022
12:01:00,1,L20,Wilson Av,-73.904046,40.688764,902.9937001404643
12:01:00,1,L21,Bushwick Av-Aberdeen St,-73.905249,40.682829,826.586951228555
12:01:00,1,L22,Broadway Junction,-73.90324,40.678856,756.3953558060616
12:01:00,1,L24,Atlantic Av,-73.903097,40.675345,661.9417637224354
12:01:00,1,L25,Sutter Av,-73.901975,40.669367,585.4420972781393
12:17:00,1,L26,Livonia Av,-73.900571,40.664038,518.3814931062394
12:41:00,1,L27,New Lots Av,-73.899232,40.658733,573.5357111950173
12:41:00,1,L28,East 105 St,-73.899485,40.650573,683.762132831633
12:09:00,1,L29,Canarsie-Rockaway Pkwy,-73.90185,40.646654,807.5363022978518
12:01:00,2,M01,Middle Village-Metropolitan Av,-73.889601,40.711396,1712.4530863798993
12:01:00,2,M04,Fresh Pond Rd,-73.895877,40.706186,1591.8713003498374
12:01:00,2,M05,Forest Av,-73.903077,40.704423,1494.3517097284343
12:01:00,2,M06,Seneca Av,-73.90774,40.702762,1399.492072856926
12:25:00,2,M08,Myrtle-Wyckoff Avs,-73.912385,40.69943,1312.8946788223816
12:01:00,2,M09,Knickerbocker Av,-73.919711,40.698664,1413.2910696126742
12:01:00,2,M10,Central Av,-73.927397,40.697857,1528.3117463044034
12:25:00,2,M11,Myrtle Av,-73.935657,40.697207,1364.0342441651314
12:25:00,2,M12,Flushing Av,-73.941126,40.70026,1559.8008542603027
12:25:00,2,M13,Lorimer St,-73.947408,40.703869,1651.0393727788214
12:25:00,2,M14,Hewes St,-73.953431,40.70687,1746.7010717356022
12:25:00,2,M16,Marcy Av,-73.957757,40.708359,1624.0342441651312
12:25:00,2,M18,Delancey St-Essex St,-73.987437,40.718315,2057.483448466207
12:01:00,2,M19,Bowery,-73.993915,40.72028,2140.3405913233496
12:17:00,1,M20,Canal St,-73.999892,40.718092,2138.694067480896
12:17:00,1,M21,Chambers St,-74.003401,40.713243,2045.0509401164575
12:17:00,1,M22,Fulton St,-74.007582,40.710374,2139.0164106648667
12:09:00,1,M23,Broad St,-74.011056,40.706476,2203.923387409053
12:33:00,1,N02,8 Av,-74.011719,40.635064,2374.3850605679568
12:33:00,1,N03,Fort Hamilton Pkwy,-74.005351,40.631386,2507.4299754646518
12:33:00,1,N04,New Utrecht Av,-73.996353,40.624842,2624.5415240210823
12:33:00,1,N05,18 Av,-73.990414,40.620671,2720.5118014319146
12:33:00,1,N06,20 Av,-73.985026,40.61741,2807.948309368422
12:33:00,1,N07,Bay Pkwy,-73.981848,40.611815,2905.7198325472305
12:33:00,1,N08,Kings Hwy,-73.980353,40.603923,3033.2241629935993
12:33:00,1,N09,Avenue U,-73.979137,40.597473,3051.7736941610833
12:33:00,1,N10,86 St,-73.97823,40.592721,2971.254860625239
13:53:00,1,Q01,Canal St,-74.00046,40.718383,2020.2194783655386
12:01:00,1,Q03,72 St,-73.958424,40.768799,2972.808313172866
12:01:00,1,Q04,86 St,-73.951787,40.777891,3097.847748134608
12:01:00,1,Q05,96 St,-73.947152,40.784318,3190.846212036298
12:09:00,1,R01,Astoria-Ditmars Blvd,-73.912034,40.775036,3221.348012408772
12:09:00,1,R03,Astoria Blvd,-73.917843,40.770258,3125.0526657800915
12:09:00,1,R04,30 Av,-73.921479,40.766779,3018.3557259972686
12:09:00,1,R05,Broadway,-73.925508,40.76182,2922.9747736163163
12:09:00,1,R06,36 Av,-73.929575,40.756804,2810.4935483198733
12:09:00,1,R08,39 Av-Dutch Kills,-73.932755,40.752882,2692.948638140233
12:09:00,1,R09,Queensboro Plaza,-73.940202,40.750582,2530.5038620208297
12:33:00,1,R11,Lexington Av/59 St,-73.967258,40.76266,2795.9138215899266
12:33:00,1,R13,5 Av/59 St,-73.973347,40.764811,2848.6539076345143
12:01:00,1,R14,57 St-7 Av,-73.980658,40.764664,2642.850989271651
12:01:00,1,R15,49 St,-73.984139,40.759901,2591.074843062278
12:01:00,1,R16,Times Sq-42 St,-73.986754,40.754672,2459.7171780410654
12:01:00,1,R17,34 St-Herald Sq,-73.98795,40.749567,2356.737428189964
12:01:00,1,R18,28 St,-73.988691,40.745494,2360.797365357179
12:01:00,1,R19,23 St,-73.989344,40.741303,2275.746870307674
13:53:00,1,R20,14 St-Union Sq,-73.990568,40.735736,2186.613471098188
13:45:00,1,R21,8 St-NYU,-73.992629,40.730328,2297.1651489505366
13:45:00,1,R22,Prince St,-73.997702,40.724329,2408.4690209562173
13:45:00,1,R23,Canal St,-74.001775,40.719527,2317.7654159900017
13:45:00,1,R24,City Hall,-74.006978,40.713282,2174.3780789966213
13:45:00,1,R25,Cortlandt St,-74.011029,40.710668,2032.5145673368136
13:45:00,1,R26,Rector St,-74.013342,40.70722,1902.064670575961
13:45:00,1,R27,Whitehall St-South Ferry,-74.012994,40.703087,1825.9494645876766
13:21:00,1,R28,Court St,-73.991777,40.6941,1621.9807145876766
12:17:00,1,R29,Jay St-MetroTech,-73.985942,40.69218,1650.8033154386173
12:25:00,1,R30,DeKalb Av,-73.981824,40.690635,1540.356292463278
13:37:00,1,R31,Atlantic Av-Barclays Ctr,-73.97881,40.683666,1383.3033154386171
12:17:00,1,R32,Union St,-73.98311,40.677316,1511.7723769162633
12:17:00,1,R33,4 Av-9 St,-73.988302,40.670847,1617.3723769162634
12:17:00,1,R34,Prospect Av,-73.992872,40.665414,1729.9513242846845
12:17:00,1,R35,25 St,-73.998091,40.660397,1796.808578596512
12:25:00,1,R36,36 St,-74.003549,40.655144,1882.4197175550191
12:17:00,1,R39,45 St,-74.010006,40.648939,2070.0170510139615
12:17:00,1,R40,53 St,-74.014034,40.645069,2163.792413332802
12:33:00,1,R41,59 St,-74.017881,40.641362,2200.861673948655
12:17:00,1,R42,Bay Ridge Av,-74.023377,40.634967,2365.3359227348633
12:17:00,1,R43,77 St,-74.02551,40.629742,2447.944589839263
12:17:00,1,R44,86 St,-74.028398,40.622687,2632.396524920411
12:57:00,1,R45,Bay Ridge-95 St,-74.030876,40.616622,2700.978264050846
12:25:00,1,S01,Franklin Av,-73.955827,40.680596,1274.2024707837177
12:25:00,1,S03,Park Pl,-73.957624,40.674772,1179.2131090815901
12:17:00,1,S04,Botanic Garden,-73.959245,40.670343,1048.2863915243381
