start_time,ntransfers,stop_id,stop_name,stop_lon,stop_lat,duration
12:05:30,2,101,Van Cortlandt Park-242 St,-73.898583,40.889248,3076.6129249936903
12:05:30,2,103,238 St,-73.90087,40.884667,2969.862176810706
12:05:30,2,104,231 St,-73.904834,40.878856,2875.0270704277277
12:05:30,2,106,Marble Hill-225 St,-73.909831,40.874561,2781.5552039162803
12:05:30,2,107,215 St,-73.915279,40.869444,2673.430640470413
12:05:30,2,108,207 St,-73.918822,40.864621,2594.445845148776
12:05:30,2,109,Dyckman St,-73.925536,40.860531,2496.409218091284
12:05:30,2,110,191 St,-73.929412,40.855225,2406.190170472237
12:30:00,2,111,181 St,-73.933596,40.849505,2310.945581727648
12:05:30,2,112,168 St-Washington Hts,-73.940133,40.840556,2190.0952563480387
13:10:00,2,113,157 St,-73.94489,40.834041,2289.371686157397
12:05:30,2,114,145 St,-73.95036,40.826551,2405.0363334962112
12:05:30,2,115,137 St-City College,-73.953676,40.822008,2506.0791165558485
12:14:00,1,116,125 St,-73.958372,40.815581,2604.8402484742837
12:14:00,1,117,116 St-Columbia University,-73.96411,40.807722,2722.9963178384455
12:14:00,1,118,Cathedral Pkwy (110 St),-73.966847,40.803967,2670.2886144887857
12:14:00,1,119,103 St,-73.968379,40.799446,2588.35832788925
12:14:00,1,120,96 St,-73.972323,40.793919,2202.7415930065636
12:14:00,1,121,86 St,-73.976218,40.788644,2367.6131616622743
12:14:00,1,122,79 St,-73.979917,40.783934,2443.705988666494
12:14:00,1,123,72 St,-73.98197,40.778453,2392.417476263092
13:10:00,2,124,66 St-Lincoln Center,-73.982209,40.77344,2509.4160673177107
12:05:30,2,125,59 St-Columbus Circle,-73.981929,40.768247,2428.3180969820355
12:30:00,2,126,50 St,-73.983849,40.761728,2536.9455479624276
12:14:00,1,127,Times Sq-42 St,-73.987495,40.75529,2467.5353650499023
12:14:00,1,128,34 St-Penn Station,-73.991057,40.750373,2574.924875539413
12:14:00,1,129,28 St,-73.993365,40.747215,2656.687585255466
12:14:00,1,130,23 St,-73.995657,40.744081,2725.3148156666375
12:14:00,1,131,18 St,-73.997871,40.74104,2793.755328885922
12:14:00,1,132,14 St,-74.000201,40.737826,2733.928381850774
12:14:00,1,133,Christopher St-Sheridan Sq,-74.002906,40.733422,2967.0372187947846
12:14:00,1,134,Houston St,-74.005367,40.728251,3050.187494168506
12:14:00,1,135,Canal St,-74.006277,40.722854,3137.462839336159
12:30:00,1,136,Franklin St,-74.006886,40.719318,3202.2153303684427
12:14:00,1,137,Chambers St,-74.009266,40.715478,2981.57967465301
12:30:00,1,138,WTC Cortlandt,-74.012188,40.711835,3265.279719252749
12:30:00,1,139,Rector St,-74.013783,40.707513,3344.5782861317302
12:30:00,1,142,South Ferry,-74.013664,40.702068,3449.2987075255714
12:05:30,1,201,Wakefield-241 St,-73.85062,40.903125,3537.0388857902017
12:05:30,1,204,Nereid Av,-73.854376,40.898379,3308.774837451833
12:05:30,1,205,233 St,-73.857473,40.893193,3176.774837451833
12:05:30,1,206,225 St,-73.860341,40.888022,3080.774837451833
12:05:30,1,207,219 St,-73.862633,40.883895,2998.774837451833
12:05:30,1,208,Gun Hill Rd,-73.866256,40.87785,2890.274837451833
12:05:30,1,209,Burke Av,-73.867164,40.871356,2944.748674675348
12:05:30,1,210,Allerton Av,-73.867352,40.865462,2854.3233873190256
12:05:30,1,211,Pelham Pkwy,-73.867615,40.857192,2742.415341342014
12:05:30,1,212,Bronx Park East,-73.868457,40.848828,2615.2653413420144
12:05:30,1,213,E 180 St,-73.873488,40.841894,2305.190396374554
12:05:30,1,214,West Farms Sq-E Tremont Av,-73.880049,40.840295,2325.116413566081
12:05:30,1,215,174 St,-73.887734,40.837288,2202.5184385809707
12:05:30,1,216,Freeman St,-73.891865,40.829993,2081.827183375736
12:05:30,1,217,Simpson St,-73.893064,40.824073,1969.648824279422
12:05:30,1,218,Intervale Av,-73.896736,40.822181,1896.4358558082736
12:05:30,1,219,Prospect Av,-73.90177,40.819585,1815.1646894376402
12:05:30,1,220,Jackson Av,-73.907807,40.81649,1719.4893800681646
12:14:00,1,221,3 Av-149 St,-73.917757,40.816109,1579.1903963745542
12:05:30,1,222,149 St-Grand Concourse,-73.926718,40.81841,1456.44039542088
12:14:00,1,224,135 St,-73.94077,40.814229,1661.5664259488165
12:14:00,1,225,125 St,-73.945495,40.807754,1768.582686111418
12:14:00,1,226,116 St,-73.949625,40.802098,1871.0806327233279
12:14:00,1,227,Central Park North (110 St),-73.951822,40.799075,1945.8388294446393
12:14:00,1,228,Park Place,-74.008811,40.713051,3070.785830701686
12:14:00,1,229,Fulton St,-74.006571,40.709416,3185.6584820586795
12:14:00,1,230,Wall St,-74.0091,40.706821,3261.073576398302
12:14:00,1,231,Clark St,-73.993086,40.697466,3450.287175299401
12:14:00,1,232,Borough Hall,-73.989998,40.693219,3567.0207369432364
12:05:30,1,233,Hoyt St,-73.985065,40.690545,3565.4596315505187
12:14:00,0,234,Nevins St,-73.980492,40.688246,3439.3947691193275
12:14:00,0,235,Atlantic Av-Barclays Ctr,-73.977666,40.684359,3537.621258533409
12:14:00,0,236,Bergen St,-73.975098,40.680829,3645.4012883471955
12:14:00,0,237,Grand Army Plaza,-73.971046,40.675235,3748.68341862731
12:14:00,0,238,Eastern Pkwy-Brooklyn Museum,-73.964375,40.671987,3851.827358021249
12:14:00,0,239,Franklin Av-Medgar Evers College,-73.958131,40.670682,3859.0782297023234
12:14:00,0,241,President St-Medgar Evers College,-73.950683,40.667883,4047.715865491206
12:14:00,0,242,Sterling St,-73.95085,40.662742,4139.708336401541
12:14:00,0,243,Winthrop St,-73.9502,40.656652,4228.762004879802
12:14:00,0,244,Church Av,-73.949575,40.650843,4307.60038067598
13:58:00,0,245,Beverly Rd,-73.948959,40.645098,4386.829645679351
13:58:00,0,246,Newkirk Av-Little Haiti,-73.948411,40.639967,4474.018159192865
13:58:00,0,247,Flatbush Av-Brooklyn College,-73.947642,40.632836,4624.637716651823
12:14:00,0,248,Nostrand Av,-73.950466,40.669847,3977.684718042676
12:14:00,0,249,Kingston Av,-73.942161,40.669399,4065.135822143622
12:14:00,0,250,Crown Hts-Utica Av,-73.932942,40.668897,4080.6017740654584
12:14:00,0,251,Sutter Av-Rutland Rd,-73.92261,40.664717,4229.228062725252
12:14:00,0,252,Saratoga Av,-73.916327,40.661453,4333.454283804944
12:05:30,2,253,Rockaway Av,-73.908946,40.662549,4421.330890488748
12:14:00,0,254,Junius St,-73.902447,40.663515,4453.4036262606
12:14:00,0,255,Pennsylvania Av,-73.894895,40.664635,4563.087818719904
12:14:00,0,256,Van Siclen Av,-73.889395,40.665449,4643.1171229952615
12:14:00,0,257,New Lots Av,-73.884079,40.666235,4740.035769117743
12:14:00,1,301,Harlem-148 St,-73.93647,40.82388,2132.60647919917
12:14:00,1,302,145 St,-73.936245,40.820421,2016.0464574718476
12:05:30,0,401,Woodlawn,-73.878751,40.886037,122.4069712670749
12:05:30,0,402,Mosholu Pkwy,-73.884655,40.87975,0.0
12:05:30,0,405,Bedford Park Blvd-Lehman College,-73.890064,40.873412,115.38885595732069
12:14:00,0,406,Kingsbridge Rd,-73.897174,40.86776,231.76149221983457
12:14:00,0,407,Fordham Rd,-73.901034,40.862803,320.9812479690884
12:14:00,0,408,183 St,-73.903879,40.858407,405.2766926545547
12:14:00,0,409,Burnside Av,-73.907684,40.853453,504.5994000781355
12:14:00,0,410,176 St,-73.911794,40.84848,591.7927108273948
12:14:00,0,411,Mt Eden Av,-73.914685,40.844434,671.1396496029049
12:14:00,0,412,170 St,-73.917791,40.840075,751.3460337526022
12:14:00,0,413,167 St,-73.9214,40.835537,833.9040794640384
12:14:00,0,414,161 St-Yankee Stadium,-73.925831,40.827994,963.4408398917147
12:14:00,0,415,149 St-Grand Concourse,-73.927351,40.818375,1176.4403978050657
12:14:00,0,416,138 St-Grand Concourse,-73.929849,40.813224,1297.8671189127551
12:14:00,0,418,Fulton St,-74.009509,40.710368,2869.8437213635157
12:14:00,0,419,Wall St,-74.011862,40.707557,2948.503134797764
12:14:00,0,420,Bowling Green,-74.014065,40.704817,3028.088729272357
12:14:00,0,423,Borough Hall,-73.990151,40.692404,3301.9785555750864
13:42:00,0,501,Eastchester-Dyre Av,-73.830834,40.8883,3055.190396374554
12:14:00,0,502,Baychester Av,-73.838591,40.878663,2905.190396374554
12:14:00,0,503,Gun Hill Rd,-73.846384,40.869526,2755.190396374554
12:14:00,0,504,Pelham Pkwy,-73.855359,40.858985,2605.190396374554
12:14:00,0,505,Morris Park,-73.860495,40.854364,2515.190396374554
13:42:00,0,601,Pelham Bay Park,-73.828121,40.852462,3243.7438389945687
13:42:00,0,602,Buhre Av,-73.832569,40.84681,3066.4806810998316
13:42:00,0,603,Middletown Rd,-73.836322,40.843863,2996.1875776515562
13:42:00,0,604,Westchester Sq-E Tremont Av,-73.842952,40.839892,2864.0111070633207
13:42:00,0,606,Zerega Av,-73.847036,40.836488,2776.9611070633205
13:42:00,0,607,Castle Hill Av,-73.851222,40.834255,2707.7152054239764
12:30:00,0,608,Parkchester,-73.860816,40.833226,2522.3014123205285
12:30:00,0,609,St Lawrence Av,-73.867618,40.831509,2766.1617449833266
12:30:00,0,610,Morrison Av-Soundview,-73.874516,40.829521,2665.0107010028732
12:30:00,0,611,Elder Av,-73.879159,40.828584,2592.285296542882
12:30:00,0,612,Whitlock Av,-73.886283,40.826525,2479.5805346381203
12:14:00,0,613,Hunts Point Av,-73.890549,40.820948,2249.9014123205284
12:14:00,0,614,Longwood Av,-73.896435,40.816104,2368.9927077140337
12:14:00,0,615,E 149 St,-73.904098,40.812118,2266.2219256186086
12:14:00,0,616,E 143 St-St Mary's St,-73.907657,40.808719,2189.547829531437
12:14:00,0,617,Cypress Av,-73.914042,40.805368,2078.132879324583
12:14:00,0,618,Brook Av,-73.91924,40.807566,2002.5139302141154
12:14:00,0,619,3 Av-138 St,-73.926138,40.810476,1882.2560222496063
12:14:00,0,621,125 St,-73.937594,40.804138,1447.8579913305641
12:14:00,0,622,116 St,-73.941617,40.798629,1777.5915197962556
12:14:00,0,623,110 St,-73.94425,40.79502,1858.7018703377898
12:14:00,0,624,103 St,-73.947478,40.7906,1937.1207958635982
12:14:00,0,625,96 St,-73.95107,40.785672,2027.4952018378003
12:14:00,0,626,86 St,-73.955589,40.779492,1756.0853849475855
12:14:00,0,627,77 St,-73.959874,40.77362,2097.2777798743878
12:14:00,0,628,68 St-Hunter College,-73.96387,40.768141,2190.814947718316
12:14:00,0,629,59 St,-73.967967,40.762526,1973.4211024263518
12:14:00,0,630,51 St,-73.97192,40.757107,2311.053818668351
12:14:00,0,631,Grand Central-42 St,-73.976848,40.751776,2163.213943589663
12:14:00,0,632,33 St,-73.982076,40.746081,2427.8499112270715
12:14:00,0,633,28 St,-73.984264,40.74307,2497.6713749618925
12:14:00,0,634,23 St,-73.986599,40.739864,2564.9091280644398
12:14:00,0,635,14 St-Union Sq,-73.989951,40.734673,2440.621850148513
12:14:00,0,636,Astor Pl,-73.99107,40.730054,2761.7126008505547
12:14:00,0,637,Bleecker St,-73.994659,40.725915,2857.5518280935144
12:14:00,0,638,Spring St,-73.997141,40.722301,2928.0776012893907
12:14:00,0,639,Canal St,-74.000193,40.718803,3002.160562361503
12:14:00,0,640,Brooklyn Bridge-City Hall,-74.004131,40.713065,2753.5805384656533
12:05:30,2,701,Flushing-Main St,-73.83003,40.7596,3698.3586017676625
12:05:30,2,702,Mets-Willets Point,-73.845625,40.754622,3533.3359480459794
12:05:30,2,705,111 St,-73.855334,40.75173,3597.5563835084854
12:05:30,2,706,103 St-Corona Plaza,-73.8627,40.749865,3518.649013663996
12:05:30,2,707,Junction Blvd,-73.869527,40.749145,3314.474900209989
12:05:30,2,708,90 St-Elmhurst Av,-73.876613,40.748408,3397.555761691345
13:50:00,2,709,82 St-Jackson Hts,-73.883697,40.747659,3292.495018264328
12:05:30,2,710,74 St-Broadway,-73.891394,40.746848,3187.014524351476
13:26:00,2,711,69 St,-73.896403,40.746325,3096.2718529058616
12:05:30,2,712,61 St-Woodside,-73.902984,40.74563,3012.805088307992
12:38:00,1,713,52 St,-73.912549,40.744149,2852.747253550157
12:38:00,1,714,46 St-Bliss St,-73.918435,40.743132,2796.4577798659466
12:38:00,1,715,40 St-Lowery St,-73.924016,40.743781,2738.1520967430993
12:38:00,1,716,33 St-Rawson St,-73.930997,40.744587,2653.76008490878
12:38:00,1,718,Queensboro Plaza,-73.940202,40.750582,2509.478452255719
12:38:00,1,719,Court Sq,-73.945264,40.747023,2615.7159123890906
12:38:00,1,720,Hunters Point Av,-73.948916,40.742216,2568.790445598439
12:38:00,1,721,Vernon Blvd-Jackson Av,-73.953581,40.742626,2525.8129536370243
12:14:00,1,723,Grand Central-42 St,-73.976041,40.751431,2311.8792454393324
12:14:00,1,724,5 Av,-73.981963,40.753821,2382.197545849321
12:14:00,1,725,Times Sq-42 St,-73.987691,40.755477,2467.5353650499023
12:14:00,1,726,34 St-Hudson Yards,-74.00191,40.755882,2612.1375548309243
12:14:00,1,901,Grand Central-42 St,-73.979189,40.752769,2251.8792454393324
12:14:00,1,902,Times Sq-42 St,-73.986229,40.755983,2349.7099514023207
13:58:00,1,A02,Inwood-207 St,-73.919899,40.868072,2542.692675822466
13:10:00,1,A03,Dyckman St,-73.927271,40.865491,2442.953849006823
13:10:00,1,A05,190 St,-73.93418,40.859022,2312.5738380238463
13:10:00,1,A06,181 St,-73.937969,40.851695,2199.6889261295732
13:10:00,1,A07,175 St,-73.939704,40.847391,2106.903920616894
12:30:00,1,A09,168 St,-73.939561,40.840719,1964.6061251358042
12:05:30,2,A10,163 St-Amsterdam Av,-73.939892,40.836013,1877.9941848372969
12:05:30,2,A11,155 St,-73.941514,40.830518,1793.1243578997498
12:30:00,1,A12,145 St,-73.944216,40.824783,1634.8872468187299
12:30:00,1,A14,135 St,-73.947649,40.817894,1538.934865866349
12:30:00,1,A15,125 St,-73.952343,40.811109,1667.7054303153689
12:30:00,1,A16,116 St,-73.954882,40.805085,1805.643850940227
12:30:00,1,A17,Cathedral Pkwy (110 St),-73.958161,40.800603,1886.7566442786067
12:30:00,1,A18,103 St,-73.961454,40.796092,1973.185857761753
12:30:00,1,A19,96 St,-73.964696,40.791642,2060.3128299631053
12:30:00,1,A20,86 St,-73.968916,40.785868,2161.1205222707977
12:30:00,1,A21,81 St-Museum of Natural History,-73.972143,40.781433,2259.595124241988
12:30:00,1,A22,72 St,-73.97641,40.775594,2351.458003029867
12:30:00,1,A24,59 St-Columbus Circle,-73.981736,40.768296,2203.3180969820355
12:30:00,1,A25,50 St,-73.985984,40.762456,2534.497906167502
12:30:00,1,A27,42 St-Port Authority Bus Terminal,-73.989735,40.757308,2423.562975384832
12:30:00,1,A28,34 St-Penn Station,-73.993391,40.752287,2525.3592411728605
12:30:00,1,A30,23 St,-73.998041,40.745906,2671.820894519862
12:30:00,1,A31,14 St,-74.00169,40.740893,2674.1340209085433
12:30:00,1,A32,W 4 St-Wash Sq,-74.000495,40.732338,2808.8627501903115
12:30:00,1,A33,Spring St,-74.003739,40.726227,3018.745503480674
12:30:00,1,A34,Canal St,-74.005229,40.720824,2990.20428337109
12:30:00,1,A36,Chambers St,-74.008585,40.714111,3113.435404652554
12:30:00,1,A38,Fulton St,-74.007691,40.710197,3092.771353695364
12:46:00,1,A40,High St,-73.990531,40.699337,3276.592726550278
12:46:00,1,A41,Jay St-MetroTech,-73.987342,40.692338,3403.2214968519015
12:46:00,1,A42,Hoyt-Schermerhorn Sts,-73.985001,40.688484,3522.1675261502824
13:26:00,1,A43,Lafayette Av,-73.973946,40.686113,3692.823390347813
13:26:00,1,A44,Clinton-Washington Avs,-73.965838,40.683263,3776.9849781715984
13:26:00,1,A45,Franklin Av,-73.956848,40.68138,3885.958800399134
12:46:00,1,A46,Nostrand Av,-73.950426,40.680438,3832.9344290651848
13:26:00,1,A47,Kingston-Throop Avs,-73.940858,40.679921,3937.9138408298904
12:46:00,1,A48,Utica Av,-73.930729,40.679364,4008.390110883367
13:26:00,1,A49,Ralph Av,-73.920786,40.678822,4118.06518974772
12:05:30,1,A50,Rockaway Av,-73.911946,40.67834,4204.335593489829
12:46:00,1,A51,Broadway Junction,-73.905316,40.678334,4115.091416179536
13:58:00,1,A52,Liberty Av,-73.896548,40.674542,4253.107111246801
13:58:00,1,A53,Van Siclen Av,-73.890358,40.67271,4349.265556687757
13:58:00,1,A54,Shepherd Av,-73.88075,40.67413,4450.763675574138
12:46:00,1,A55,Euclid Av,-73.872106,40.675377,4432.4188708983165
12:46:00,1,A57,Grant Av,-73.86505,40.677044,4562.625552412793
12:46:00,1,A59,80 St,-73.858992,40.679371,4660.1321962190505
12:46:00,1,A60,88 St,-73.85147,40.679843,4759.32183663001
12:46:00,1,A61,Rockaway Blvd,-73.843853,40.680429,4852.745754332539
13:50:00,1,A63,104 St,-73.837683,40.681711,4943.793705509523
13:50:00,1,A64,111 St,-73.832163,40.684331,5034.929084570894
13:50:00,1,A65,Ozone Park-Lefferts Blvd,-73.825798,40.685951,5145.807544258018
13:18:00,1,B04,21 St-Queensbridge,-73.942836,40.754203,2589.702764425199
13:18:00,1,B06,Roosevelt Island,-73.95326,40.759145,2481.9429087429844
13:50:00,1,B08,Lexington Av/63 St,-73.966113,40.764629,2333.421102426352
12:38:00,1,B10,57 St,-73.97745,40.763972,2540.0990833029473
12:30:00,1,B12,9 Av,-73.994324,40.646292,4481.3467470914375
12:30:00,1,B13,Fort Hamilton Pkwy,-73.994304,40.640914,4583.161640708458
12:30:00,1,B14,50 St,-73.994791,40.63626,4663.921583890276
12:30:00,1,B15,55 St,-73.995476,40.631435,4766.95003339241
12:30:00,1,B16,62 St,-73.996895,40.626472,4831.898415518758
12:30:00,1,B17,71 St,-73.998864,40.619589,4934.795705105063
12:30:00,1,B18,79 St,-74.00061,40.613501,5039.246489698501
12:30:00,1,B19,18 Av,-74.001736,40.607954,5123.730061127073
12:30:00,1,B20,20 Av,-73.998168,40.604556,5208.941640826858
12:30:00,1,B21,Bay Pkwy,-73.993728,40.601875,5290.0995733466
13:10:00,1,B22,25 Av,-73.986829,40.597704,5416.905724991807
13:10:00,1,B23,Bay 50 St,-73.983765,40.588841,5657.689308376385
12:46:00,1,D01,Norwood-205 St,-73.878855,40.874811,2174.1121440258707
12:46:00,1,D03,Bedford Park Blvd,-73.887138,40.873244,2014.5145865007275
12:46:00,1,D04,Kingsbridge Rd,-73.893509,40.866978,1895.974201885343
12:46:00,1,D05,Fordham Rd,-73.897749,40.861296,1795.8413159793026
12:46:00,1,D06,182-183 Sts,-73.900741,40.856093,1710.6685286990864
12:46:00,1,D07,Tremont Av,-73.905227,40.85041,1627.06815521636
12:46:00,1,D08,174-175 Sts,-73.910136,40.8459,1533.8577286760756
12:46:00,1,D09,170 St,-73.9134,40.839306,1428.313919152266
12:46:00,1,D10,167 St,-73.91844,40.833771,1322.1710620094088
13:50:00,1,D11,161 St-Yankee Stadium,-73.925651,40.827905,1188.4408398917146
12:30:00,1,D12,155 St,-73.938209,40.830135,1321.9162160887051
12:30:00,1,D13,145 St,-73.944216,40.824783,1439.5559973600655
12:30:00,1,D14,7 Av,-73.981637,40.762862,2329.4527506372456
12:30:00,1,D15,47-50 Sts-Rockefeller Ctr,-73.981329,40.758663,2435.5410463251305
12:30:00,1,D16,42 St-Bryant Pk,-73.984569,40.754222,2536.0499871779507
12:30:00,1,D17,34 St-Herald Sq,-73.987823,40.749719,2624.770595753331
13:10:00,1,D18,23 St,-73.992821,40.742878,2804.4295977277548
13:10:00,1,D19,14 St,-73.996209,40.738228,2884.624052061001
12:30:00,1,D20,W 4 St-Wash Sq,-74.000495,40.732338,2819.130762304337
12:30:00,1,D21,Broadway-Lafayette St,-73.996204,40.725297,2973.023570049842
12:30:00,1,D22,Grand St,-73.993753,40.718267,3121.578431160953
12:22:00,1,D24,Atlantic Av-Barclays Ctr,-73.97689,40.68446,3723.6381175195224
12:22:00,1,D25,7 Av,-73.972367,40.67705,3867.4095460909507
12:22:00,1,D26,Prospect Park,-73.962246,40.661614,4089.2959509247876
12:22:00,1,D27,Parkside Av,-73.961495,40.655292,4185.8595540897295
12:22:00,1,D28,Church Av,-73.962982,40.650527,4294.040785761284
12:22:00,1,D29,Beverley Rd,-73.964492,40.644031,4377.294113107461
12:22:00,1,D30,Cortelyou Rd,-73.963891,40.640927,4455.431143062848
12:14:00,1,D31,Newkirk Plaza,-73.962793,40.635082,4484.823874357453
12:14:00,1,D32,Avenue H,-73.961639,40.62927,4598.148653401366
12:14:00,1,D33,Avenue J,-73.960803,40.625039,4695.0331947740415
12:14:00,1,D34,Avenue M,-73.959399,40.617618,4805.83954398039
12:14:00,1,D35,Kings Hwy,-73.957734,40.60867,4750.219246590853
12:14:00,1,D37,Avenue U,-73.955929,40.5993,4969.567489705719
12:14:00,1,D38,Neck Rd,-73.955161,40.595246,5073.665247037518
12:14:00,1,D39,Sheepshead Bay,-73.954155,40.586896,5019.379652682223
12:14:00,1,D40,Brighton Beach,-73.961376,40.577621,5180.68655278521
12:14:00,1,D41,Ocean Pkwy,-73.968501,40.576312,5336.092821191906
12:14:00,1,D42,W 8 St-NY Aquarium,-73.975939,40.576127,5410.680300828218
12:14:00,1,D43,Coney Island-Stillwell Av,-73.981233,40.577422,5526.555300828218
13:10:00,1,E01,World Trade Center,-74.009781,40.712582,3173.9805215251363
12:14:00,1,F01,Jamaica-179 St,-73.783817,40.712646,4220.099083302947
13:02:00,1,F02,169 St,-73.793604,40.71047,4130.099083302947
13:18:00,1,F03,Parsons Blvd,-73.803326,40.707564,4010.0990833029473
13:18:00,1,F04,Sutphin Blvd,-73.810708,40.70546,3920.0990833029473
13:18:00,1,F05,Briarwood,-73.820574,40.709179,3800.0990833029473
12:05:30,1,F06,Kew Gardens-Union Tpke,-73.831008,40.714441,3680.0990833029473
13:18:00,1,F07,75 Av,-73.837324,40.718331,3590.0990833029473
12:38:00,1,F09,Court Sq-23 St,-73.946,40.747846,2735.7159123890906
13:10:00,1,F11,Lexington Av/53 St,-73.969055,40.757552,2546.530008520112
13:10:00,1,F12,5 Av/53 St,-73.975224,40.760167,2620.8050085201116
13:50:00,1,F14,2 Av,-73.989938,40.723402,3175.1975433192792
13:50:00,1,F15,Delancey St-Essex St,-73.988114,40.718611,3287.1311532777854
13:50:00,1,F16,East Broadway,-73.990173,40.713715,3378.0287218240865
13:50:00,1,F18,York St,-73.986751,40.701397,3532.5477939890347
12:46:00,1,F20,Bergen St,-73.990862,40.686145,3681.72708171701
12:46:00,1,F21,Carroll St,-73.995048,40.680303,3804.3255273196155
12:46:00,1,F22,Smith-9 Sts,-73.995959,40.67358,3955.084918665312
12:46:00,1,F23,4 Av-9 St,-73.989779,40.670272,4038.4515853319795
12:46:00,1,F24,7 Av,-73.980305,40.666271,3958.2214968519015
12:46:00,1,F25,15 St-Prospect Park,-73.979493,40.660365,4120.591006750948
12:46:00,1,F26,Fort Hamilton Pkwy,-73.975776,40.650782,4293.363518599289
12:46:00,1,F27,Church Av,-73.979678,40.644041,4198.221496851902
12:46:00,1,F29,Ditmas Av,-73.978172,40.636119,4318.221496851902
12:46:00,1,F30,18 Av,-73.976971,40.629755,4438.221496851902
12:46:00,1,F31,Avenue I,-73.976127,40.625322,4498.221496851902
12:46:00,1,F32,Bay Pkwy,-73.975264,40.620769,4558.221496851902
12:46:00,1,F33,Avenue N,-73.974197,40.61514,4678.221496851902
12:46:00,1,F34,Avenue P,-73.973022,40.608944,4768.221496851902
12:46:00,1,F35,Kings Hwy,-73.972361,40.603217,4971.992147518114
12:46:00,1,F36,Avenue U,-73.973357,40.596063,5079.968337994304
12:46:00,1,F38,Avenue X,-73.97425,40.58962,5181.944528470494
12:54:00,1,F39,Neptune Av,-73.974574,40.581011,5302.777861803827
13:50:00,1,G05,Jamaica Center-Parsons/Archer,-73.801109,40.702147,4234.46435461621
12:05:30,1,G06,Sutphin Blvd-Archer Av-JFK Airport,-73.807969,40.700486,4123.758840119336
12:05:30,1,G07,Jamaica-Van Wyck,-73.816859,40.702566,3988.3101452498495
12:05:30,1,G08,Forest Hills-71 Av,-73.844521,40.721691,3470.0990833029473
12:05:30,1,G09,67 Av,-73.852719,40.726523,3605.64971091801
13:26:00,1,G10,63 Dr-Rego Park,-73.861604,40.729846,3710.0990833029473
13:26:00,1,G11,Woodhaven Blvd,-73.869229,40.733106,3609.027484101232
13:26:00,1,G12,Grand Av-Newtown,-73.877223,40.737015,3496.0689138331572
13:26:00,1,G13,Elmhurst Av,-73.882017,40.742454,3395.8515225288097
12:05:30,1,G14,Jackson Hts-Roosevelt Av,-73.891338,40.746644,3050.0990833029473
13:18:00,1,G15,65 St,-73.898453,40.749669,3183.4951249578494
13:18:00,1,G16,Northern Blvd,-73.906006,40.752885,3086.2282980347723
13:18:00,1,G18,46 St,-73.913333,40.756312,2989.854391909076
13:18:00,1,G19,Steinway St,-73.92074,40.756879,2884.9095534535995
13:18:00,1,G20,36 St,-73.928781,40.752039,2764.1575849496626
12:38:00,1,G21,Queens Plaza,-73.937243,40.748973,2646.368896811406
12:22:00,2,G22,Court Sq,-73.943832,40.746554,2675.7159123890906
12:22:00,2,G24,21 St,-73.949724,40.744065,2770.4506949977863
12:22:00,2,G26,Greenpoint Av,-73.954449,40.731352,2911.045474363852
12:22:00,2,G28,Nassau Av,-73.951277,40.724635,3021.9952292658127
12:22:00,2,G29,Metropolitan Av,-73.951418,40.712792,3174.112840103251
12:22:00,2,G30,Broadway,-73.950308,40.706092,3263.0697631801745
12:22:00,2,G31,Flushing Av,-73.950234,40.700377,3354.4701321838643
12:22:00,2,G32,Myrtle-Willoughby Avs,-73.949046,40.694568,3440.547385402748
13:26:00,1,G33,Bedford-Nostrand Avs,-73.953522,40.689627,3545.8353110993426
13:26:00,1,G34,Classon Av,-73.96007,40.688873,3629.4458880224197
13:26:00,1,G35,Clinton-Washington Avs,-73.966839,40.688089,3710.9582514496765
13:26:00,1,G36,Fulton St,-73.975375,40.687119,3801.764093374075
12:05:30,1,H01,Aqueduct Racetrack,-73.834058,40.668234,5063.624259005436
12:46:00,1,H02,Aqueduct-N Conduit Av,-73.834058,40.668234,5124.763795375736
12:46:00,1,H03,Howard Beach-JFK Airport,-73.830301,40.660476,5241.370770064079
12:46:00,1,H04,Broad Channel,-73.815925,40.608382,5706.752326747666
12:46:00,1,H06,Beach 67 St,-73.796924,40.590927,6035.718838375573
12:46:00,1,H07,Beach 60 St,-73.788522,40.592374,6161.575585140823
12:46:00,1,H08,Beach 44 St,-73.776013,40.592943,6271.251810857752
12:46:00,1,H09,Beach 36 St,-73.768175,40.595398,6372.524033079974
12:46:00,1,H10,Beach 25 St,-73.761353,40.600066,6472.9645535260715
12:46:00,1,H11,Far Rockaway-Mott Av,-73.755405,40.603995,6563.264140302931
12:05:30,1,H12,Beach 90 St,-73.813641,40.588034,5976.809469604809
12:05:30,1,H13,Beach 98 St,-73.820558,40.585307,6076.913243189715
12:05:30,1,H14,Beach 105 St,-73.827559,40.583209,6166.589433665906
12:05:30,1,H15,Rockaway Park-Beach 116 St,-73.835592,40.580903,6270.138884215356
13:50:00,1,J12,121 St,-73.828294,40.700492,4525.996545037368
13:50:00,1,J13,111 St,-73.836345,40.697418,4549.411747499289
13:50:00,1,J14,104 St,-73.84433,40.695178,4716.716545037369
13:50:00,1,J15,Woodhaven Blvd,-73.851576,40.693879,4835.091416179536
13:50:00,1,J16,85 St-Forest Pkwy,-73.86001,40.692435,4847.475623491017
13:50:00,1,J17,75 St-Elderts Ln,-73.867139,40.691324,4655.091416179536
13:50:00,1,J19,Cypress Hills,-73.87255,40.689941,4679.854264267717
13:50:00,1,J20,Crescent St,-73.873785,40.683194,4505.091416179536
12:38:00,1,J21,Norwood Av,-73.880039,40.68141,4415.091416179536
12:38:00,1,J22,Cleveland St,-73.884639,40.679947,4424.945109929224
12:38:00,1,J23,Van Siclen Av,-73.891688,40.678024,4265.091416179536
12:22:00,2,J24,Alabama Av,-73.898654,40.676992,4205.091416179536
12:38:00,1,J27,Broadway Junction,-73.904512,40.679498,4101.7730289095625
12:38:00,1,J28,Chauncey St,-73.910456,40.682893,4175.091416179536
12:38:00,1,J29,Halsey St,-73.916559,40.68637,4259.866273469154
12:38:00,1,J30,Gates Av,-73.92227,40.68963,4098.8700602270455
12:38:00,1,J31,Kosciuszko St,-73.928814,40.693342,4085.2417523963577
12:30:00,1,L01,8 Av,-74.002578,40.739777,2734.1340209085433
12:30:00,1,L02,6 Av,-73.996786,40.737335,2760.468419228626
12:30:00,1,L03,14 St-Union Sq,-73.99073,40.734789,2670.464691678643
12:38:00,1,L05,3 Av,-73.986122,40.732849,2744.624519607167
12:38:00,1,L06,1 Av,-73.981628,40.730953,2782.459193782549
12:38:00,1,L08,Bedford Av,-73.956872,40.717304,2986.53578952723
12:38:00,1,L10,Lorimer St,-73.950275,40.714063,3085.811832905475
12:38:00,1,L11,Graham Av,-73.944053,40.714565,3127.91734053653
12:38:00,1,L12,Grand St,-73.94067,40.711926,3213.0150922471853
12:38:00,1,L13,Montrose Av,-73.93985,40.707739,3259.4932893889954
12:38:00,1,L14,Morgan Av,-73.933147,40.706152,3323.2999084675157
12:38:00,1,L15,Jefferson St,-73.922913,40.706607,3408.7281574194667
12:38:00,1,L16,DeKalb Av,-73.918425,40.703811,3476.4648087048986
12:38:00,1,L17,Myrtle-Wyckoff Avs,-73.911586,40.699814,3555.2224441728786
12:38:00,1,L19,Halsey St,-73.904084,40.695602,3603.5060805365147
12:38:00,1,L20,Wilson Av,-73.904046,40.688764,3723.8562350164325
12:38:00,1,L21,Bushwick Av-Aberdeen St,-73.905249,40.682829,3816.5301717667053
12:38:00,1,L22,Broadway Junction,-73.90324,40.678856,3876.7730289095625
12:38:00,1,L24,Atlantic Av,-73.903097,40.675345,3981.175359272825
12:38:00,1,L25,Sutter Av,-73.901975,40.669367,4057.675025717121
12:38:00,1,L26,Livonia Av,-73.900571,40.664038,4123.4036262606
12:38:00,1,L27,New Lots Av,-73.899232,40.658733,4177.225840720956
12:38:00,1,L28,East 105 St,-73.899485,40.650573,4287.452262357571
13:58:00,1,L29,Canarsie-Rockaway Pkwy,-73.90185,40.646654,4411.22643182379
12:05:30,2,M01,Middle Village-Metropolitan Av,-73.889601,40.711396,4179.7808517303965
12:05:30,2,M04,Fresh Pond Rd,-73.895877,40.706186,4059.1990657003344
12:05:30,2,M05,Forest Av,-73.903077,40.704423,3961.679475078932
12:38:00,2,M06,Seneca Av,-73.90774,40.702762,3866.8198382074233
13:02:00,1,M08,Myrtle-Wyckoff Avs,-73.912385,40.69943,3780.2224441728786
13:18:00,2,M09,Knickerbocker Av,-73.919711,40.698664,3880.618834963171
13:02:00,1,M10,Central Av,-73.927397,40.697857,3995.6395116549006
12:38:00,1,M11,Myrtle Av,-73.935657,40.697207,3913.358060227046
13:02:00,1,M12,Flushing Av,-73.941126,40.70026,3903.5096148784346
13:02:00,1,M13,Lorimer St,-73.947408,40.703869,3802.135694325758
13:02:00,1,M14,Hewes St,-73.953431,40.70687,3709.076972391388
13:02:00,1,M16,Marcy Av,-73.957757,40.708359,3631.3436969787035
13:02:00,1,M18,Delancey St-Essex St,-73.987437,40.718315,3257.1380895020684
12:38:00,1,M19,Bowery,-73.993915,40.72028,3184.6837130688277
12:38:00,1,M20,Canal St,-73.999892,40.718092,3085.8345067196215
12:54:00,1,M21,Chambers St,-74.003401,40.713243,2978.5805384656533
12:38:00,1,M22,Fulton St,-74.007582,40.710374,3080.6837130688277
12:38:00,1,M23,Broad St,-74.011056,40.706476,3144.867386538215
12:30:00,1,N02,8 Av,-74.011719,40.635064,4581.7205368285795
12:30:00,1,N03,Fort Hamilton Pkwy,-74.005351,40.631386,4717.137671009533
12:30:00,1,N04,New Utrecht Av,-73.996353,40.624842,4834.249219565963
12:30:00,1,N05,18 Av,-73.990414,40.620671,4930.219496976795
12:30:00,1,N06,20 Av,-73.985026,40.61741,5017.656004913303
12:30:00,1,N07,Bay Pkwy,-73.981848,40.611815,5115.427528092111
12:30:00,1,N08,Kings Hwy,-73.980353,40.603923,5242.93185853848
12:30:00,1,N09,Avenue U,-73.979137,40.597473,5357.436939249909
12:30:00,1,N10,86 St,-73.97823,40.592721,5437.955772785754
12:22:00,1,Q01,Canal St,-74.00046,40.718383,3000.1687333460604
12:14:00,1,Q03,72 St,-73.958424,40.768799,2463.8589687803965
12:14:00,1,Q04,86 St,-73.951787,40.777891,2588.8984037421387
12:14:00,1,Q05,96 St,-73.947152,40.784318,2681.896867643828
12:30:00,1,R01,Astoria-Ditmars Blvd,-73.912034,40.775036,3236.8127254094416
12:30:00,1,R03,Astoria Blvd,-73.917843,40.770258,3151.0272576839106
12:30:00,1,R04,30 Av,-73.921479,40.766779,3018.8826647499936
12:30:00,1,R05,Broadway,-73.925508,40.76182,2899.999564368799
12:30:00,1,R06,36 Av,-73.929575,40.756804,2759.9261588332993
12:30:00,1,R08,39 Av-Dutch Kills,-73.932755,40.752882,2672.811384718525
12:30:00,1,R09,Queensboro Plaza,-73.940202,40.750582,2462.4784505867888
12:38:00,1,R11,Lexington Av/59 St,-73.967258,40.76266,2203.3301922300475
12:30:00,1,R13,5 Av/59 St,-73.973347,40.764811,2301.1041296878407
12:30:00,1,R14,57 St-7 Av,-73.980658,40.764664,2441.264356960568
12:30:00,1,R15,49 St,-73.984139,40.759901,2561.540252635435
12:30:00,1,R16,Times Sq-42 St,-73.986754,40.754672,2467.5353650499023
12:30:00,1,R17,34 St-Herald Sq,-73.98795,40.749567,2570.5151149010044
12:22:00,1,R18,28 St,-73.988691,40.745494,2656.8926240412966
12:22:00,1,R19,23 St,-73.989344,40.741303,2739.7867651864362
12:14:00,1,R20,14 St-Union Sq,-73.990568,40.735736,2681.5036518970724
12:14:00,1,R21,8 St-NYU,-73.992629,40.730328,2805.975154487746
12:14:00,1,R22,Prince St,-73.997702,40.724329,2898.1246102540686
12:14:00,1,R23,Canal St,-74.001775,40.719527,3006.0394386166863
12:14:00,1,R24,City Hall,-74.006978,40.713282,3153.953955934299
12:14:00,1,R25,Cortlandt St,-74.011029,40.710668,3275.30705914067
12:14:00,1,R26,Rector St,-74.013342,40.70722,3384.3517624288793
12:14:00,1,R27,Whitehall St-South Ferry,-74.012994,40.703087,3479.9663609690256
12:14:00,1,R28,Court St,-73.991777,40.6941,3541.4818676859873
12:14:00,1,R29,Jay St-MetroTech,-73.985942,40.69218,3538.2214968519015
12:14:00,1,R30,DeKalb Av,-73.981824,40.690635,3547.4799925195225
12:14:00,1,R31,Atlantic Av-Barclays Ctr,-73.97881,40.683666,3647.2739883787362
12:14:00,1,R32,Union St,-73.98311,40.677316,3809.989548564894
12:14:00,1,R33,4 Av-9 St,-73.988302,40.670847,3922.0448249468036
12:14:00,1,R34,Prospect Av,-73.992872,40.665414,4031.7282420322313
12:14:00,1,R35,25 St,-73.998091,40.660397,4148.954130357104
12:30:00,1,R36,36 St,-74.003549,40.655144,4089.755193815643
12:14:00,1,R39,45 St,-74.010006,40.648939,4279.7247465588425
12:14:00,1,R40,53 St,-74.014034,40.645069,4373.500108877683
12:30:00,1,R41,59 St,-74.017881,40.641362,4408.197150209278
12:14:00,1,R42,Bay Ridge Av,-74.023377,40.634967,4572.671398995487
12:14:00,1,R43,77 St,-74.02551,40.629742,4655.2800660998855
12:14:00,1,R44,86 St,-74.028398,40.622687,4839.732001181034
12:14:00,1,R45,Bay Ridge-95 St,-74.030876,40.616622,4908.313740311469
12:30:00,1,S01,Franklin Av,-73.955827,40.680596,3945.958800399134
12:30:00,1,S03,Park Pl,-73.957624,40.674772,4062.2990781769117
12:14:00,1,S04,Botanic Garden,-73.959245,40.670343,4086.1695665275242
