start_time,ntransfers,stop_id,stop_name,stop_lon,stop_lat,duration
12:04:30,0,101,Van Cortlandt Park-242 St,-73.898583,40.889248,4198.6229491018685
12:04:30,0,103,238 St,-73.90087,40.884667,4091.872200918885
12:04:30,0,104,231 St,-73.904834,40.878856,3997.037094535906
12:04:30,0,106,Marble Hill-225 St,-73.909831,40.874561,3903.565228024458
12:04:30,0,107,215 St,-73.915279,40.869444,3795.4406645785907
12:04:30,0,108,207 St,-73.918822,40.864621,3716.4558692569535
12:04:30,0,109,Dyckman St,-73.925536,40.860531,3618.419242199462
12:04:30,0,110,191 St,-73.929412,40.855225,3528.2001945804145
12:04:30,0,111,181 St,-73.933596,40.849505,3432.955605835826
12:04:30,0,112,168 St-Washington Hts,-73.940133,40.840556,3312.1052804562164
12:04:30,0,113,157 St,-73.94489,40.834041,3411.3817102655753
12:04:30,0,114,145 St,-73.95036,40.826551,3447.454130842758
12:04:30,0,115,137 St-City College,-73.953676,40.822008,3366.9599989123653
12:04:30,0,116,125 St,-73.958372,40.815581,3254.9702150223848
12:04:30,0,117,116 St-Columbia University,-73.96411,40.807722,3132.8162510239167
12:04:30,0,118,Cathedral Pkwy (110 St),-73.966847,40.803967,3065.331378725292
12:04:30,0,119,103 St,-73.968379,40.799446,2983.4010921257563
12:04:30,0,120,96 St,-73.972323,40.793919,2597.78435724307
12:04:30,0,121,86 St,-73.976218,40.788644,2764.354385966704
12:04:30,0,122,79 St,-73.979917,40.783934,2840.4472129709234
12:04:30,0,123,72 St,-73.98197,40.778453,2787.4602404995985
12:12:30,0,124,66 St-Lincoln Center,-73.982209,40.77344,2920.3537607615344
12:12:30,0,125,59 St-Columbus Circle,-73.981929,40.768247,3018.3272841831226
12:12:30,0,126,50 St,-73.983849,40.761728,3092.8235096270996
12:04:30,0,127,Times Sq-42 St,-73.987495,40.75529,2980.6264150059765
12:04:30,0,128,34 St-Penn Station,-73.991057,40.750373,3088.015925495487
12:04:30,0,129,28 St,-73.993365,40.747215,3169.77863521154
12:04:30,0,130,23 St,-73.995657,40.744081,3238.4058656227116
12:04:30,0,131,18 St,-73.997871,40.74104,3306.8463788419963
12:04:30,0,132,14 St,-74.000201,40.737826,3247.019431806848
12:04:30,0,133,Christopher St-Sheridan Sq,-74.002906,40.733422,3480.1282687508588
12:04:30,0,134,Houston St,-74.005367,40.728251,3563.27854412458
12:04:30,0,135,Canal St,-74.006277,40.722854,3650.553889292233
12:20:30,0,136,Franklin St,-74.006886,40.719318,3715.306380324517
12:04:30,0,137,Chambers St,-74.009266,40.715478,3494.670724609084
12:20:30,0,138,WTC Cortlandt,-74.012188,40.711835,3778.3707692088233
12:20:30,0,139,Rector St,-74.013783,40.707513,3857.669336087804
12:20:30,0,142,South Ferry,-74.013664,40.702068,3962.3897574816447
12:36:30,0,201,Wakefield-241 St,-73.85062,40.903125,1786.2582409527647
12:36:30,0,204,Nereid Av,-73.854376,40.898379,1557.994192614396
12:36:30,0,205,233 St,-73.857473,40.893193,1425.994192614396
12:36:30,0,206,225 St,-73.860341,40.888022,1329.994192614396
12:36:30,0,207,219 St,-73.862633,40.883895,1247.994192614396
12:36:30,0,208,Gun Hill Rd,-73.866256,40.87785,1139.4941926143958
12:36:30,0,209,Burke Av,-73.867164,40.871356,1216.994192614396
12:36:30,0,210,Allerton Av,-73.867352,40.865462,1151.2466182849457
12:36:30,0,211,Pelham Pkwy,-73.867615,40.857192,1039.338572307934
12:36:30,0,212,Bronx Park East,-73.868457,40.848828,912.1885723079342
12:04:30,0,213,E 180 St,-73.873488,40.841894,715.9231876925495
12:04:30,0,214,West Farms Sq-E Tremont Av,-73.880049,40.840295,858.1443498781523
12:04:30,0,215,174 St,-73.887734,40.837288,975.3627505660284
12:04:30,0,216,Freeman St,-73.891865,40.829993,1091.054453622797
12:04:30,0,217,Simpson St,-73.893064,40.824073,1217.1534810321693
12:04:30,0,218,Intervale Av,-73.896736,40.822181,1300.7436155613173
12:04:30,0,219,Prospect Av,-73.90177,40.819585,1388.507366688459
12:04:30,0,220,Jackson Av,-73.907807,40.81649,1499.4737303248228
12:04:30,0,221,3 Av-149 St,-73.917757,40.816109,1476.0
12:04:30,0,222,149 St-Grand Concourse,-73.926718,40.81841,1596.0
12:04:30,0,224,135 St,-73.94077,40.814229,2056.609190185323
12:04:30,0,225,125 St,-73.945495,40.807754,2163.6254503479245
12:04:30,0,226,116 St,-73.949625,40.802098,2266.1233969598343
12:04:30,0,227,Central Park North (110 St),-73.951822,40.799075,2340.881593681146
12:04:30,0,228,Park Place,-74.008811,40.713051,3583.87688065776
12:04:30,0,229,Fulton St,-74.006571,40.709416,3698.7495320147536
12:04:30,1,230,Wall St,-74.0091,40.706821,3774.164626354376
12:04:30,1,231,Clark St,-73.993086,40.697466,3963.3782252554756
12:04:30,1,232,Borough Hall,-73.989998,40.693219,4080.1117868993115
12:04:30,0,233,Hoyt St,-73.985065,40.690545,4134.99620755594
12:04:30,0,234,Nevins St,-73.980492,40.688246,3994.030132670906
12:04:30,0,235,Atlantic Av-Barclays Ctr,-73.977666,40.684359,4094.244888929141
12:04:30,0,236,Bergen St,-73.975098,40.680829,4200.036651898774
12:04:30,0,237,Grand Army Plaza,-73.971046,40.675235,4314.103453518207
12:04:30,0,238,Eastern Pkwy-Brooklyn Museum,-73.964375,40.671987,4417.557387613701
12:04:30,0,239,Franklin Av-Medgar Evers College,-73.958131,40.670682,4369.276305631523
12:04:30,0,241,President St-Medgar Evers College,-73.950683,40.667883,4556.76299199559
12:04:30,0,242,Sterling St,-73.95085,40.662742,4648.755462905924
12:04:30,0,243,Winthrop St,-73.9502,40.656652,4737.809131384185
12:04:30,0,244,Church Av,-73.949575,40.650843,4816.647507180363
13:48:30,0,245,Beverly Rd,-73.948959,40.645098,4895.876772183735
13:48:30,0,246,Newkirk Av-Little Haiti,-73.948411,40.639967,4983.065285697248
13:48:30,0,247,Flatbush Av-Brooklyn College,-73.947642,40.632836,5133.684843156207
12:04:30,0,248,Nostrand Av,-73.950466,40.669847,4502.7912873717105
12:04:30,0,249,Kingston Av,-73.942161,40.669399,4591.3130265021455
12:04:30,0,250,Crown Hts-Utica Av,-73.932942,40.668897,4618.0482043677575
12:04:30,0,251,Sutter Av-Rutland Rd,-73.92261,40.664717,4761.173204367758
12:04:30,0,252,Saratoga Av,-73.916327,40.661453,4876.0273710344245
12:04:30,0,253,Rockaway Av,-73.908946,40.662549,4964.631537701091
12:04:30,0,254,Junius St,-73.902447,40.663515,4974.655342710675
12:04:30,0,255,Pennsylvania Av,-73.894895,40.664635,5084.339535169979
12:04:30,0,256,Van Siclen Av,-73.889395,40.665449,5164.368839445337
12:04:30,0,257,New Lots Av,-73.884079,40.666235,5261.287485567818
12:04:30,0,301,Harlem-148 St,-73.93647,40.82388,2529.347703503599
12:04:30,0,302,145 St,-73.936245,40.820421,2412.7876817762767
12:04:30,1,401,Woodlawn,-73.878751,40.886037,3177.5973676416297
12:04:30,1,402,Mosholu Pkwy,-73.884655,40.87975,3055.1903963745544
12:04:30,1,405,Bedford Park Blvd-Lehman College,-73.890064,40.873412,2932.132063041221
12:04:30,1,406,Kingsbridge Rd,-73.897174,40.86776,2822.331970705118
12:04:30,1,407,Fordham Rd,-73.901034,40.862803,2734.2091484054663
12:04:30,1,408,183 St,-73.903879,40.858407,2649.91370372
12:04:30,1,409,Burnside Av,-73.907684,40.853453,2550.590996296419
12:04:30,1,410,176 St,-73.911794,40.84848,2459.522287324865
12:04:30,1,411,Mt Eden Av,-73.914685,40.844434,2379.168129823765
12:04:30,1,412,170 St,-73.917791,40.840075,2297.1645962548605
12:04:30,1,413,167 St,-73.9214,40.835537,2205.324401478411
12:04:30,1,414,161 St-Yankee Stadium,-73.925831,40.827994,2056.6641815088515
12:04:30,0,415,149 St-Grand Concourse,-73.927351,40.818375,1878.7499985694885
12:04:30,0,416,138 St-Grand Concourse,-73.929849,40.813224,1801.5000000000002
12:04:30,0,418,Fulton St,-74.009509,40.710368,3409.59942124476
12:04:30,0,419,Wall St,-74.011862,40.707557,3502.088489138891
12:04:30,0,420,Bowling Green,-74.014065,40.704817,3590.3348421924325
12:04:30,0,423,Borough Hall,-73.990151,40.692404,3850.6540867378767
12:12:30,0,501,Eastchester-Dyre Av,-73.830834,40.8883,0.0
12:04:30,0,502,Baychester Av,-73.838591,40.878663,130.67392518146286
12:04:30,0,503,Gun Hill Rd,-73.846384,40.869526,259.68596677971135
12:04:30,0,504,Pelham Pkwy,-73.855359,40.858985,396.67936248692104
12:04:30,0,505,Morris Park,-73.860495,40.854364,484.16173517858306
13:32:30,0,601,Pelham Bay Park,-73.828121,40.852462,3790.885847664005
13:32:30,0,602,Buhre Av,-73.832569,40.84681,3613.6226897692677
13:32:30,0,603,Middletown Rd,-73.836322,40.843863,3543.3295863209914
13:32:30,0,604,Westchester Sq-E Tremont Av,-73.842952,40.839892,3411.1531157327563
13:32:30,0,606,Zerega Av,-73.847036,40.836488,3324.103115732756
13:32:30,0,607,Castle Hill Av,-73.851222,40.834255,3254.857214093412
12:20:30,0,608,Parkchester,-73.860816,40.833226,3069.4434209899637
12:20:30,0,609,St Lawrence Av,-73.867618,40.831509,3313.303753652762
12:20:30,0,610,Morrison Av-Soundview,-73.874516,40.829521,3212.152709672309
12:20:30,0,611,Elder Av,-73.879159,40.828584,3139.427305212317
12:20:30,0,612,Whitlock Av,-73.886283,40.826525,3026.7225433075555
12:20:30,0,613,Hunts Point Av,-73.890549,40.820948,2797.043420989964
12:04:30,0,614,Longwood Av,-73.896435,40.816104,2927.87094271507
12:04:30,0,615,E 149 St,-73.904098,40.812118,2825.1001606196446
12:04:30,0,616,E 143 St-St Mary's St,-73.907657,40.808719,2748.426064532473
12:04:30,0,617,Cypress Av,-73.914042,40.805368,2645.3824137388224
12:04:30,0,618,Brook Av,-73.91924,40.807566,2573.6836065817647
12:04:30,0,619,3 Av-138 St,-73.926138,40.810476,2429.398030919042
12:04:30,0,621,125 St,-73.937594,40.804138,1995.0
12:04:30,0,622,116 St,-73.941617,40.798629,2325.293543436756
12:04:30,0,623,110 St,-73.94425,40.79502,2405.8438790072255
12:04:30,0,624,103 St,-73.947478,40.7906,2484.8836141065635
12:04:30,0,625,96 St,-73.95107,40.785672,2574.6533509486685
12:04:30,0,626,86 St,-73.955589,40.779492,2299.598000638545
12:04:30,0,627,77 St,-73.959874,40.77362,2696.192394926802
12:04:30,0,628,68 St-Hunter College,-73.96387,40.768141,2789.729562770731
12:04:30,0,629,59 St,-73.967967,40.762526,2516.8683916999976
12:04:30,0,630,51 St,-73.97192,40.757107,2854.501107941997
12:04:30,0,631,Grand Central-42 St,-73.976848,40.751776,2704.9702953954065
12:04:30,0,632,33 St,-73.982076,40.746081,2940.9409611831456
12:04:30,0,633,28 St,-73.984264,40.74307,3010.7624249179667
12:04:30,0,634,23 St,-73.986599,40.739864,3078.000178020514
12:04:30,0,635,14 St-Union Sq,-73.989951,40.734673,2977.755368347146
12:04:30,0,636,Astor Pl,-73.99107,40.730054,3281.718331310109
12:04:30,0,637,Bleecker St,-73.994659,40.725915,3375.176226046951
12:04:30,0,638,Spring St,-73.997141,40.722301,3446.432770549569
12:04:30,0,639,Canal St,-74.000193,40.718803,3443.0308890815645
12:04:30,0,640,Brooklyn Bridge-City Hall,-74.004131,40.713065,3290.3164132080205
12:04:30,2,701,Flushing-Main St,-73.83003,40.7596,4312.437499341311
12:04:30,2,702,Mets-Willets Point,-73.845625,40.754622,4147.414845619628
12:04:30,2,705,111 St,-73.855334,40.75173,4211.635281082134
12:04:30,2,706,103 St-Corona Plaza,-73.8627,40.749865,4132.727911237645
12:04:30,2,707,Junction Blvd,-73.869527,40.749145,3928.5537977836375
12:04:30,2,708,90 St-Elmhurst Av,-73.876613,40.748408,4011.6346592649925
12:36:30,2,709,82 St-Jackson Hts,-73.883697,40.747659,3906.5739158379756
12:04:30,1,710,74 St-Broadway,-73.891394,40.746848,3782.8297379346773
12:52:30,2,711,69 St,-73.896403,40.746325,3710.3507504795098
12:04:30,1,712,61 St-Woodside,-73.902984,40.74563,3626.88398588164
12:04:30,1,713,52 St,-73.912549,40.744149,3466.826151123805
12:04:30,1,714,46 St-Bliss St,-73.918435,40.743132,3410.5366774395948
12:04:30,1,715,40 St-Lowery St,-73.924016,40.743781,3352.2309943167475
12:04:30,1,716,33 St-Rawson St,-73.930997,40.744587,3267.838982482428
12:04:30,1,718,Queensboro Plaza,-73.940202,40.750582,3123.557349829367
12:04:30,1,719,Court Sq,-73.945264,40.747023,3181.356162975968
12:04:30,1,720,Hunters Point Av,-73.948916,40.742216,3081.881495554513
12:04:30,1,721,Vernon Blvd-Jackson Av,-73.953581,40.742626,3038.9040035930984
12:20:30,1,723,Grand Central-42 St,-73.976041,40.751431,2824.9702953954065
12:20:30,1,724,5 Av,-73.981963,40.753821,2895.2885958053953
12:20:30,1,725,Times Sq-42 St,-73.987691,40.755477,2980.6264150059765
12:20:30,1,726,34 St-Hudson Yards,-74.00191,40.755882,3125.2286047869984
12:20:30,1,901,Grand Central-42 St,-73.979189,40.752769,2764.9702953954065
12:20:30,1,902,Times Sq-42 St,-73.986229,40.755983,2862.801001358395
12:04:30,2,A02,Inwood-207 St,-73.919899,40.868072,3664.7026999306436
12:04:30,2,A03,Dyckman St,-73.927271,40.865491,3564.963873115001
12:04:30,2,A05,190 St,-73.93418,40.859022,3434.5838621320245
12:04:30,2,A06,181 St,-73.937969,40.851695,3321.698950237751
12:04:30,2,A07,175 St,-73.939704,40.847391,3228.913944725072
12:28:30,2,A09,168 St,-73.939561,40.840719,3086.616149243982
12:04:30,3,A10,163 St-Amsterdam Av,-73.939892,40.836013,3000.0042089454746
12:04:30,3,A11,155 St,-73.941514,40.830518,2915.1343820079273
12:28:30,2,A12,145 St,-73.944216,40.824783,2754.0018698022145
12:28:30,2,A14,135 St,-73.947649,40.817894,2658.049488849834
13:48:30,2,A15,125 St,-73.952343,40.811109,2789.7367195681563
12:04:30,2,A16,116 St,-73.954882,40.805085,2927.6751401930146
12:04:30,2,A17,Cathedral Pkwy (110 St),-73.958161,40.800603,3008.7879335313946
12:04:30,2,A18,103 St,-73.961454,40.796092,3095.2171470145404
12:04:30,2,A19,96 St,-73.964696,40.791642,3182.344119215893
12:04:30,2,A20,86 St,-73.968916,40.785868,3283.1518115235854
12:04:30,1,A21,81 St-Museum of Natural History,-73.972143,40.781433,3381.6264134947755
12:04:30,1,A22,72 St,-73.97641,40.775594,3327.880847332771
12:28:30,2,A24,59 St-Columbus Circle,-73.981736,40.768296,3145.1577336872956
12:20:30,1,A25,50 St,-73.985984,40.762456,3083.309583322808
13:48:30,1,A27,42 St-Port Authority Bus Terminal,-73.989735,40.757308,2980.6264150059765
13:48:30,1,A28,34 St-Penn Station,-73.993391,40.752287,3082.422680794005
13:48:30,1,A30,23 St,-73.998041,40.745906,3184.9119444759363
13:48:30,1,A31,14 St,-74.00169,40.740893,3231.1974605296878
12:04:30,2,A32,W 4 St-Wash Sq,-74.000495,40.732338,3365.926189811456
13:48:30,1,A33,Spring St,-74.003739,40.726227,3531.836553436748
12:44:30,1,A34,Canal St,-74.005229,40.720824,3547.267722992234
12:44:30,1,A36,Chambers St,-74.008585,40.714111,3670.4988442736985
13:48:30,1,A38,Fulton St,-74.007691,40.710197,3649.59942124476
13:08:30,1,A40,High St,-73.990531,40.699337,3837.9121230707487
13:08:30,1,A41,Jay St-MetroTech,-73.987342,40.692338,3964.5408933723734
13:08:30,1,A42,Hoyt-Schermerhorn Sts,-73.985001,40.688484,4083.4869226707547
12:28:30,1,A43,Lafayette Av,-73.973946,40.686113,4234.995525100234
12:28:30,1,A44,Clinton-Washington Avs,-73.965838,40.683263,4319.995525100235
12:28:30,1,A45,Franklin Av,-73.956848,40.68138,4425.714500280378
13:08:30,1,A46,Nostrand Av,-73.950426,40.680438,4389.76249661458
12:12:30,1,A47,Kingston-Throop Avs,-73.940858,40.679921,4494.741908379286
12:12:30,1,A48,Utica Av,-73.930729,40.679364,4565.218178432762
12:12:30,1,A49,Ralph Av,-73.920786,40.678822,4674.893257297115
12:12:30,1,A50,Rockaway Av,-73.911946,40.67834,4725.587309939904
13:08:30,1,A51,Broadway Junction,-73.905316,40.678334,4636.343132629611
12:44:30,1,A52,Liberty Av,-73.896548,40.674542,4774.358827696876
12:44:30,1,A53,Van Siclen Av,-73.890358,40.67271,4870.5172731378325
12:44:30,1,A54,Shepherd Av,-73.88075,40.67413,4972.015392024213
13:08:30,1,A55,Euclid Av,-73.872106,40.675377,4953.670587348391
13:08:30,1,A57,Grant Av,-73.86505,40.677044,5083.877268862868
13:08:30,1,A59,80 St,-73.858992,40.679371,5181.3839126691255
13:08:30,1,A60,88 St,-73.85147,40.679843,5280.573553080085
13:08:30,1,A61,Rockaway Blvd,-73.843853,40.680429,5373.997470782614
13:08:30,1,A63,104 St,-73.837683,40.681711,5465.045421959598
13:08:30,1,A64,111 St,-73.832163,40.684331,5556.180801020969
13:08:30,1,A65,Ozone Park-Lefferts Blvd,-73.825798,40.685951,5667.0592607080935
12:20:30,1,B04,21 St-Queensbridge,-73.942836,40.754203,3148.4360768620136
12:20:30,1,B06,Roosevelt Island,-73.95326,40.759145,3040.090212154226
12:36:30,1,B08,Lexington Av/63 St,-73.966113,40.764629,2947.5
13:08:30,1,B10,57 St,-73.97745,40.763972,3098.3389765693823
12:36:30,1,B12,9 Av,-73.994324,40.646292,5018.889563233185
12:36:30,1,B13,Fort Hamilton Pkwy,-73.994304,40.640914,5120.704456850206
12:36:30,1,B14,50 St,-73.994791,40.63626,5201.464400032024
12:36:30,1,B15,55 St,-73.995476,40.631435,5304.492849534157
12:36:30,1,B16,62 St,-73.996895,40.626472,5369.441231660506
12:36:30,1,B17,71 St,-73.998864,40.619589,5472.33852124681
12:36:30,1,B18,79 St,-74.00061,40.613501,5576.789305840249
12:36:30,1,B19,18 Av,-74.001736,40.607954,5661.272877268821
12:36:30,1,B20,20 Av,-73.998168,40.604556,5746.484456968606
12:36:30,1,B21,Bay Pkwy,-73.993728,40.601875,5827.642389488347
13:16:30,1,B22,25 Av,-73.986829,40.597704,5954.4485411335545
13:16:30,1,B23,Bay 50 St,-73.983765,40.588841,6180.351519359479
12:36:30,2,D01,Norwood-205 St,-73.878855,40.874811,3276.603962606051
12:36:30,2,D03,Bedford Park Blvd,-73.887138,40.873244,3117.006405080908
12:36:30,2,D04,Kingsbridge Rd,-73.893509,40.866978,2998.466020465523
12:36:30,2,D05,Fordham Rd,-73.897749,40.861296,2898.333134559483
12:36:30,2,D06,182-183 Sts,-73.900741,40.856093,2813.1603472792663
12:36:30,2,D07,Tremont Av,-73.905227,40.85041,2729.55997379654
12:36:30,2,D08,174-175 Sts,-73.910136,40.8459,2636.3495472562554
12:36:30,2,D09,170 St,-73.9134,40.839306,2530.805737732446
12:36:30,2,D10,167 St,-73.91844,40.833771,2424.662880589589
13:24:30,2,D11,161 St-Yankee Stadium,-73.925651,40.827905,2310.472129144502
12:28:30,2,D12,155 St,-73.938209,40.830135,2433.6986166684947
12:28:30,2,D13,145 St,-73.944216,40.824783,2561.566021468243
12:20:30,1,D14,7 Av,-73.981637,40.762862,3176.835630745708
12:36:30,1,D15,47-50 Sts-Rockefeller Ctr,-73.981329,40.758663,3188.3389765693823
12:36:30,1,D16,42 St-Bryant Pk,-73.984569,40.754222,3120.2885958053953
12:36:30,1,D17,34 St-Herald Sq,-73.987823,40.749719,3200.211470476736
12:36:30,1,D18,23 St,-73.992821,40.742878,3317.520647683829
12:36:30,1,D19,14 St,-73.996209,40.738228,3397.715102017075
13:08:30,1,D20,W 4 St-Wash Sq,-74.000495,40.732338,3393.542831155334
13:08:30,1,D21,Broadway-Lafayette St,-73.996204,40.725297,3545.2054479777644
12:12:30,1,D22,Grand St,-73.993753,40.718267,3691.0580301373884
12:12:30,1,D24,Atlantic Av-Barclays Ctr,-73.97689,40.68446,4252.887022649075
12:12:30,1,D25,7 Av,-73.972367,40.67705,4402.0027038830085
12:12:30,1,D26,Prospect Park,-73.962246,40.661614,4609.581103362514
12:12:30,1,D27,Parkside Av,-73.961495,40.655292,4705.452686325007
12:12:30,1,D28,Church Av,-73.962982,40.650527,4820.766374537934
12:12:30,1,D29,Beverley Rd,-73.964492,40.644031,4884.172315131993
12:12:30,1,D30,Cortelyou Rd,-73.963891,40.640927,4962.309345087379
12:12:30,1,D31,Newkirk Plaza,-73.962793,40.635082,5042.2369281828
12:12:30,1,D32,Avenue H,-73.961639,40.62927,5155.561707226713
12:12:30,1,D33,Avenue J,-73.960803,40.625039,5252.446248599388
12:12:30,1,D34,Avenue M,-73.959399,40.617618,5363.252597805737
12:12:30,1,D35,Kings Hwy,-73.957734,40.60867,5307.6323004162
12:12:30,1,D37,Avenue U,-73.955929,40.5993,5526.980543531066
12:12:30,1,D38,Neck Rd,-73.955161,40.595246,5631.078300862866
12:12:30,1,D39,Sheepshead Bay,-73.954155,40.586896,5574.53732630305
12:12:30,1,D40,Brighton Beach,-73.961376,40.577621,5721.8648116831655
12:12:30,1,D41,Ocean Pkwy,-73.968501,40.576312,5868.230676022384
12:12:30,1,D42,W 8 St-NY Aquarium,-73.975939,40.576127,5971.99969734869
12:12:30,1,D43,Coney Island-Stillwell Av,-73.981233,40.577422,6071.546313887553
13:08:30,1,E01,World Trade Center,-74.009781,40.712582,3731.0439611462807
13:48:30,1,F01,Jamaica-179 St,-73.783817,40.712646,4778.338976569383
12:20:30,1,F02,169 St,-73.793604,40.71047,4688.338976569383
12:20:30,1,F03,Parsons Blvd,-73.803326,40.707564,4568.338976569383
12:20:30,1,F04,Sutphin Blvd,-73.810708,40.70546,4478.338976569383
12:20:30,1,F05,Briarwood,-73.820574,40.709179,4358.338976569383
12:36:30,1,F06,Kew Gardens-Union Tpke,-73.831008,40.714441,4238.338976569383
12:20:30,1,F07,75 Av,-73.837324,40.718331,4148.338976569383
12:36:30,1,F09,Court Sq-23 St,-73.946,40.747846,3280.8863887028483
12:20:30,1,F11,Lexington Av/53 St,-73.969055,40.757552,3089.9772977937578
12:20:30,1,F12,5 Av/53 St,-73.975224,40.760167,3164.2522977937574
12:12:30,1,F14,2 Av,-73.989938,40.723402,3678.9797594749393
12:12:30,1,F15,Delancey St-Essex St,-73.988114,40.718611,3778.094288580476
12:12:30,1,F16,East Broadway,-73.990173,40.713715,3861.503595323116
12:52:30,1,F18,York St,-73.986751,40.701397,4026.843585812893
13:08:30,1,F20,Bergen St,-73.990862,40.686145,4243.046478237482
13:08:30,1,F21,Carroll St,-73.995048,40.680303,4365.644923840086
13:08:30,1,F22,Smith-9 Sts,-73.995959,40.67358,4516.404315185783
13:08:30,1,F23,4 Av-9 St,-73.989779,40.670272,4599.77098185245
13:08:30,1,F24,7 Av,-73.980305,40.666271,4519.540893372373
13:08:30,1,F25,15 St-Prospect Park,-73.979493,40.660365,4681.910403271419
13:08:30,1,F26,Fort Hamilton Pkwy,-73.975776,40.650782,4854.68291511976
13:08:30,1,F27,Church Av,-73.979678,40.644041,4759.540893372373
13:08:30,1,F29,Ditmas Av,-73.978172,40.636119,4879.540893372373
13:08:30,1,F30,18 Av,-73.976971,40.629755,4999.540893372373
13:08:30,1,F31,Avenue I,-73.976127,40.625322,5059.540893372373
13:08:30,1,F32,Bay Pkwy,-73.975264,40.620769,5119.540893372373
13:08:30,1,F33,Avenue N,-73.974197,40.61514,5239.540893372373
13:08:30,1,F34,Avenue P,-73.973022,40.608944,5329.540893372373
13:08:30,1,F35,Kings Hwy,-73.972361,40.603217,5533.311544038585
13:32:30,1,F36,Avenue U,-73.973357,40.596063,5641.287734514775
13:32:30,1,F38,Avenue X,-73.97425,40.58962,5743.263924990966
12:12:30,1,F39,Neptune Av,-73.974574,40.581011,5864.097258324299
12:36:30,1,G05,Jamaica Center-Parsons/Archer,-73.801109,40.702147,4792.704247882645
12:36:30,1,G06,Sutphin Blvd-Archer Av-JFK Airport,-73.807969,40.700486,4681.9987333857725
12:36:30,1,G07,Jamaica-Van Wyck,-73.816859,40.702566,4546.550038516286
12:36:30,1,G08,Forest Hills-71 Av,-73.844521,40.721691,4028.338976569383
13:48:30,1,G09,67 Av,-73.852719,40.726523,4163.8896041844455
13:48:30,1,G10,63 Dr-Rego Park,-73.861604,40.729846,4268.338976569383
13:48:30,1,G11,Woodhaven Blvd,-73.869229,40.733106,4170.494122071892
13:48:30,1,G12,Grand Av-Newtown,-73.877223,40.737015,4057.5355518038177
13:48:30,1,G13,Elmhurst Av,-73.882017,40.742454,3957.3181604994697
12:36:30,1,G14,Jackson Hts-Roosevelt Av,-73.891338,40.746644,3608.3389765693823
12:28:30,1,G15,65 St,-73.898453,40.749669,3797.5740225314976
12:04:30,1,G16,Northern Blvd,-73.906006,40.752885,3700.3071956084204
12:04:30,1,G18,46 St,-73.913333,40.756312,3603.9332894827244
12:04:30,1,G19,Steinway St,-73.92074,40.756879,3498.9884510272477
12:04:30,1,G20,36 St,-73.928781,40.752039,3362.8304771502735
12:04:30,1,G21,Queens Plaza,-73.937243,40.748973,3200.7934637488697
13:08:30,2,G22,Court Sq,-73.943832,40.746554,3241.356162975968
13:08:30,2,G24,21 St,-73.949724,40.744065,3336.0909455846636
13:08:30,2,G26,Greenpoint Av,-73.954449,40.731352,3476.6857249507293
13:08:30,2,G28,Nassau Av,-73.951277,40.724635,3587.63547985269
13:08:30,2,G29,Metropolitan Av,-73.951418,40.712792,3739.7530906901284
13:08:30,2,G30,Broadway,-73.950308,40.706092,3828.710013767052
13:08:30,2,G31,Flushing Av,-73.950234,40.700377,3920.110382770741
13:08:30,2,G32,Myrtle-Willoughby Avs,-73.949046,40.694568,4006.187635989626
12:04:30,2,G33,Bedford-Nostrand Avs,-73.953522,40.689627,4111.47556168622
12:28:30,1,G34,Classon Av,-73.96007,40.688873,4195.0861386092965
12:28:30,1,G35,Clinton-Washington Avs,-73.966839,40.688089,4276.598502036554
12:28:30,1,G36,Fulton St,-73.975375,40.687119,4367.404343960953
13:32:30,1,H01,Aqueduct Racetrack,-73.834058,40.668234,5584.875975455511
12:12:30,1,H02,Aqueduct-N Conduit Av,-73.834058,40.668234,5646.015511825811
12:12:30,1,H03,Howard Beach-JFK Airport,-73.830301,40.660476,5762.622486514154
12:12:30,1,H04,Broad Channel,-73.815925,40.608382,6228.004043197741
12:12:30,1,H06,Beach 67 St,-73.796924,40.590927,6556.970554825648
12:12:30,1,H07,Beach 60 St,-73.788522,40.592374,6682.827301590898
12:12:30,1,H08,Beach 44 St,-73.776013,40.592943,6792.503527307827
12:12:30,1,H09,Beach 36 St,-73.768175,40.595398,6893.775749530049
12:12:30,1,H10,Beach 25 St,-73.761353,40.600066,6994.216269976147
12:12:30,1,H11,Far Rockaway-Mott Av,-73.755405,40.603995,7084.515856753006
12:12:30,1,H12,Beach 90 St,-73.813641,40.588034,6498.061186054884
12:12:30,1,H13,Beach 98 St,-73.820558,40.585307,6598.16495963979
12:12:30,1,H14,Beach 105 St,-73.827559,40.583209,6687.841150115981
12:12:30,1,H15,Rockaway Park-Beach 116 St,-73.835592,40.580903,6791.390600665431
12:36:30,1,J12,121 St,-73.828294,40.700492,5084.236438303805
12:36:30,1,J13,111 St,-73.836345,40.697418,5107.6516407657255
12:36:30,1,J14,104 St,-73.84433,40.695178,5274.956438303805
12:36:30,1,J15,Woodhaven Blvd,-73.851576,40.693879,5356.343132629611
12:36:30,1,J16,85 St-Forest Pkwy,-73.86001,40.692435,5368.727339941092
12:36:30,1,J17,75 St-Elderts Ln,-73.867139,40.691324,5176.343132629611
12:36:30,1,J19,Cypress Hills,-73.87255,40.689941,5201.105980717792
12:36:30,1,J20,Crescent St,-73.873785,40.683194,5026.343132629611
12:44:30,1,J21,Norwood Av,-73.880039,40.68141,4936.343132629611
12:44:30,1,J22,Cleveland St,-73.884639,40.679947,4946.196826379299
12:44:30,1,J23,Van Siclen Av,-73.891688,40.678024,4786.343132629611
12:28:30,2,J24,Alabama Av,-73.898654,40.676992,4726.343132629611
12:44:30,1,J27,Broadway Junction,-73.904512,40.679498,4623.024745359638
12:44:30,1,J28,Chauncey St,-73.910456,40.682893,4696.343132629611
12:44:30,1,J29,Halsey St,-73.916559,40.68637,4695.59187842295
12:44:30,1,J30,Gates Av,-73.92227,40.68963,4606.102631969049
12:44:30,1,J31,Kosciuszko St,-73.928814,40.693342,4508.309298635716
12:36:30,1,L01,8 Av,-74.002578,40.739777,3291.1974605296878
12:36:30,1,L02,6 Av,-73.996786,40.737335,3281.7201356786995
12:36:30,1,L03,14 St-Union Sq,-73.99073,40.734789,3191.7164081287165
12:04:30,1,L05,3 Av,-73.986122,40.732849,3263.2583454715377
12:04:30,1,L06,1 Av,-73.981628,40.730953,3303.7109102326226
12:04:30,1,L08,Bedford Av,-73.956872,40.717304,3507.7875059773037
12:04:30,1,L10,Lorimer St,-73.950275,40.714063,3590.080439125449
12:04:30,1,L11,Graham Av,-73.944053,40.714565,3630.742198676799
12:04:30,1,L12,Grand St,-73.94067,40.711926,3719.3344805559937
12:04:30,1,L13,Montrose Av,-73.93985,40.707739,3756.8973608805372
12:04:30,1,L14,Morgan Av,-73.933147,40.706152,3837.960617946486
12:04:30,1,L15,Jefferson St,-73.922913,40.706607,3929.979873869541
12:04:30,1,L16,DeKalb Av,-73.918425,40.703811,3997.7165251549727
12:04:30,1,L17,Myrtle-Wyckoff Avs,-73.911586,40.699814,4076.474160622953
12:04:30,1,L19,Halsey St,-73.904084,40.695602,4124.75779698659
12:04:30,1,L20,Wilson Av,-73.904046,40.688764,4245.107951466508
12:04:30,1,L21,Bushwick Av-Aberdeen St,-73.905249,40.682829,4337.78188821678
12:04:30,1,L22,Broadway Junction,-73.90324,40.678856,4398.024745359638
12:04:30,1,L24,Atlantic Av,-73.903097,40.675345,4502.427075722901
12:04:30,1,L25,Sutter Av,-73.901975,40.669367,4578.926742167197
12:04:30,1,L26,Livonia Av,-73.900571,40.664038,4644.655342710675
12:04:30,1,L27,New Lots Av,-73.899232,40.658733,4698.477557171031
12:04:30,1,L28,East 105 St,-73.899485,40.650573,4808.703978807646
13:24:30,1,L29,Canarsie-Rockaway Pkwy,-73.90185,40.646654,4932.478148273865
12:04:30,2,M01,Middle Village-Metropolitan Av,-73.889601,40.711396,4701.032568180471
12:04:30,2,M04,Fresh Pond Rd,-73.895877,40.706186,4580.4507821504085
12:04:30,2,M05,Forest Av,-73.903077,40.704423,4482.931191529005
12:44:30,2,M06,Seneca Av,-73.90774,40.702762,4388.0715546574975
13:40:30,1,M08,Myrtle-Wyckoff Avs,-73.912385,40.69943,4301.474160622954
12:04:30,2,M09,Knickerbocker Av,-73.919711,40.698664,4401.870551413245
13:40:30,1,M10,Central Av,-73.927397,40.697857,4516.891228104975
12:44:30,1,M11,Myrtle Av,-73.935657,40.697207,4391.058966630404
13:40:30,1,M12,Flushing Av,-73.941126,40.70026,4356.343628390413
13:40:30,1,M13,Lorimer St,-73.947408,40.703869,4265.1051098718945
13:40:30,1,M14,Hewes St,-73.953431,40.70687,4169.443410915114
13:40:30,1,M16,Marcy Av,-73.957757,40.708359,4074.360828332531
13:40:30,1,M18,Delancey St-Essex St,-73.987437,40.718315,3700.557494999198
12:04:30,1,M19,Bowery,-73.993915,40.72028,3619.2725487626385
12:04:30,1,M20,Canal St,-73.999892,40.718092,3503.959540572459
12:20:30,1,M21,Chambers St,-74.003401,40.713243,3410.3164132080205
12:44:30,1,M22,Fulton St,-74.007582,40.710374,3504.2818837564296
12:44:30,1,M23,Broad St,-74.011056,40.706476,3569.1888605006156
12:36:30,1,N02,8 Av,-74.011719,40.635064,5119.263352970327
12:36:30,1,N03,Fort Hamilton Pkwy,-74.005351,40.631386,5238.389387459607
12:36:30,1,N04,New Utrecht Av,-73.996353,40.624842,5355.5009360160375
12:36:30,1,N05,18 Av,-73.990414,40.620671,5451.471213426869
12:36:30,1,N06,20 Av,-73.985026,40.61741,5538.907721363377
12:36:30,1,N07,Bay Pkwy,-73.981848,40.611815,5636.679244542185
12:36:30,1,N08,Kings Hwy,-73.980353,40.603923,5764.183574988554
12:36:30,1,N09,Avenue U,-73.979137,40.597473,5879.875831330343
12:36:30,1,N10,86 St,-73.97823,40.592721,5975.498588927501
12:36:30,1,Q01,Canal St,-74.00046,40.718383,3521.420449796134
12:36:30,1,Q03,72 St,-73.958424,40.768799,3070.172309902716
12:36:30,1,Q04,86 St,-73.951787,40.777891,3202.977301315787
12:36:30,1,Q05,96 St,-73.947152,40.784318,3295.9757652174762
13:56:30,1,R01,Astoria-Ditmars Blvd,-73.912034,40.775036,3808.2710390452366
13:56:30,1,R03,Astoria Blvd,-73.917843,40.770258,3711.9756924165567
13:56:30,1,R04,30 Av,-73.921479,40.766779,3605.2787526337333
13:56:30,1,R05,Broadway,-73.925508,40.76182,3509.897800252781
13:56:30,1,R06,36 Av,-73.929575,40.756804,3374.0050564069475
13:56:30,1,R08,39 Av-Dutch Kills,-73.932755,40.752882,3279.871664776698
13:56:30,1,R09,Queensboro Plaza,-73.940202,40.750582,3076.557348160437
12:04:30,1,R11,Lexington Av/59 St,-73.967258,40.76266,2817.4090898036957
12:04:30,1,R13,5 Av/59 St,-73.973347,40.764811,2915.183027261489
12:04:30,1,R14,57 St-7 Av,-73.980658,40.764664,3055.343254534216
12:04:30,1,R15,49 St,-73.984139,40.759901,3074.631302591509
12:04:30,1,R16,Times Sq-42 St,-73.986754,40.754672,2980.6264150059765
12:04:30,1,R17,34 St-Herald Sq,-73.98795,40.749567,3083.6061648570785
12:04:30,1,R18,28 St,-73.988691,40.745494,3169.9836739973707
12:04:30,1,R19,23 St,-73.989344,40.741303,3252.8778151425104
12:28:30,1,R20,14 St-Union Sq,-73.990568,40.735736,3202.755368347146
12:12:30,1,R21,8 St-NYU,-73.992629,40.730328,3327.2268709378195
12:12:30,1,R22,Prince St,-73.997702,40.724329,3419.376326704142
12:12:30,1,R23,Canal St,-74.001775,40.719527,3527.29115506676
12:20:30,1,R24,City Hall,-74.006978,40.713282,3675.2056723843725
12:20:30,1,R25,Cortlandt St,-74.011029,40.710668,3791.120830803625
12:20:30,1,R26,Rector St,-74.013342,40.70722,3905.6034788789534
12:20:30,1,R27,Whitehall St-South Ferry,-74.012994,40.703087,3997.685933552761
12:20:30,1,R28,Court St,-73.991777,40.6941,4090.6540867378767
12:20:30,1,R29,Jay St-MetroTech,-73.985942,40.69218,4099.540893372373
12:12:30,1,R30,DeKalb Av,-73.981824,40.690635,4083.095948910395
12:36:30,1,R31,Atlantic Av-Barclays Ctr,-73.97881,40.683666,4185.087099663611
13:08:30,1,R32,Union St,-73.98311,40.677316,4331.241265014967
13:08:30,1,R33,4 Av-9 St,-73.988302,40.670847,4443.296541396877
13:08:30,1,R34,Prospect Av,-73.992872,40.665414,4552.979958482304
13:08:30,1,R35,25 St,-73.998091,40.660397,4670.205846807177
12:36:30,1,R36,36 St,-74.003549,40.655144,4627.298009957391
13:08:30,1,R39,45 St,-74.010006,40.648939,4800.976463008917
12:36:30,1,R40,53 St,-74.014034,40.645069,4894.751825327757
12:36:30,1,R41,59 St,-74.017881,40.641362,4945.739966351026
13:08:30,1,R42,Bay Ridge Av,-74.023377,40.634967,5110.2142151372345
13:08:30,1,R43,77 St,-74.02551,40.629742,5192.822882241633
13:08:30,1,R44,86 St,-74.028398,40.622687,5377.274817322782
13:08:30,1,R45,Bay Ridge-95 St,-74.030876,40.616622,5445.856556453216
12:36:30,1,S01,Franklin Av,-73.955827,40.680596,4485.714500280378
12:36:30,1,S03,Park Pl,-73.957624,40.674772,4602.054778058156
12:12:30,1,S04,Botanic Garden,-73.959245,40.670343,4613.1391134586665
