start_time,ntransfers,stop_id,stop_name,stop_lon,stop_lat,duration
12:02:00,2,101,Van Cortlandt Park-242 St,-73.898583,40.889248,3742.016541753143
12:02:00,2,103,238 St,-73.90087,40.884667,3635.265793570159
12:02:00,2,104,231 St,-73.904834,40.878856,3540.4306871871804
12:02:00,2,106,Marble Hill-225 St,-73.909831,40.874561,3446.958820675733
12:02:00,2,107,215 St,-73.915279,40.869444,3338.8342572298657
12:02:00,2,108,207 St,-73.918822,40.864621,3259.8494619082285
12:02:00,2,109,Dyckman St,-73.925536,40.860531,3161.812834850737
12:02:00,2,110,191 St,-73.929412,40.855225,3071.5937872316895
12:02:00,2,111,181 St,-73.933596,40.849505,2976.3491984871007
12:38:00,0,112,168 St-Washington Hts,-73.940133,40.840556,2855.4988731074914
12:02:00,2,113,157 St,-73.94489,40.834041,2954.77530291685
12:02:00,2,114,145 St,-73.95036,40.826551,3070.4399502556644
12:38:00,0,115,137 St-City College,-73.953676,40.822008,3171.482733315301
12:38:00,0,116,125 St,-73.958372,40.815581,3106.7455012742707
12:38:00,0,117,116 St-Columbia University,-73.96411,40.807722,2984.5915372758027
12:38:00,0,118,Cathedral Pkwy (110 St),-73.966847,40.803967,2917.106664977178
12:38:00,0,119,103 St,-73.968379,40.799446,2835.1763783776423
12:30:00,0,120,96 St,-73.972323,40.793919,2449.5596434949557
12:38:00,0,121,86 St,-73.976218,40.788644,2614.4312121506673
12:38:00,0,122,79 St,-73.979917,40.783934,2561.0219530662735
12:02:00,2,123,72 St,-73.98197,40.778453,2365.0545965730857
12:02:00,2,124,66 St-Lincoln Center,-73.982209,40.77344,2418.398734131898
12:02:00,2,125,59 St-Columbus Circle,-73.981929,40.768247,2337.300763796223
12:02:00,2,126,50 St,-73.983849,40.761728,2228.6733128158307
12:42:00,2,127,Times Sq-42 St,-73.987495,40.75529,2116.4762181947076
12:02:00,2,128,34 St-Penn Station,-73.991057,40.750373,2223.865728684218
12:02:00,2,129,28 St,-73.993365,40.747215,2305.628438400271
12:02:00,2,130,23 St,-73.995657,40.744081,2374.255668811443
12:02:00,2,131,18 St,-73.997871,40.74104,2442.6961820307274
12:02:00,2,132,14 St,-74.000201,40.737826,2382.869234995579
12:02:00,2,133,Christopher St-Sheridan Sq,-74.002906,40.733422,2615.97807193959
12:02:00,2,134,Houston St,-74.005367,40.728251,2699.128347313311
12:02:00,2,135,Canal St,-74.006277,40.722854,2786.403692480964
12:02:00,2,136,Franklin St,-74.006886,40.719318,2851.156183513248
12:02:00,2,137,Chambers St,-74.009266,40.715478,2630.5205277978152
12:02:00,2,138,WTC Cortlandt,-74.012188,40.711835,2914.2205723975544
12:02:00,2,139,Rector St,-74.013783,40.707513,2993.5191392765355
12:02:00,2,142,South Ferry,-74.013664,40.702068,3098.2395606703767
12:30:00,0,201,Wakefield-241 St,-73.85062,40.903125,3591.845781435554
12:30:00,0,204,Nereid Av,-73.854376,40.898379,3363.5817330971854
12:30:00,0,205,233 St,-73.857473,40.893193,3231.581733097185
12:30:00,0,206,225 St,-73.860341,40.888022,3135.581733097185
12:30:00,0,207,219 St,-73.862633,40.883895,3053.581733097185
12:30:00,0,208,Gun Hill Rd,-73.866256,40.87785,2945.081733097185
12:30:00,0,209,Burke Av,-73.867164,40.871356,2962.8303374920724
12:30:00,0,210,Allerton Av,-73.867352,40.865462,2872.40505013575
12:30:00,0,211,Pelham Pkwy,-73.867615,40.857192,2760.4970041587385
12:30:00,0,212,Bronx Park East,-73.868457,40.848828,2633.347004158739
12:30:00,0,213,E 180 St,-73.873488,40.841894,2389.4273052123176
12:30:00,0,214,West Farms Sq-E Tremont Av,-73.880049,40.840295,2397.0578902686248
12:30:00,0,215,174 St,-73.887734,40.837288,2275.555069935565
12:30:00,0,216,Freeman St,-73.891865,40.829993,2153.0471811301554
12:30:00,0,217,Simpson St,-73.893064,40.824073,2038.0487591146075
12:30:00,0,218,Intervale Av,-73.896736,40.822181,1954.4586245854593
12:30:00,0,219,Prospect Av,-73.90177,40.819585,1866.694873458318
12:30:00,0,220,Jackson Av,-73.907807,40.81649,1755.7285098219543
12:30:00,0,221,3 Av-149 St,-73.917757,40.816109,1607.3688367974314
12:30:00,0,222,149 St-Grand Concourse,-73.926718,40.81841,1474.5220582376046
12:30:00,0,224,135 St,-73.94077,40.814229,1908.384476437209
12:30:00,0,225,125 St,-73.945495,40.807754,2015.4007365998104
12:30:00,0,226,116 St,-73.949625,40.802098,2117.8986832117203
12:30:00,0,227,Central Park North (110 St),-73.951822,40.799075,2192.6568799330316
12:02:00,2,228,Park Place,-74.008811,40.713051,2719.726683846491
12:02:00,2,229,Fulton St,-74.006571,40.709416,2801.9556418254406
12:30:00,1,230,Wall St,-74.0091,40.706821,2877.3707361650636
12:30:00,1,231,Clark St,-73.993086,40.697466,3066.584335066162
12:30:00,1,232,Borough Hall,-73.989998,40.693219,3181.7193805825927
13:42:00,1,233,Hoyt St,-73.985065,40.690545,3162.8610991655446
12:02:00,0,234,Nevins St,-73.980492,40.688246,3021.8950242805113
12:02:00,0,235,Atlantic Av-Barclays Ctr,-73.977666,40.684359,3122.109780538746
12:02:00,0,236,Bergen St,-73.975098,40.680829,3227.9015435083793
12:02:00,0,237,Grand Army Plaza,-73.971046,40.675235,3341.9683451278124
12:02:00,0,238,Eastern Pkwy-Brooklyn Museum,-73.964375,40.671987,3445.4222792233068
12:02:00,0,239,Franklin Av-Medgar Evers College,-73.958131,40.670682,3416.004005068272
12:02:00,0,241,President St-Medgar Evers College,-73.950683,40.667883,3584.6278836051943
12:02:00,0,242,Sterling St,-73.95085,40.662742,3676.6203545155295
12:02:00,0,243,Winthrop St,-73.9502,40.656652,3765.6740229937905
12:02:00,0,244,Church Av,-73.949575,40.650843,3844.5123987899688
12:02:00,0,245,Beverly Rd,-73.948959,40.645098,3923.74166379334
12:02:00,0,246,Newkirk Av-Little Haiti,-73.948411,40.639967,4010.9301773068537
12:02:00,0,247,Flatbush Av-Brooklyn College,-73.947642,40.632836,4161.549734765811
12:02:00,0,248,Nostrand Av,-73.950466,40.669847,3530.6561789813154
12:02:00,0,249,Kingston Av,-73.942161,40.669399,3619.1779181117504
12:30:00,0,250,Crown Hts-Utica Av,-73.932942,40.668897,3645.913095977363
12:02:00,0,251,Sutter Av-Rutland Rd,-73.92261,40.664717,3789.038095977363
12:02:00,0,252,Saratoga Av,-73.916327,40.661453,3903.89226264403
12:02:00,0,253,Rockaway Av,-73.908946,40.662549,3992.496429310696
12:02:00,0,254,Junius St,-73.902447,40.663515,4064.706504434294
12:02:00,0,255,Pennsylvania Av,-73.894895,40.664635,4174.390696893599
12:02:00,0,256,Van Siclen Av,-73.889395,40.665449,4254.420001168955
12:02:00,0,257,New Lots Av,-73.884079,40.666235,4336.670238834506
12:30:00,0,301,Harlem-148 St,-73.93647,40.82388,2379.4245296875624
12:30:00,0,302,145 St,-73.936245,40.820421,2262.86450796024
12:02:00,0,401,Woodlawn,-73.878751,40.886037,2714.6922678099572
12:02:00,0,402,Mosholu Pkwy,-73.884655,40.87975,2592.2852965428824
12:02:00,0,405,Bedford Park Blvd-Lehman College,-73.890064,40.873412,2469.226963209549
12:02:00,0,406,Kingsbridge Rd,-73.897174,40.86776,2359.4268708734453
12:02:00,0,407,Fordham Rd,-73.901034,40.862803,2271.304048573794
12:02:00,0,408,183 St,-73.903879,40.858407,2187.0086038883273
12:02:00,0,409,Burnside Av,-73.907684,40.853453,2087.6858964647463
12:02:00,0,410,176 St,-73.911794,40.84848,1996.617187493193
12:02:00,0,411,Mt Eden Av,-73.914685,40.844434,1916.2630299920932
12:02:00,0,412,170 St,-73.917791,40.840075,1834.2594964231885
12:02:00,0,413,167 St,-73.9214,40.835537,1742.4193016467386
12:02:00,0,414,161 St-Yankee Stadium,-73.925831,40.827994,1615.105883545155
12:02:00,0,415,149 St-Grand Concourse,-73.927351,40.818375,1415.8448987378163
12:30:00,0,416,138 St-Grand Concourse,-73.929849,40.813224,1282.5585816793475
12:02:00,0,418,Fulton St,-74.009509,40.710368,2459.0246084525616
12:02:00,0,419,Wall St,-74.011862,40.707557,2538.838767744597
12:02:00,0,420,Bowling Green,-74.014065,40.704817,2618.1997338020387
12:02:00,0,423,Borough Hall,-73.990151,40.692404,2882.6536678975326
13:50:00,0,501,Eastchester-Dyre Av,-73.830834,40.8883,3139.4273052123176
12:30:00,0,502,Baychester Av,-73.838591,40.878663,2989.4273052123176
12:30:00,0,503,Gun Hill Rd,-73.846384,40.869526,2839.4273052123176
12:30:00,0,504,Pelham Pkwy,-73.855359,40.858985,2689.4273052123176
12:30:00,0,505,Morris Park,-73.860495,40.854364,2599.4273052123176
12:06:00,0,601,Pelham Bay Park,-73.828121,40.852462,866.7750703933222
12:06:00,0,602,Buhre Av,-73.832569,40.84681,739.7619963035621
12:06:00,0,603,Middletown Rd,-73.836322,40.843863,659.5448978126324
12:06:00,0,604,Westchester Sq-E Tremont Av,-73.842952,40.839892,542.6116411958313
12:06:00,0,606,Zerega Av,-73.847036,40.836488,460.80470327141506
12:06:00,0,607,Castle Hill Av,-73.851222,40.834255,387.002909549442
12:02:00,0,608,Parkchester,-73.860816,40.833226,252.22092756746002
12:02:00,0,609,St Lawrence Av,-73.867618,40.831509,151.72245475133295
12:02:00,0,610,Morrison Av-Soundview,-73.874516,40.829521,68.11170848267622
13:10:00,0,611,Elder Av,-73.879159,40.828584,0.0
12:02:00,0,612,Whitlock Av,-73.886283,40.826525,104.5397489539749
12:02:00,0,613,Hunts Point Av,-73.890549,40.820948,223.29803707935162
12:02:00,0,614,Longwood Av,-73.896435,40.816104,341.71140062701664
12:02:00,0,615,E 149 St,-73.904098,40.812118,441.58749574591525
12:02:00,0,616,E 143 St-St Mary's St,-73.907657,40.808719,518.8869143505665
12:02:00,0,617,Cypress Av,-73.914042,40.805368,629.439919112799
12:02:00,0,618,Brook Av,-73.91924,40.807566,701.1387262698566
12:02:00,0,619,3 Av-138 St,-73.926138,40.810476,697.3152832319926
12:02:00,0,621,125 St,-73.937594,40.804138,912.2844467070688
12:02:00,0,622,116 St,-73.941617,40.798629,1010.4351316385755
12:02:00,0,623,110 St,-73.94425,40.79502,1090.9854672090453
12:02:00,0,624,103 St,-73.947478,40.7906,1170.025202308383
12:02:00,0,625,96 St,-73.95107,40.785672,1259.7949391504883
12:02:00,0,626,86 St,-73.955589,40.779492,1358.4127735453928
12:02:00,0,627,77 St,-73.959874,40.77362,1461.7712641114306
12:02:00,0,628,68 St-Hunter College,-73.96387,40.768141,1551.9087641114306
12:02:00,0,629,59 St,-73.967967,40.762526,1652.7181948887287
12:02:00,0,630,51 St,-73.97192,40.757107,1753.3363331298356
12:02:00,0,631,Grand Central-42 St,-73.976848,40.751776,1819.6494419481612
12:02:00,0,632,33 St,-73.982076,40.746081,2004.6233662065397
12:02:00,0,633,28 St,-73.984264,40.74307,2072.3257471589204
12:02:00,0,634,23 St,-73.986599,40.739864,2138.6275223068496
12:02:00,0,635,14 St-Union Sq,-73.989951,40.734673,2067.8065300707667
12:02:00,0,636,Astor Pl,-73.99107,40.730054,2351.356567141158
12:02:00,0,637,Bleecker St,-73.994659,40.725915,2444.8144618779997
12:02:00,0,638,Spring St,-73.997141,40.722301,2516.0710063806177
12:02:00,0,639,Canal St,-74.000193,40.718803,2493.0766317344496
12:02:00,0,640,Brooklyn Bridge-City Hall,-74.004131,40.713065,2340.3621558609057
12:02:00,2,701,Flushing-Main St,-73.83003,40.7596,3377.7400482721755
12:02:00,2,702,Mets-Willets Point,-73.845625,40.754622,3212.7173945504924
12:02:00,2,705,111 St,-73.855334,40.75173,3264.8878685739423
12:02:00,2,706,103 St-Corona Plaza,-73.8627,40.749865,3185.980498729453
12:02:00,2,707,Junction Blvd,-73.869527,40.749145,2985.2947590318545
12:02:00,2,708,90 St-Elmhurst Av,-73.876613,40.748408,3076.937208195858
12:58:00,2,709,82 St-Jackson Hts,-73.883697,40.747659,2971.876464768841
12:10:00,2,710,74 St-Broadway,-73.891394,40.746848,2833.6307754767254
13:14:00,2,711,69 St,-73.896403,40.746325,2764.694288990239
12:10:00,2,712,61 St-Woodside,-73.902984,40.74563,2682.774766464247
12:10:00,2,713,52 St,-73.912549,40.744149,2532.12870005467
12:10:00,2,714,46 St-Bliss St,-73.918435,40.743132,2475.8392263704595
12:10:00,2,715,40 St-Lowery St,-73.924016,40.743781,2417.533543247612
13:58:00,2,716,33 St-Rawson St,-73.930997,40.744587,2333.141531413293
12:26:00,1,718,Queensboro Plaza,-73.940202,40.750582,2188.8598987602318
12:18:00,2,719,Court Sq,-73.945264,40.747023,2294.3784910892705
12:26:00,1,720,Hunters Point Av,-73.948916,40.742216,2217.731298743244
12:26:00,1,721,Vernon Blvd-Jackson Av,-73.953581,40.742626,2174.753806781829
12:02:00,1,723,Grand Central-42 St,-73.976041,40.751431,1960.8200985841377
12:02:00,1,724,5 Av,-73.981963,40.753821,2031.1383989941262
12:02:00,1,725,Times Sq-42 St,-73.987691,40.755477,2116.4762181947076
12:02:00,1,726,34 St-Hudson Yards,-74.00191,40.755882,2261.0784079757295
12:02:00,1,901,Grand Central-42 St,-73.979189,40.752769,1900.8200985841377
12:02:00,1,902,Times Sq-42 St,-73.986229,40.755983,1998.650804547126
12:42:00,1,A02,Inwood-207 St,-73.919899,40.868072,3208.0962925819185
12:42:00,1,A03,Dyckman St,-73.927271,40.865491,3108.3574657662757
12:42:00,1,A05,190 St,-73.93418,40.859022,2977.9774547832994
12:42:00,1,A06,181 St,-73.937969,40.851695,2865.092542889026
12:42:00,1,A07,175 St,-73.939704,40.847391,2772.3075373763468
12:02:00,2,A09,168 St,-73.939561,40.840719,2630.009741895257
12:02:00,2,A10,163 St-Amsterdam Av,-73.939892,40.836013,2543.3978015967496
12:02:00,2,A11,155 St,-73.941514,40.830518,2458.5279746592023
12:02:00,1,A12,145 St,-73.944216,40.824783,2300.2908635781823
12:02:00,1,A14,135 St,-73.947649,40.817894,2204.338482625801
12:02:00,1,A15,125 St,-73.952343,40.811109,2333.109047074822
12:02:00,1,A16,116 St,-73.954882,40.805085,2471.0474676996796
12:02:00,1,A17,Cathedral Pkwy (110 St),-73.958161,40.800603,2552.1602610380596
12:02:00,1,A18,103 St,-73.961454,40.796092,2638.589474521206
12:02:00,1,A19,96 St,-73.964696,40.791642,2725.716446722558
12:26:00,1,A20,86 St,-73.968916,40.785868,2654.0681312805714
12:26:00,1,A21,81 St-Museum of Natural History,-73.972143,40.781433,2555.5935293093808
12:26:00,1,A22,72 St,-73.97641,40.775594,2463.730650521502
12:26:00,1,A24,59 St-Columbus Circle,-73.981736,40.768296,2281.0075368760263
12:42:00,1,A25,50 St,-73.985984,40.762456,2219.159386511539
13:18:00,1,A27,42 St-Port Authority Bus Terminal,-73.989735,40.757308,2116.4762181947076
12:02:00,2,A28,34 St-Penn Station,-73.993391,40.752287,2218.272483982736
12:02:00,2,A30,23 St,-73.998041,40.745906,2320.7617476646674
12:02:00,2,A31,14 St,-74.00169,40.740893,2367.047263718419
12:02:00,2,A32,W 4 St-Wash Sq,-74.000495,40.732338,2501.775993000187
12:02:00,2,A33,Spring St,-74.003739,40.726227,2667.686356625479
13:06:00,1,A34,Canal St,-74.005229,40.720824,2683.1175261809653
13:06:00,1,A36,Chambers St,-74.008585,40.714111,2781.266599943628
12:10:00,1,A38,Fulton St,-74.007691,40.710197,2681.9556418254406
12:54:00,1,A40,High St,-73.990531,40.699337,2865.777014680355
12:54:00,1,A41,Jay St-MetroTech,-73.987342,40.692338,2992.405784981979
12:54:00,1,A42,Hoyt-Schermerhorn Sts,-73.985001,40.688484,3111.35181428036
13:34:00,1,A43,Lafayette Av,-73.973946,40.686113,3282.0076784778907
13:34:00,1,A44,Clinton-Washington Avs,-73.965838,40.683263,3366.1692663016756
13:34:00,1,A45,Franklin Av,-73.956848,40.68138,3475.1396874881793
12:54:00,1,A46,Nostrand Av,-73.950426,40.680438,3422.118717195262
13:34:00,1,A47,Kingston-Throop Avs,-73.940858,40.679921,3527.0981289599677
12:54:00,1,A48,Utica Av,-73.930729,40.679364,3597.5743990134433
13:34:00,1,A49,Ralph Av,-73.920786,40.678822,3707.249477877797
13:14:00,1,A50,Rockaway Av,-73.911946,40.67834,3808.9677441316667
12:54:00,1,A51,Broadway Junction,-73.905316,40.678334,3726.39429435323
13:06:00,1,A52,Liberty Av,-73.896548,40.674542,3864.409989420495
13:06:00,1,A53,Van Siclen Av,-73.890358,40.67271,3960.568434861452
13:06:00,1,A54,Shepherd Av,-73.88075,40.67413,4062.066553747832
12:54:00,1,A55,Euclid Av,-73.872106,40.675377,4043.7217490720104
12:54:00,1,A57,Grant Av,-73.86505,40.677044,4173.928430586488
12:54:00,1,A59,80 St,-73.858992,40.679371,4271.435074392745
12:54:00,1,A60,88 St,-73.85147,40.679843,4370.624714803705
12:54:00,1,A61,Rockaway Blvd,-73.843853,40.680429,4464.048632506233
13:30:00,1,A63,104 St,-73.837683,40.681711,4555.0965836832165
13:58:00,1,A64,111 St,-73.832163,40.684331,4646.231962744589
13:58:00,1,A65,Ozone Park-Lefferts Blvd,-73.825798,40.685951,4757.110422431713
12:42:00,1,B04,21 St-Queensbridge,-73.942836,40.754203,2199.237114404062
12:42:00,1,B06,Roosevelt Island,-73.95326,40.759145,2119.646374370902
12:18:00,1,B08,Lexington Av/63 St,-73.966113,40.764629,1999.140014111431
12:46:00,1,B10,57 St,-73.97745,40.763972,2149.140014111431
12:18:00,1,B12,9 Av,-73.994324,40.646292,4095.3204210424024
12:18:00,1,B13,Fort Hamilton Pkwy,-73.994304,40.640914,4200.593963579466
12:18:00,1,B14,50 St,-73.994791,40.63626,4281.353906761284
12:18:00,1,B15,55 St,-73.995476,40.631435,4384.382356263417
12:18:00,1,B16,62 St,-73.996895,40.626472,4449.330738389765
12:18:00,1,B17,71 St,-73.998864,40.619589,4552.228027976071
12:18:00,1,B18,79 St,-74.00061,40.613501,4656.678812569508
12:18:00,1,B19,18 Av,-74.001736,40.607954,4741.16238399808
12:18:00,1,B20,20 Av,-73.998168,40.604556,4826.373963697866
12:18:00,1,B21,Bay Pkwy,-73.993728,40.601875,4907.531896217607
13:18:00,1,B22,25 Av,-73.986829,40.597704,5034.338047862814
13:18:00,1,B23,Bay 50 St,-73.983765,40.588841,5255.7870634832
12:10:00,1,D01,Norwood-205 St,-73.878855,40.874811,2835.045664642354
12:10:00,1,D03,Bedford Park Blvd,-73.887138,40.873244,2675.4481071172113
12:10:00,1,D04,Kingsbridge Rd,-73.893509,40.866978,2556.907722501827
12:10:00,1,D05,Fordham Rd,-73.897749,40.861296,2456.7748365957864
12:10:00,1,D06,182-183 Sts,-73.900741,40.856093,2371.6020493155697
12:10:00,1,D07,Tremont Av,-73.905227,40.85041,2288.0016758328434
12:10:00,1,D08,174-175 Sts,-73.910136,40.8459,2194.791249292559
12:10:00,1,D09,170 St,-73.9134,40.839306,2089.2474397687497
12:10:00,1,D10,167 St,-73.91844,40.833771,1983.1045826258924
13:38:00,1,D11,161 St-Yankee Stadium,-73.925651,40.827905,1853.8444566511673
12:02:00,1,D12,155 St,-73.938209,40.830135,1987.3198328481576
12:02:00,1,D13,145 St,-73.944216,40.824783,2104.959614119518
12:42:00,1,D14,7 Av,-73.981637,40.762862,2182.605355096931
12:46:00,1,D15,47-50 Sts-Rockefeller Ctr,-73.981329,40.758663,2239.140014111431
12:46:00,1,D16,42 St-Bryant Pk,-73.984569,40.754222,2256.1383989941264
12:46:00,1,D17,34 St-Herald Sq,-73.987823,40.749719,2336.061273665467
12:46:00,1,D18,23 St,-73.992821,40.742878,2453.37045087256
12:46:00,1,D19,14 St,-73.996209,40.738228,2533.564905205806
13:30:00,1,D20,W 4 St-Wash Sq,-74.000495,40.732338,2529.3926343440653
13:30:00,1,D21,Broadway-Lafayette St,-73.996204,40.725297,2661.004939487634
13:26:00,1,D22,Grand St,-73.993753,40.718267,2797.691486870007
12:34:00,1,D24,Atlantic Av-Barclays Ctr,-73.97689,40.68446,3349.371683824726
12:34:00,1,D25,7 Av,-73.972367,40.67705,3498.487365058659
12:34:00,1,D26,Prospect Park,-73.962246,40.661614,3706.065764538165
12:34:00,1,D27,Parkside Av,-73.961495,40.655292,3801.9373475006564
12:34:00,1,D28,Church Av,-73.962982,40.650527,3891.3578197924053
12:34:00,1,D29,Beverley Rd,-73.964492,40.644031,3980.656976307643
12:34:00,1,D30,Cortelyou Rd,-73.963891,40.640927,4058.794006263029
12:34:00,1,D31,Newkirk Plaza,-73.962793,40.635082,4070.101819792405
12:34:00,1,D32,Avenue H,-73.961639,40.62927,4183.426598836319
12:34:00,1,D33,Avenue J,-73.960803,40.625039,4280.3111402089935
12:34:00,1,D34,Avenue M,-73.959399,40.617618,4391.117489415343
12:34:00,1,D35,Kings Hwy,-73.957734,40.60867,4335.497192025806
12:34:00,1,D37,Avenue U,-73.955929,40.5993,4554.845435140671
12:34:00,1,D38,Neck Rd,-73.955161,40.595246,4658.943192472471
12:34:00,1,D39,Sheepshead Bay,-73.954155,40.586896,4604.657598117176
12:34:00,1,D40,Brighton Beach,-73.961376,40.577621,4765.964498220163
12:34:00,1,D41,Ocean Pkwy,-73.968501,40.576312,4921.370766626859
12:34:00,1,D42,W 8 St-NY Aquarium,-73.975939,40.576127,4999.864588958295
12:34:00,1,D43,Coney Island-Stillwell Av,-73.981233,40.577422,5115.739588958296
12:38:00,1,E01,World Trade Center,-74.009781,40.712582,2866.893764335012
12:42:00,1,F01,Jamaica-179 St,-73.783817,40.712646,3829.140014111431
12:42:00,1,F02,169 St,-73.793604,40.71047,3739.140014111431
12:42:00,1,F03,Parsons Blvd,-73.803326,40.707564,3619.140014111431
12:42:00,1,F04,Sutphin Blvd,-73.810708,40.70546,3529.140014111431
12:42:00,1,F05,Briarwood,-73.820574,40.709179,3409.140014111431
12:58:00,1,F06,Kew Gardens-Union Tpke,-73.831008,40.714441,3289.140014111431
12:42:00,1,F07,75 Av,-73.837324,40.718331,3199.140014111431
12:46:00,1,F09,Court Sq-23 St,-73.946,40.747846,2184.2454240389266
12:42:00,1,F11,Lexington Av/53 St,-73.969055,40.757552,1982.2837007979872
12:42:00,1,F12,5 Av/53 St,-73.975224,40.760167,2075.792765683483
12:34:00,1,F14,2 Av,-73.989938,40.723402,2748.6179953059877
12:34:00,1,F15,Delancey St-Essex St,-73.988114,40.718611,2847.732524411525
12:34:00,1,F16,East Broadway,-73.990173,40.713715,2931.141831154165
13:14:00,1,F18,York St,-73.986751,40.701397,3096.4818216439417
12:54:00,1,F20,Bergen St,-73.990862,40.686145,3270.9113698470874
12:54:00,1,F21,Carroll St,-73.995048,40.680303,3393.509815449693
12:54:00,1,F22,Smith-9 Sts,-73.995959,40.67358,3544.26920679539
12:54:00,1,F23,4 Av-9 St,-73.989779,40.670272,3627.6358734620567
12:54:00,1,F24,7 Av,-73.980305,40.666271,3547.405784981979
12:54:00,1,F25,15 St-Prospect Park,-73.979493,40.660365,3709.775294881025
12:54:00,1,F26,Fort Hamilton Pkwy,-73.975776,40.650782,3882.547806729366
12:54:00,1,F27,Church Av,-73.979678,40.644041,3787.405784981979
13:30:00,1,F29,Ditmas Av,-73.978172,40.636119,3907.405784981979
13:30:00,1,F30,18 Av,-73.976971,40.629755,4027.405784981979
13:30:00,1,F31,Avenue I,-73.976127,40.625322,4087.405784981979
13:30:00,1,F32,Bay Pkwy,-73.975264,40.620769,4147.405784981979
13:30:00,1,F33,Avenue N,-73.974197,40.61514,4267.405784981979
13:30:00,1,F34,Avenue P,-73.973022,40.608944,4357.405784981979
13:30:00,1,F35,Kings Hwy,-73.972361,40.603217,4561.176435648191
13:54:00,1,F36,Avenue U,-73.973357,40.596063,4669.152626124382
13:54:00,1,F38,Avenue X,-73.97425,40.58962,4771.128816600572
12:34:00,1,F39,Neptune Av,-73.974574,40.581011,4891.962149933905
13:58:00,1,G05,Jamaica Center-Parsons/Archer,-73.801109,40.702147,3843.505285424694
12:58:00,1,G06,Sutphin Blvd-Archer Av-JFK Airport,-73.807969,40.700486,3732.7997709278206
12:58:00,1,G07,Jamaica-Van Wyck,-73.816859,40.702566,3597.3510760583335
12:58:00,1,G08,Forest Hills-71 Av,-73.844521,40.721691,3079.140014111431
12:58:00,1,G09,67 Av,-73.852719,40.726523,3214.6906417264936
12:58:00,1,G10,63 Dr-Rego Park,-73.861604,40.729846,3298.2595795466364
12:58:00,1,G11,Woodhaven Blvd,-73.869229,40.733106,3186.134118292024
12:58:00,1,G12,Grand Av-Newtown,-73.877223,40.737015,3068.0309875369594
12:58:00,1,G13,Elmhurst Av,-73.882017,40.742454,2962.439827315965
12:58:00,1,G14,Jackson Hts-Roosevelt Av,-73.891338,40.746644,2659.140014111431
12:50:00,1,G15,65 St,-73.898453,40.749669,2840.945424038927
13:26:00,1,G16,Northern Blvd,-73.906006,40.752885,2738.6454240389266
13:26:00,1,G18,46 St,-73.913333,40.756312,2648.6454240389266
13:26:00,1,G19,Steinway St,-73.92074,40.756879,2528.6454240389266
13:26:00,1,G20,36 St,-73.928781,40.752039,2408.6454240389266
12:26:00,1,G21,Queens Plaza,-73.937243,40.748973,2288.6454240389266
12:30:00,2,G22,Court Sq,-73.943832,40.746554,2273.159777353011
12:30:00,2,G24,21 St,-73.949724,40.744065,2367.894559961707
12:30:00,2,G26,Greenpoint Av,-73.954449,40.731352,2508.4893393277725
12:30:00,2,G28,Nassau Av,-73.951277,40.724635,2619.439094229733
12:30:00,2,G29,Metropolitan Av,-73.951418,40.712792,2771.5567050671716
12:30:00,2,G30,Broadway,-73.950308,40.706092,2860.513628144095
12:02:00,2,G31,Flushing Av,-73.950234,40.700377,2951.913997147785
13:34:00,1,G32,Myrtle-Willoughby Avs,-73.949046,40.694568,3037.9912503666687
13:34:00,1,G33,Bedford-Nostrand Avs,-73.953522,40.689627,3143.279176063263
13:34:00,1,G34,Classon Av,-73.96007,40.688873,3226.88975298634
13:34:00,1,G35,Clinton-Washington Avs,-73.966839,40.688089,3308.402116413597
13:34:00,1,G36,Fulton St,-73.975375,40.687119,3399.2079583379955
12:10:00,1,H01,Aqueduct Racetrack,-73.834058,40.668234,4674.92713717913
12:54:00,1,H02,Aqueduct-N Conduit Av,-73.834058,40.668234,4736.066673549431
12:54:00,1,H03,Howard Beach-JFK Airport,-73.830301,40.660476,4852.673648237774
12:54:00,1,H04,Broad Channel,-73.815925,40.608382,5318.055204921361
12:54:00,1,H06,Beach 67 St,-73.796924,40.590927,5647.021716549268
12:54:00,1,H07,Beach 60 St,-73.788522,40.592374,5772.878463314517
12:54:00,1,H08,Beach 44 St,-73.776013,40.592943,5882.554689031446
12:54:00,1,H09,Beach 36 St,-73.768175,40.595398,5983.826911253669
12:54:00,1,H10,Beach 25 St,-73.761353,40.600066,6084.267431699765
12:54:00,1,H11,Far Rockaway-Mott Av,-73.755405,40.603995,6174.567018476626
12:34:00,1,H12,Beach 90 St,-73.813641,40.588034,5588.112347778504
12:34:00,1,H13,Beach 98 St,-73.820558,40.585307,5688.21612136341
12:34:00,1,H14,Beach 105 St,-73.827559,40.583209,5777.8923118396
12:34:00,1,H15,Rockaway Park-Beach 116 St,-73.835592,40.580903,5881.44176238905
12:58:00,1,J12,121 St,-73.828294,40.700492,4135.037475845853
12:58:00,1,J13,111 St,-73.836345,40.697418,4158.4526783077745
12:58:00,1,J14,104 St,-73.84433,40.695178,4325.757475845853
12:58:00,1,J15,Woodhaven Blvd,-73.851576,40.693879,4445.452678307774
12:58:00,1,J16,85 St-Forest Pkwy,-73.86001,40.692435,4458.778501664712
12:58:00,1,J17,75 St-Elderts Ln,-73.867139,40.691324,4266.39429435323
12:58:00,1,J19,Cypress Hills,-73.87255,40.689941,4291.1571424414105
12:50:00,2,J20,Crescent St,-73.873785,40.683194,4116.39429435323
12:50:00,2,J21,Norwood Av,-73.880039,40.68141,4026.39429435323
12:50:00,2,J22,Cleveland St,-73.884639,40.679947,4036.247988102918
12:50:00,2,J23,Van Siclen Av,-73.891688,40.678024,3876.39429435323
12:50:00,2,J24,Alabama Av,-73.898654,40.676992,3816.39429435323
12:46:00,1,J27,Broadway Junction,-73.904512,40.679498,3713.0759070832564
13:30:00,2,J28,Chauncey St,-73.910456,40.682893,3786.39429435323
12:46:00,1,J29,Halsey St,-73.916559,40.68637,3745.6376210758344
12:46:00,1,J30,Gates Av,-73.92227,40.68963,3656.1483746219337
12:46:00,1,J31,Kosciuszko St,-73.928814,40.693342,3558.3550412886
12:18:00,1,L01,8 Av,-74.002578,40.739777,2427.047263718419
12:18:00,1,L02,6 Av,-73.996786,40.737335,2371.77129740232
12:18:00,1,L03,14 St-Union Sq,-73.99073,40.734789,2281.767569852337
12:26:00,1,L05,3 Av,-73.986122,40.732849,2355.927397780861
12:26:00,1,L06,1 Av,-73.981628,40.730953,2393.7620719562433
12:26:00,1,L08,Bedford Av,-73.956872,40.717304,2597.8386677009244
12:26:00,1,L10,Lorimer St,-73.950275,40.714063,2697.11471107917
12:26:00,1,L11,Graham Av,-73.944053,40.714565,2739.2202187102243
12:26:00,1,L12,Grand St,-73.94067,40.711926,2824.3179704208796
12:26:00,1,L13,Montrose Av,-73.93985,40.707739,2870.79616756269
12:26:00,1,L14,Morgan Av,-73.933147,40.706152,2934.60278664121
12:26:00,1,L15,Jefferson St,-73.922913,40.706607,3020.031035593161
12:26:00,1,L16,DeKalb Av,-73.918425,40.703811,3087.767686878593
12:26:00,1,L17,Myrtle-Wyckoff Avs,-73.911586,40.699814,3166.525322346573
12:26:00,1,L19,Halsey St,-73.904084,40.695602,3214.808958710209
12:26:00,1,L20,Wilson Av,-73.904046,40.688764,3335.159113190127
12:26:00,1,L21,Bushwick Av-Aberdeen St,-73.905249,40.682829,3427.8330499403996
12:26:00,1,L22,Broadway Junction,-73.90324,40.678856,3488.0759070832564
12:26:00,1,L24,Atlantic Av,-73.903097,40.675345,3592.478237446519
12:26:00,1,L25,Sutter Av,-73.901975,40.669367,3668.977903890815
12:26:00,1,L26,Livonia Av,-73.900571,40.664038,3734.7065044342935
12:26:00,1,L27,New Lots Av,-73.899232,40.658733,3788.52871889465
12:26:00,1,L28,East 105 St,-73.899485,40.650573,3898.7551405312656
13:46:00,1,L29,Canarsie-Rockaway Pkwy,-73.90185,40.646654,4022.5293099974842
12:10:00,2,M01,Middle Village-Metropolitan Av,-73.889601,40.711396,3791.0837299040904
12:10:00,2,M04,Fresh Pond Rd,-73.895877,40.706186,3670.5019438740287
12:10:00,2,M05,Forest Av,-73.903077,40.704423,3572.9823532526257
12:10:00,2,M06,Seneca Av,-73.90774,40.702762,3478.1227163811172
12:50:00,1,M08,Myrtle-Wyckoff Avs,-73.912385,40.69943,3391.525322346573
12:26:00,2,M09,Knickerbocker Av,-73.919711,40.698664,3491.9217131368655
12:50:00,1,M10,Central Av,-73.927397,40.697857,3605.133188855256
12:10:00,1,M11,Myrtle Av,-73.935657,40.697207,3441.1047092832882
12:10:00,1,M12,Flushing Av,-73.941126,40.70026,3406.389371043298
12:10:00,1,M13,Lorimer St,-73.947408,40.703869,3315.1508525247796
12:10:00,1,M14,Hewes St,-73.953431,40.70687,3219.4891535679985
12:10:00,1,M16,Marcy Av,-73.957757,40.708359,3124.406570985416
12:10:00,1,M18,Delancey St-Essex St,-73.987437,40.718315,2750.6032376520825
12:26:00,1,M19,Bowery,-73.993915,40.72028,2669.3182914155236
12:26:00,1,M20,Canal St,-73.999892,40.718092,2554.005283225344
12:02:00,1,M21,Chambers St,-74.003401,40.713243,2460.3621558609057
12:46:00,1,M22,Fulton St,-74.007582,40.710374,2554.3276264093147
12:46:00,1,M23,Broad St,-74.011056,40.706476,2619.2346031535008
12:18:00,1,N02,8 Av,-74.011719,40.635064,4209.314514693949
12:18:00,1,N03,Fort Hamilton Pkwy,-74.005351,40.631386,4328.440549183228
12:18:00,1,N04,New Utrecht Av,-73.996353,40.624842,4445.552097739658
12:18:00,1,N05,18 Av,-73.990414,40.620671,4541.52237515049
12:18:00,1,N06,20 Av,-73.985026,40.61741,4628.958883086998
12:18:00,1,N07,Bay Pkwy,-73.981848,40.611815,4726.730406265805
12:18:00,1,N08,Kings Hwy,-73.980353,40.603923,4854.234736712175
12:18:00,1,N09,Avenue U,-73.979137,40.597473,4969.926993053963
12:18:00,1,N10,86 St,-73.97823,40.592721,5065.549750651123
12:18:00,1,Q01,Canal St,-74.00046,40.718383,2611.471611519755
12:02:00,1,Q03,72 St,-73.958424,40.768799,2123.7488359338336
12:02:00,1,Q04,86 St,-73.951787,40.777891,2263.250037421454
12:18:00,1,Q05,96 St,-73.947152,40.784318,2349.1859565055697
12:18:00,1,R01,Astoria-Ditmars Blvd,-73.912034,40.775036,2859.0720765872848
12:18:00,1,R03,Astoria Blvd,-73.917843,40.770258,2762.7767299586044
12:18:00,1,R04,30 Av,-73.921479,40.766779,2656.0797901757815
12:18:00,1,R05,Broadway,-73.925508,40.76182,2560.698837794829
12:18:00,1,R06,36 Av,-73.929575,40.756804,2433.159247975705
12:18:00,1,R08,39 Av-Dutch Kills,-73.932755,40.752882,2330.672702318746
12:18:00,1,R09,Queensboro Plaza,-73.940202,40.750582,2141.8598970913017
12:26:00,1,R11,Lexington Av/59 St,-73.967258,40.76266,1879.1400141114307
12:18:00,1,R13,5 Av/59 St,-73.973347,40.764811,1980.4855761923532
12:18:00,1,R14,57 St-7 Av,-73.980658,40.764664,2120.6458034650805
12:18:00,1,R15,49 St,-73.984139,40.759901,2210.4811057802403
12:18:00,1,R16,Times Sq-42 St,-73.986754,40.754672,2116.4762181947076
12:18:00,1,R17,34 St-Herald Sq,-73.98795,40.749567,2219.4559680458096
12:26:00,1,R18,28 St,-73.988691,40.745494,2305.833477186102
12:26:00,1,R19,23 St,-73.989344,40.741303,2388.7276183312415
12:02:00,1,R20,14 St-Union Sq,-73.990568,40.735736,2292.8065300707667
12:02:00,1,R21,8 St-NYU,-73.992629,40.730328,2417.27803266144
12:02:00,1,R22,Prince St,-73.997702,40.724329,2509.427488427763
12:02:00,1,R23,Canal St,-74.001775,40.719527,2617.3423167903807
12:02:00,1,R24,City Hall,-74.006978,40.713282,2765.256834107993
12:02:00,1,R25,Cortlandt St,-74.011029,40.710668,2890.2626992106325
12:02:00,1,R26,Rector St,-74.013342,40.70722,2995.6546406025736
12:02:00,1,R27,Whitehall St-South Ferry,-74.012994,40.703087,3091.26923914272
12:02:00,1,R28,Court St,-73.991777,40.6941,3121.9183742707473
12:02:00,1,R29,Jay St-MetroTech,-73.985942,40.69218,3127.405784981979
12:34:00,1,R30,DeKalb Av,-73.981824,40.690635,3195.865024156864
12:18:00,1,R31,Atlantic Av-Barclays Ctr,-73.97881,40.683666,3295.6590200160776
12:30:00,1,R32,Union St,-73.98311,40.677316,3421.2924267385883
12:30:00,1,R33,4 Av-9 St,-73.988302,40.670847,3533.347703120498
12:30:00,1,R34,Prospect Av,-73.992872,40.665414,3643.031120205925
12:30:00,1,R35,25 St,-73.998091,40.660397,3760.257008530798
12:18:00,1,R36,36 St,-74.003549,40.655144,3717.3491716810113
12:30:00,1,R39,45 St,-74.010006,40.648939,3891.027624732537
13:58:00,1,R40,53 St,-74.014034,40.645069,3984.8029870513774
12:18:00,1,R41,59 St,-74.017881,40.641362,4035.791128074647
12:30:00,1,R42,Bay Ridge Av,-74.023377,40.634967,4200.265376860855
12:30:00,1,R43,77 St,-74.02551,40.629742,4282.874043965255
12:30:00,1,R44,86 St,-74.028398,40.622687,4467.3259790464035
12:30:00,1,R45,Bay Ridge-95 St,-74.030876,40.616622,4535.907718176838
12:18:00,1,S01,Franklin Av,-73.955827,40.680596,3535.1396874881793
12:18:00,1,S03,Park Pl,-73.957624,40.674772,3651.479965265957
12:34:00,1,S04,Botanic Garden,-73.959245,40.670343,3641.004005068272
