start_time,ntransfers,stop_id,stop_name,stop_lon,stop_lat,duration
12:03:30,2,101,Van Cortlandt Park-242 St,-73.898583,40.889248,3629.3117798483813
12:03:30,2,103,238 St,-73.90087,40.884667,3522.561031665397
12:03:30,2,104,231 St,-73.904834,40.878856,3427.7259252824188
12:03:30,2,106,Marble Hill-225 St,-73.909831,40.874561,3334.2540587709714
12:03:30,2,107,215 St,-73.915279,40.869444,3226.129495325104
12:03:30,2,108,207 St,-73.918822,40.864621,3147.144700003467
12:03:30,2,109,Dyckman St,-73.925536,40.860531,3049.108072945975
12:03:30,2,110,191 St,-73.929412,40.855225,2958.889025326928
12:03:30,2,111,181 St,-73.933596,40.849505,2863.644436582339
12:39:30,0,112,168 St-Washington Hts,-73.940133,40.840556,2742.7941112027297
12:03:30,2,113,157 St,-73.94489,40.834041,2842.070541012088
12:03:30,2,114,145 St,-73.95036,40.826551,2957.7351883509023
12:39:30,0,115,137 St-City College,-73.953676,40.822008,3058.7779714105395
12:39:30,0,116,125 St,-73.958372,40.815581,2994.0407393695095
12:39:30,0,117,116 St-Columbia University,-73.96411,40.807722,2871.886775371041
12:39:30,0,118,Cathedral Pkwy (110 St),-73.966847,40.803967,2804.401903072416
12:39:30,0,119,103 St,-73.968379,40.799446,2722.471616472881
12:31:30,0,120,96 St,-73.972323,40.793919,2336.854881590194
12:39:30,0,121,86 St,-73.976218,40.788644,2501.726450245905
12:39:30,0,122,79 St,-73.979917,40.783934,2448.3171911615113
12:03:30,2,123,72 St,-73.98197,40.778453,2252.349834668324
12:03:30,2,124,66 St-Lincoln Center,-73.982209,40.77344,2305.6939722271363
12:03:30,2,125,59 St-Columbus Circle,-73.981929,40.768247,2224.596001891461
12:03:30,2,126,50 St,-73.983849,40.761728,2115.968550911069
12:43:30,2,127,Times Sq-42 St,-73.987495,40.75529,2003.771456289946
12:03:30,2,128,34 St-Penn Station,-73.991057,40.750373,2111.1609667794564
12:03:30,2,129,28 St,-73.993365,40.747215,2192.9236764955094
12:03:30,2,130,23 St,-73.995657,40.744081,2261.550906906681
12:03:30,2,131,18 St,-73.997871,40.74104,2329.9914201259658
12:03:30,2,132,14 St,-74.000201,40.737826,2270.164473090817
12:03:30,2,133,Christopher St-Sheridan Sq,-74.002906,40.733422,2503.2733100348282
12:03:30,2,134,Houston St,-74.005367,40.728251,2586.4235854085496
12:03:30,2,135,Canal St,-74.006277,40.722854,2673.698930576202
12:03:30,2,136,Franklin St,-74.006886,40.719318,2738.451421608486
12:03:30,2,137,Chambers St,-74.009266,40.715478,2517.8157658930536
12:03:30,2,138,WTC Cortlandt,-74.012188,40.711835,2801.5158104927928
12:03:30,2,139,Rector St,-74.013783,40.707513,2880.814377371774
12:03:30,2,142,South Ferry,-74.013664,40.702068,2985.534798765615
12:31:30,0,201,Wakefield-241 St,-73.85062,40.903125,3479.1410195307917
12:31:30,0,204,Nereid Av,-73.854376,40.898379,3250.8769711924233
12:31:30,0,205,233 St,-73.857473,40.893193,3118.876971192423
12:31:30,0,206,225 St,-73.860341,40.888022,3022.876971192423
12:31:30,0,207,219 St,-73.862633,40.883895,2940.876971192423
12:31:30,0,208,Gun Hill Rd,-73.866256,40.87785,2832.376971192423
12:31:30,0,209,Burke Av,-73.867164,40.871356,2850.125575587311
12:31:30,0,210,Allerton Av,-73.867352,40.865462,2759.7002882309885
12:31:30,0,211,Pelham Pkwy,-73.867615,40.857192,2647.792242253977
12:31:30,0,212,Bronx Park East,-73.868457,40.848828,2520.642242253977
12:31:30,0,213,E 180 St,-73.873488,40.841894,2276.722543307556
12:31:30,0,214,West Farms Sq-E Tremont Av,-73.880049,40.840295,2284.353128363863
12:31:30,0,215,174 St,-73.887734,40.837288,2162.850308030803
12:31:30,0,216,Freeman St,-73.891865,40.829993,2040.3424192253933
12:31:30,0,217,Simpson St,-73.893064,40.824073,1925.3439972098458
12:31:30,0,218,Intervale Av,-73.896736,40.822181,1841.753862680698
12:31:30,0,219,Prospect Av,-73.90177,40.819585,1753.9901115535563
12:31:30,0,220,Jackson Av,-73.907807,40.81649,1643.0237479171926
12:31:30,0,221,3 Av-149 St,-73.917757,40.816109,1494.6640748926695
12:31:30,0,222,149 St-Grand Concourse,-73.926718,40.81841,1361.817296332843
12:31:30,0,224,135 St,-73.94077,40.814229,1795.6797145324472
12:31:30,0,225,125 St,-73.945495,40.807754,1902.6959746950488
12:31:30,0,226,116 St,-73.949625,40.802098,2005.1939213069586
12:31:30,0,227,Central Park North (110 St),-73.951822,40.799075,2079.95211802827
12:03:30,2,228,Park Place,-74.008811,40.713051,2607.0219219417295
12:03:30,2,229,Fulton St,-74.006571,40.709416,2689.2508799206785
12:31:30,1,230,Wall St,-74.0091,40.706821,2764.6659742603015
12:31:30,1,231,Clark St,-73.993086,40.697466,2953.8795731614
12:31:30,1,232,Borough Hall,-73.989998,40.693219,3069.01461867783
13:43:30,1,233,Hoyt St,-73.985065,40.690545,3050.1563372607825
12:03:30,0,234,Nevins St,-73.980492,40.688246,2909.190262375749
12:03:30,0,235,Atlantic Av-Barclays Ctr,-73.977666,40.684359,3009.4050186339837
12:03:30,0,236,Bergen St,-73.975098,40.680829,3115.196781603617
12:03:30,0,237,Grand Army Plaza,-73.971046,40.675235,3229.2635832230503
12:03:30,0,238,Eastern Pkwy-Brooklyn Museum,-73.964375,40.671987,3332.7175173185447
12:03:30,0,239,Franklin Av-Medgar Evers College,-73.958131,40.670682,3303.29924316351
12:03:30,0,241,President St-Medgar Evers College,-73.950683,40.667883,3471.923121700432
12:03:30,0,242,Sterling St,-73.95085,40.662742,3563.9155926107674
12:03:30,0,243,Winthrop St,-73.9502,40.656652,3652.9692610890284
12:03:30,0,244,Church Av,-73.949575,40.650843,3731.8076368852066
12:03:30,0,245,Beverly Rd,-73.948959,40.645098,3811.0369018885785
12:03:30,0,246,Newkirk Av-Little Haiti,-73.948411,40.639967,3898.225415402092
12:03:30,0,247,Flatbush Av-Brooklyn College,-73.947642,40.632836,4048.8449728610503
12:03:30,0,248,Nostrand Av,-73.950466,40.669847,3417.9514170765533
12:03:30,0,249,Kingston Av,-73.942161,40.669399,3506.4731562069883
12:31:30,0,250,Crown Hts-Utica Av,-73.932942,40.668897,3533.208334072601
12:03:30,0,251,Sutter Av-Rutland Rd,-73.92261,40.664717,3676.3333340726003
12:03:30,0,252,Saratoga Av,-73.916327,40.661453,3791.187500739267
12:03:30,0,253,Rockaway Av,-73.908946,40.662549,3879.791667405934
12:03:30,0,254,Junius St,-73.902447,40.663515,3952.001742529531
12:03:30,0,255,Pennsylvania Av,-73.894895,40.664635,4061.6859349888355
12:03:30,0,256,Van Siclen Av,-73.889395,40.665449,4141.715239264193
12:03:30,0,257,New Lots Av,-73.884079,40.666235,4223.965476929744
12:31:30,0,301,Harlem-148 St,-73.93647,40.82388,2266.7197677828003
12:31:30,0,302,145 St,-73.936245,40.820421,2150.159746055478
12:03:30,0,401,Woodlawn,-73.878751,40.886037,2601.987505905195
12:03:30,0,402,Mosholu Pkwy,-73.884655,40.87975,2479.5805346381203
12:03:30,0,405,Bedford Park Blvd-Lehman College,-73.890064,40.873412,2356.522201304787
12:03:30,0,406,Kingsbridge Rd,-73.897174,40.86776,2246.722108968683
12:03:30,0,407,Fordham Rd,-73.901034,40.862803,2158.5992866690317
12:03:30,0,408,183 St,-73.903879,40.858407,2074.3038419835652
12:03:30,0,409,Burnside Av,-73.907684,40.853453,1974.9811345599849
12:03:30,0,410,176 St,-73.911794,40.84848,1883.912425588431
12:03:30,0,411,Mt Eden Av,-73.914685,40.844434,1803.558268087331
12:03:30,0,412,170 St,-73.917791,40.840075,1721.5547345184266
12:03:30,0,413,167 St,-73.9214,40.835537,1629.7145397419768
12:03:30,0,414,161 St-Yankee Stadium,-73.925831,40.827994,1502.4011216403928
12:03:30,0,415,149 St-Grand Concourse,-73.927351,40.818375,1303.1401368330544
12:31:30,0,416,138 St-Grand Concourse,-73.929849,40.813224,1169.8538197745854
12:03:30,0,418,Fulton St,-74.009509,40.710368,2346.3198465477994
12:03:30,0,419,Wall St,-74.011862,40.707557,2426.134005839835
12:03:30,0,420,Bowling Green,-74.014065,40.704817,2505.4949718972766
12:03:30,0,423,Borough Hall,-73.990151,40.692404,2769.9489059927705
13:51:30,0,501,Eastchester-Dyre Av,-73.830834,40.8883,3026.722543307556
12:31:30,0,502,Baychester Av,-73.838591,40.878663,2876.722543307556
12:31:30,0,503,Gun Hill Rd,-73.846384,40.869526,2726.722543307556
12:31:30,0,504,Pelham Pkwy,-73.855359,40.858985,2576.722543307556
12:31:30,0,505,Morris Park,-73.860495,40.854364,2486.722543307556
12:04:00,0,601,Pelham Bay Park,-73.828121,40.852462,975.2251062917014
12:04:00,0,602,Buhre Av,-73.832569,40.84681,844.301745257537
12:04:00,0,603,Middletown Rd,-73.836322,40.843863,765.5486034262982
12:04:00,0,604,Westchester Sq-E Tremont Av,-73.842952,40.839892,647.6526959529886
12:04:00,0,606,Zerega Av,-73.847036,40.836488,565.34445222539
12:04:00,0,607,Castle Hill Av,-73.851222,40.834255,491.54265850341693
12:00:00,0,608,Parkchester,-73.860816,40.833226,356.7606765214349
12:00:00,0,609,St Lawrence Av,-73.867618,40.831509,256.26220370530785
12:00:00,0,610,Morrison Av-Soundview,-73.874516,40.829521,172.65145743665113
12:00:00,0,611,Elder Av,-73.879159,40.828584,104.5397489539749
12:00:00,0,612,Whitlock Av,-73.886283,40.826525,0.0
12:03:30,0,613,Hunts Point Av,-73.890549,40.820948,118.75828812537674
12:03:30,0,614,Longwood Av,-73.896435,40.816104,229.00663872225473
12:03:30,0,615,E 149 St,-73.904098,40.812118,328.88273384115337
12:03:30,0,616,E 143 St-St Mary's St,-73.907657,40.808719,406.18215244580455
12:03:30,0,617,Cypress Av,-73.914042,40.805368,524.900170158824
12:03:30,0,618,Brook Av,-73.91924,40.807566,596.5989773158817
12:03:30,0,619,3 Av-138 St,-73.926138,40.810476,584.8572187158635
12:03:30,0,621,125 St,-73.937594,40.804138,799.5796848023068
12:03:30,0,622,116 St,-73.941617,40.798629,897.7303697338137
12:03:30,0,623,110 St,-73.94425,40.79502,978.2807053042834
12:03:30,0,624,103 St,-73.947478,40.7906,1057.3204404036212
12:03:30,0,625,96 St,-73.95107,40.785672,1147.0901772457264
12:03:30,0,626,86 St,-73.955589,40.779492,1245.708011640631
12:03:30,0,627,77 St,-73.959874,40.77362,1349.0665022066687
12:03:30,0,628,68 St-Hunter College,-73.96387,40.768141,1439.2040022066687
12:03:30,0,629,59 St,-73.967967,40.762526,1540.0134329839668
12:03:30,0,630,51 St,-73.97192,40.757107,1640.6315712250737
12:03:30,0,631,Grand Central-42 St,-73.976848,40.751776,1706.944680043399
12:03:30,0,632,33 St,-73.982076,40.746081,1891.9186043017773
12:03:30,0,633,28 St,-73.984264,40.74307,1959.6209852541583
12:03:30,0,634,23 St,-73.986599,40.739864,2025.9227604020875
12:03:30,0,635,14 St-Union Sq,-73.989951,40.734673,1955.1017681660046
12:03:30,0,636,Astor Pl,-73.99107,40.730054,2238.651805236396
12:03:30,0,637,Bleecker St,-73.994659,40.725915,2332.1096999732376
12:03:30,0,638,Spring St,-73.997141,40.722301,2403.3662444758556
12:03:30,0,639,Canal St,-74.000193,40.718803,2380.3718698296875
12:03:30,0,640,Brooklyn Bridge-City Hall,-74.004131,40.713065,2227.657393956143
12:03:30,2,701,Flushing-Main St,-73.83003,40.7596,3265.0352863674134
12:03:30,2,702,Mets-Willets Point,-73.845625,40.754622,3100.0126326457303
12:03:30,2,705,111 St,-73.855334,40.75173,3152.1831066691802
12:03:30,2,706,103 St-Corona Plaza,-73.8627,40.749865,3073.2757368246903
12:03:30,2,707,Junction Blvd,-73.869527,40.749145,2872.589997127092
12:03:30,2,708,90 St-Elmhurst Av,-73.876613,40.748408,2964.2324462910956
12:59:30,2,709,82 St-Jackson Hts,-73.883697,40.747659,2859.1717028640787
12:11:30,2,710,74 St-Broadway,-73.891394,40.746848,2720.9260135719637
13:15:30,2,711,69 St,-73.896403,40.746325,2651.9895270854768
12:11:30,2,712,61 St-Woodside,-73.902984,40.74563,2570.0700045594854
12:11:30,2,713,52 St,-73.912549,40.744149,2419.423938149908
12:11:30,2,714,46 St-Bliss St,-73.918435,40.743132,2363.1344644656974
12:11:30,2,715,40 St-Lowery St,-73.924016,40.743781,2304.82878134285
13:59:30,2,716,33 St-Rawson St,-73.930997,40.744587,2220.4367695085307
12:27:30,1,718,Queensboro Plaza,-73.940202,40.750582,2076.1551368554697
12:19:30,2,719,Court Sq,-73.945264,40.747023,2181.6737291845084
12:27:30,1,720,Hunters Point Av,-73.948916,40.742216,2105.026536838482
12:27:30,1,721,Vernon Blvd-Jackson Av,-73.953581,40.742626,2062.049044877067
12:03:30,1,723,Grand Central-42 St,-73.976041,40.751431,1848.1153366793756
12:03:30,1,724,5 Av,-73.981963,40.753821,1918.4336370893645
12:03:30,1,725,Times Sq-42 St,-73.987691,40.755477,2003.771456289946
12:03:30,1,726,34 St-Hudson Yards,-74.00191,40.755882,2148.373646070968
12:03:30,1,901,Grand Central-42 St,-73.979189,40.752769,1788.1153366793756
12:03:30,1,902,Times Sq-42 St,-73.986229,40.755983,1885.946042642364
12:43:30,1,A02,Inwood-207 St,-73.919899,40.868072,3095.391530677157
12:43:30,1,A03,Dyckman St,-73.927271,40.865491,2995.652703861514
12:43:30,1,A05,190 St,-73.93418,40.859022,2865.272692878538
12:43:30,1,A06,181 St,-73.937969,40.851695,2752.3877809842643
12:43:30,1,A07,175 St,-73.939704,40.847391,2659.602775471585
12:03:30,2,A09,168 St,-73.939561,40.840719,2517.304979990495
12:03:30,2,A10,163 St-Amsterdam Av,-73.939892,40.836013,2430.693039691988
12:03:30,2,A11,155 St,-73.941514,40.830518,2345.8232127544406
12:03:30,1,A12,145 St,-73.944216,40.824783,2187.58610167342
12:03:30,1,A14,135 St,-73.947649,40.817894,2091.6337207210395
12:03:30,1,A15,125 St,-73.952343,40.811109,2220.40428517006
12:03:30,1,A16,116 St,-73.954882,40.805085,2358.342705794918
12:03:30,1,A17,Cathedral Pkwy (110 St),-73.958161,40.800603,2439.455499133298
12:03:30,1,A18,103 St,-73.961454,40.796092,2525.884712616444
12:03:30,1,A19,96 St,-73.964696,40.791642,2613.0116848177963
12:27:30,1,A20,86 St,-73.968916,40.785868,2541.3633693758093
12:27:30,1,A21,81 St-Museum of Natural History,-73.972143,40.781433,2442.888767404619
12:27:30,1,A22,72 St,-73.97641,40.775594,2351.0258886167403
12:27:30,1,A24,59 St-Columbus Circle,-73.981736,40.768296,2168.3027749712646
12:43:30,1,A25,50 St,-73.985984,40.762456,2106.4546246067775
13:19:30,1,A27,42 St-Port Authority Bus Terminal,-73.989735,40.757308,2003.771456289946
12:03:30,2,A28,34 St-Penn Station,-73.993391,40.752287,2105.5677220779744
12:03:30,2,A30,23 St,-73.998041,40.745906,2208.0569857599053
12:03:30,2,A31,14 St,-74.00169,40.740893,2254.3425018136572
12:03:30,2,A32,W 4 St-Wash Sq,-74.000495,40.732338,2389.0712310954254
12:03:30,2,A33,Spring St,-74.003739,40.726227,2554.9815947207176
13:07:30,1,A34,Canal St,-74.005229,40.720824,2570.4127642762032
13:07:30,1,A36,Chambers St,-74.008585,40.714111,2668.561838038866
12:11:30,1,A38,Fulton St,-74.007691,40.710197,2569.2508799206785
12:55:30,1,A40,High St,-73.990531,40.699337,2753.0722527755925
12:55:30,1,A41,Jay St-MetroTech,-73.987342,40.692338,2879.701023077217
12:55:30,1,A42,Hoyt-Schermerhorn Sts,-73.985001,40.688484,2998.647052375598
13:35:30,1,A43,Lafayette Av,-73.973946,40.686113,3169.3029165731286
13:35:30,1,A44,Clinton-Washington Avs,-73.965838,40.683263,3253.4645043969135
13:35:30,1,A45,Franklin Av,-73.956848,40.68138,3362.434925583417
12:55:30,1,A46,Nostrand Av,-73.950426,40.680438,3309.4139552905
13:35:30,1,A47,Kingston-Throop Avs,-73.940858,40.679921,3414.3933670552055
12:55:30,1,A48,Utica Av,-73.930729,40.679364,3484.869637108681
13:35:30,1,A49,Ralph Av,-73.920786,40.678822,3594.5447159730347
13:15:30,1,A50,Rockaway Av,-73.911946,40.67834,3696.2629822269046
12:55:30,1,A51,Broadway Junction,-73.905316,40.678334,3613.689532448468
13:07:30,1,A52,Liberty Av,-73.896548,40.674542,3751.705227515733
13:07:30,1,A53,Van Siclen Av,-73.890358,40.67271,3847.8636729566897
13:07:30,1,A54,Shepherd Av,-73.88075,40.67413,3949.36179184307
12:55:30,1,A55,Euclid Av,-73.872106,40.675377,3931.0169871672483
12:55:30,1,A57,Grant Av,-73.86505,40.677044,4061.223668681725
12:55:30,1,A59,80 St,-73.858992,40.679371,4158.730312487983
12:55:30,1,A60,88 St,-73.85147,40.679843,4257.919952898942
12:55:30,1,A61,Rockaway Blvd,-73.843853,40.680429,4351.343870601471
13:31:30,1,A63,104 St,-73.837683,40.681711,4442.391821778455
13:59:30,1,A64,111 St,-73.832163,40.684331,4533.527200839826
13:59:30,1,A65,Ozone Park-Lefferts Blvd,-73.825798,40.685951,4644.405660526951
12:43:30,1,B04,21 St-Queensbridge,-73.942836,40.754203,2086.5323524993
12:43:30,1,B06,Roosevelt Island,-73.95326,40.759145,2006.94161246614
12:19:30,1,B08,Lexington Av/63 St,-73.966113,40.764629,1886.4352522066688
12:47:30,1,B10,57 St,-73.97745,40.763972,2036.4352522066688
12:19:30,1,B12,9 Av,-73.994324,40.646292,3982.6156591376403
12:19:30,1,B13,Fort Hamilton Pkwy,-73.994304,40.640914,4087.889201674704
12:19:30,1,B14,50 St,-73.994791,40.63626,4168.649144856522
12:19:30,1,B15,55 St,-73.995476,40.631435,4271.677594358655
12:19:30,1,B16,62 St,-73.996895,40.626472,4336.625976485004
12:19:30,1,B17,71 St,-73.998864,40.619589,4439.523266071308
12:19:30,1,B18,79 St,-74.00061,40.613501,4543.974050664747
12:19:30,1,B19,18 Av,-74.001736,40.607954,4628.457622093318
12:19:30,1,B20,20 Av,-73.998168,40.604556,4713.669201793104
12:19:30,1,B21,Bay Pkwy,-73.993728,40.601875,4794.827134312845
13:19:30,1,B22,25 Av,-73.986829,40.597704,4921.6332859580525
13:19:30,1,B23,Bay 50 St,-73.983765,40.588841,5143.082301578438
12:11:30,1,D01,Norwood-205 St,-73.878855,40.874811,2722.3409027375924
12:11:30,1,D03,Bedford Park Blvd,-73.887138,40.873244,2562.743345212449
12:11:30,1,D04,Kingsbridge Rd,-73.893509,40.866978,2444.2029605970642
12:11:30,1,D05,Fordham Rd,-73.897749,40.861296,2344.0700746910243
12:11:30,1,D06,182-183 Sts,-73.900741,40.856093,2258.8972874108076
12:11:30,1,D07,Tremont Av,-73.905227,40.85041,2175.2969139280813
12:11:30,1,D08,174-175 Sts,-73.910136,40.8459,2082.0864873877968
12:11:30,1,D09,170 St,-73.9134,40.839306,1976.5426778639874
12:11:30,1,D10,167 St,-73.91844,40.833771,1870.3998207211303
13:39:30,1,D11,161 St-Yankee Stadium,-73.925651,40.827905,1741.1396947464054
12:03:30,1,D12,155 St,-73.938209,40.830135,1874.6150709433957
12:03:30,1,D13,145 St,-73.944216,40.824783,1992.2548522147563
12:43:30,1,D14,7 Av,-73.981637,40.762862,2069.9005931921693
12:47:30,1,D15,47-50 Sts-Rockefeller Ctr,-73.981329,40.758663,2126.435252206669
12:47:30,1,D16,42 St-Bryant Pk,-73.984569,40.754222,2143.4336370893643
12:47:30,1,D17,34 St-Herald Sq,-73.987823,40.749719,2223.3565117607054
12:47:30,1,D18,23 St,-73.992821,40.742878,2340.665688967798
12:47:30,1,D19,14 St,-73.996209,40.738228,2420.8601433010444
13:31:30,1,D20,W 4 St-Wash Sq,-74.000495,40.732338,2416.6878724393036
13:31:30,1,D21,Broadway-Lafayette St,-73.996204,40.725297,2548.300177582872
13:27:30,1,D22,Grand St,-73.993753,40.718267,2684.9867249652443
12:35:30,1,D24,Atlantic Av-Barclays Ctr,-73.97689,40.68446,3236.666921919964
12:35:30,1,D25,7 Av,-73.972367,40.67705,3385.782603153897
12:35:30,1,D26,Prospect Park,-73.962246,40.661614,3593.361002633402
12:35:30,1,D27,Parkside Av,-73.961495,40.655292,3689.2325855958943
12:35:30,1,D28,Church Av,-73.962982,40.650527,3778.6530578876427
12:35:30,1,D29,Beverley Rd,-73.964492,40.644031,3867.952214402881
12:35:30,1,D30,Cortelyou Rd,-73.963891,40.640927,3946.089244358267
12:35:30,1,D31,Newkirk Plaza,-73.962793,40.635082,3957.397057887643
12:35:30,1,D32,Avenue H,-73.961639,40.62927,4070.7218369315565
12:35:30,1,D33,Avenue J,-73.960803,40.625039,4167.606378304232
12:35:30,1,D34,Avenue M,-73.959399,40.617618,4278.412727510581
12:35:30,1,D35,Kings Hwy,-73.957734,40.60867,4222.792430121043
12:35:30,1,D37,Avenue U,-73.955929,40.5993,4442.140673235909
12:35:30,1,D38,Neck Rd,-73.955161,40.595246,4546.238430567709
12:35:30,1,D39,Sheepshead Bay,-73.954155,40.586896,4491.952836212414
12:35:30,1,D40,Brighton Beach,-73.961376,40.577621,4653.2597363154
12:35:30,1,D41,Ocean Pkwy,-73.968501,40.576312,4808.666004722098
12:35:30,1,D42,W 8 St-NY Aquarium,-73.975939,40.576127,4887.159827053533
12:35:30,1,D43,Coney Island-Stillwell Av,-73.981233,40.577422,5003.034827053533
12:39:30,1,E01,World Trade Center,-74.009781,40.712582,2754.1890024302497
12:43:30,1,F01,Jamaica-179 St,-73.783817,40.712646,3716.435252206669
12:43:30,1,F02,169 St,-73.793604,40.71047,3626.435252206669
12:43:30,1,F03,Parsons Blvd,-73.803326,40.707564,3506.435252206669
12:43:30,1,F04,Sutphin Blvd,-73.810708,40.70546,3416.435252206669
12:43:30,1,F05,Briarwood,-73.820574,40.709179,3296.435252206669
12:59:30,1,F06,Kew Gardens-Union Tpke,-73.831008,40.714441,3176.435252206669
12:43:30,1,F07,75 Av,-73.837324,40.718331,3086.435252206669
12:47:30,1,F09,Court Sq-23 St,-73.946,40.747846,2071.5406621341644
12:43:30,1,F11,Lexington Av/53 St,-73.969055,40.757552,1869.5789388932255
12:43:30,1,F12,5 Av/53 St,-73.975224,40.760167,1963.0880037787215
12:35:30,1,F14,2 Av,-73.989938,40.723402,2635.9132334012256
12:35:30,1,F15,Delancey St-Essex St,-73.988114,40.718611,2735.027762506763
12:35:30,1,F16,East Broadway,-73.990173,40.713715,2818.437069249403
13:15:30,1,F18,York St,-73.986751,40.701397,2983.777059739179
12:55:30,1,F20,Bergen St,-73.990862,40.686145,3158.2066079423253
12:55:30,1,F21,Carroll St,-73.995048,40.680303,3280.805053544931
12:55:30,1,F22,Smith-9 Sts,-73.995959,40.67358,3431.564444890628
12:55:30,1,F23,4 Av-9 St,-73.989779,40.670272,3514.9311115572946
12:55:30,1,F24,7 Av,-73.980305,40.666271,3434.701023077217
12:55:30,1,F25,15 St-Prospect Park,-73.979493,40.660365,3597.0705329762627
12:55:30,1,F26,Fort Hamilton Pkwy,-73.975776,40.650782,3769.843044824604
12:55:30,1,F27,Church Av,-73.979678,40.644041,3674.701023077217
13:31:30,1,F29,Ditmas Av,-73.978172,40.636119,3794.701023077217
13:31:30,1,F30,18 Av,-73.976971,40.629755,3914.701023077217
13:31:30,1,F31,Avenue I,-73.976127,40.625322,3974.701023077217
13:31:30,1,F32,Bay Pkwy,-73.975264,40.620769,4034.701023077217
13:31:30,1,F33,Avenue N,-73.974197,40.61514,4154.701023077217
13:31:30,1,F34,Avenue P,-73.973022,40.608944,4244.701023077217
13:31:30,1,F35,Kings Hwy,-73.972361,40.603217,4448.471673743429
13:55:30,1,F36,Avenue U,-73.973357,40.596063,4556.447864219619
13:55:30,1,F38,Avenue X,-73.97425,40.58962,4658.42405469581
12:35:30,1,F39,Neptune Av,-73.974574,40.581011,4779.257388029143
13:59:30,1,G05,Jamaica Center-Parsons/Archer,-73.801109,40.702147,3730.8005235199316
12:59:30,1,G06,Sutphin Blvd-Archer Av-JFK Airport,-73.807969,40.700486,3620.0950090230585
12:59:30,1,G07,Jamaica-Van Wyck,-73.816859,40.702566,3484.6463141535714
12:59:30,1,G08,Forest Hills-71 Av,-73.844521,40.721691,2966.435252206669
12:59:30,1,G09,67 Av,-73.852719,40.726523,3101.9858798217315
12:59:30,1,G10,63 Dr-Rego Park,-73.861604,40.729846,3185.5548176418747
12:59:30,1,G11,Woodhaven Blvd,-73.869229,40.733106,3073.429356387262
12:59:30,1,G12,Grand Av-Newtown,-73.877223,40.737015,2955.3262256321977
12:59:30,1,G13,Elmhurst Av,-73.882017,40.742454,2849.7350654112033
12:59:30,1,G14,Jackson Hts-Roosevelt Av,-73.891338,40.746644,2546.435252206669
12:51:30,1,G15,65 St,-73.898453,40.749669,2728.2406621341643
13:27:30,1,G16,Northern Blvd,-73.906006,40.752885,2625.9406621341645
13:27:30,1,G18,46 St,-73.913333,40.756312,2535.9406621341645
13:27:30,1,G19,Steinway St,-73.92074,40.756879,2415.9406621341645
13:27:30,1,G20,36 St,-73.928781,40.752039,2295.9406621341645
12:27:30,1,G21,Queens Plaza,-73.937243,40.748973,2175.9406621341645
12:31:30,2,G22,Court Sq,-73.943832,40.746554,2160.4550154482495
12:31:30,2,G24,21 St,-73.949724,40.744065,2255.189798056945
12:31:30,2,G26,Greenpoint Av,-73.954449,40.731352,2395.784577423011
12:31:30,2,G28,Nassau Av,-73.951277,40.724635,2506.7343323249715
12:31:30,2,G29,Metropolitan Av,-73.951418,40.712792,2658.85194316241
12:31:30,2,G30,Broadway,-73.950308,40.706092,2747.808866239333
12:03:30,2,G31,Flushing Av,-73.950234,40.700377,2839.209235243023
13:35:30,1,G32,Myrtle-Willoughby Avs,-73.949046,40.694568,2925.286488461907
13:35:30,1,G33,Bedford-Nostrand Avs,-73.953522,40.689627,3030.5744141585014
13:35:30,1,G34,Classon Av,-73.96007,40.688873,3114.1849910815786
13:35:30,1,G35,Clinton-Washington Avs,-73.966839,40.688089,3195.6973545088354
13:35:30,1,G36,Fulton St,-73.975375,40.687119,3286.503196433234
12:11:30,1,H01,Aqueduct Racetrack,-73.834058,40.668234,4562.2223752743685
12:55:30,1,H02,Aqueduct-N Conduit Av,-73.834058,40.668234,4623.361911644668
12:55:30,1,H03,Howard Beach-JFK Airport,-73.830301,40.660476,4739.968886333011
12:55:30,1,H04,Broad Channel,-73.815925,40.608382,5205.350443016599
12:55:30,1,H06,Beach 67 St,-73.796924,40.590927,5534.316954644505
12:55:30,1,H07,Beach 60 St,-73.788522,40.592374,5660.173701409755
12:55:30,1,H08,Beach 44 St,-73.776013,40.592943,5769.849927126685
12:55:30,1,H09,Beach 36 St,-73.768175,40.595398,5871.1221493489065
12:55:30,1,H10,Beach 25 St,-73.761353,40.600066,5971.562669795004
12:55:30,1,H11,Far Rockaway-Mott Av,-73.755405,40.603995,6061.862256571863
12:35:30,1,H12,Beach 90 St,-73.813641,40.588034,5475.4075858737415
12:35:30,1,H13,Beach 98 St,-73.820558,40.585307,5575.511359458647
12:35:30,1,H14,Beach 105 St,-73.827559,40.583209,5665.187549934838
12:35:30,1,H15,Rockaway Park-Beach 116 St,-73.835592,40.580903,5768.737000484288
12:59:30,1,J12,121 St,-73.828294,40.700492,4022.3327139410912
12:59:30,1,J13,111 St,-73.836345,40.697418,4045.747916403011
12:59:30,1,J14,104 St,-73.84433,40.695178,4213.0527139410915
12:59:30,1,J15,Woodhaven Blvd,-73.851576,40.693879,4332.747916403011
12:59:30,1,J16,85 St-Forest Pkwy,-73.86001,40.692435,4346.07373975995
12:59:30,1,J17,75 St-Elderts Ln,-73.867139,40.691324,4153.6895324484685
12:59:30,1,J19,Cypress Hills,-73.87255,40.689941,4178.452380536648
12:51:30,2,J20,Crescent St,-73.873785,40.683194,4003.6895324484685
12:51:30,2,J21,Norwood Av,-73.880039,40.68141,3913.6895324484685
12:51:30,2,J22,Cleveland St,-73.884639,40.679947,3923.543226198156
12:51:30,2,J23,Van Siclen Av,-73.891688,40.678024,3763.689532448468
12:51:30,2,J24,Alabama Av,-73.898654,40.676992,3703.689532448468
12:47:30,1,J27,Broadway Junction,-73.904512,40.679498,3600.3711451784943
13:31:30,2,J28,Chauncey St,-73.910456,40.682893,3673.689532448468
12:47:30,1,J29,Halsey St,-73.916559,40.68637,3632.9328591710723
12:47:30,1,J30,Gates Av,-73.92227,40.68963,3543.443612717171
12:47:30,1,J31,Kosciuszko St,-73.928814,40.693342,3445.650279383838
12:19:30,1,L01,8 Av,-74.002578,40.739777,2314.3425018136572
12:19:30,1,L02,6 Av,-73.996786,40.737335,2259.066535497558
12:19:30,1,L03,14 St-Union Sq,-73.99073,40.734789,2169.062807947575
12:27:30,1,L05,3 Av,-73.986122,40.732849,2243.222635876099
12:27:30,1,L06,1 Av,-73.981628,40.730953,2281.057310051481
12:27:30,1,L08,Bedford Av,-73.956872,40.717304,2485.1339057961623
12:27:30,1,L10,Lorimer St,-73.950275,40.714063,2584.4099491744073
12:27:30,1,L11,Graham Av,-73.944053,40.714565,2626.5154568054622
12:27:30,1,L12,Grand St,-73.94067,40.711926,2711.6132085161175
12:27:30,1,L13,Montrose Av,-73.93985,40.707739,2758.0914056579277
12:27:30,1,L14,Morgan Av,-73.933147,40.706152,2821.898024736448
12:27:30,1,L15,Jefferson St,-73.922913,40.706607,2907.326273688399
12:27:30,1,L16,DeKalb Av,-73.918425,40.703811,2975.062924973831
12:27:30,1,L17,Myrtle-Wyckoff Avs,-73.911586,40.699814,3053.820560441811
12:27:30,1,L19,Halsey St,-73.904084,40.695602,3102.104196805447
12:27:30,1,L20,Wilson Av,-73.904046,40.688764,3222.4543512853647
12:27:30,1,L21,Bushwick Av-Aberdeen St,-73.905249,40.682829,3315.1282880356375
12:27:30,1,L22,Broadway Junction,-73.90324,40.678856,3375.3711451784943
12:27:30,1,L24,Atlantic Av,-73.903097,40.675345,3479.773475541757
12:27:30,1,L25,Sutter Av,-73.901975,40.669367,3556.273141986053
12:27:30,1,L26,Livonia Av,-73.900571,40.664038,3622.0017425295314
12:27:30,1,L27,New Lots Av,-73.899232,40.658733,3675.823956989888
12:27:30,1,L28,East 105 St,-73.899485,40.650573,3786.0503786265035
13:47:30,1,L29,Canarsie-Rockaway Pkwy,-73.90185,40.646654,3909.824548092722
12:11:30,2,M01,Middle Village-Metropolitan Av,-73.889601,40.711396,3678.3789679993283
12:11:30,2,M04,Fresh Pond Rd,-73.895877,40.706186,3557.7971819692666
12:11:30,2,M05,Forest Av,-73.903077,40.704423,3460.2775913478636
12:11:30,2,M06,Seneca Av,-73.90774,40.702762,3365.417954476355
12:51:30,1,M08,Myrtle-Wyckoff Avs,-73.912385,40.69943,3278.820560441811
12:27:30,2,M09,Knickerbocker Av,-73.919711,40.698664,3379.216951232103
12:51:30,1,M10,Central Av,-73.927397,40.697857,3492.4284269504938
12:11:30,1,M11,Myrtle Av,-73.935657,40.697207,3328.399947378526
12:11:30,1,M12,Flushing Av,-73.941126,40.70026,3293.684609138536
12:11:30,1,M13,Lorimer St,-73.947408,40.703869,3202.4460906200175
12:11:30,1,M14,Hewes St,-73.953431,40.70687,3106.7843916632364
12:11:30,1,M16,Marcy Av,-73.957757,40.708359,3011.7018090806537
12:11:30,1,M18,Delancey St-Essex St,-73.987437,40.718315,2637.8984757473204
12:27:30,1,M19,Bowery,-73.993915,40.72028,2556.6135295107615
12:27:30,1,M20,Canal St,-73.999892,40.718092,2441.300521320582
12:03:30,1,M21,Chambers St,-74.003401,40.713243,2347.657393956143
12:47:30,1,M22,Fulton St,-74.007582,40.710374,2441.6228645045526
12:47:30,1,M23,Broad St,-74.011056,40.706476,2506.5298412487386
12:19:30,1,N02,8 Av,-74.011719,40.635064,4096.609752789186
12:19:30,1,N03,Fort Hamilton Pkwy,-74.005351,40.631386,4215.735787278465
12:19:30,1,N04,New Utrecht Av,-73.996353,40.624842,4332.847335834896
12:19:30,1,N05,18 Av,-73.990414,40.620671,4428.817613245727
12:19:30,1,N06,20 Av,-73.985026,40.61741,4516.254121182235
12:19:30,1,N07,Bay Pkwy,-73.981848,40.611815,4614.025644361043
12:19:30,1,N08,Kings Hwy,-73.980353,40.603923,4741.529974807412
12:19:30,1,N09,Avenue U,-73.979137,40.597473,4857.2222311492005
12:19:30,1,N10,86 St,-73.97823,40.592721,4952.84498874636
12:19:30,1,Q01,Canal St,-74.00046,40.718383,2498.7668496149927
12:03:30,1,Q03,72 St,-73.958424,40.768799,2011.0440740290715
12:03:30,1,Q04,86 St,-73.951787,40.777891,2150.545275516692
12:19:30,1,Q05,96 St,-73.947152,40.784318,2236.4811946008076
12:19:30,1,R01,Astoria-Ditmars Blvd,-73.912034,40.775036,2746.3673146825226
12:19:30,1,R03,Astoria Blvd,-73.917843,40.770258,2650.0719680538427
12:19:30,1,R04,30 Av,-73.921479,40.766779,2543.37502827102
12:19:30,1,R05,Broadway,-73.925508,40.76182,2447.994075890067
12:19:30,1,R06,36 Av,-73.929575,40.756804,2320.454486070943
12:19:30,1,R08,39 Av-Dutch Kills,-73.932755,40.752882,2217.967940413984
12:19:30,1,R09,Queensboro Plaza,-73.940202,40.750582,2029.1551351865396
12:27:30,1,R11,Lexington Av/59 St,-73.967258,40.76266,1766.4352522066688
12:19:30,1,R13,5 Av/59 St,-73.973347,40.764811,1867.7808142875913
12:19:30,1,R14,57 St-7 Av,-73.980658,40.764664,2007.9410415603184
12:19:30,1,R15,49 St,-73.984139,40.759901,2097.7763438754787
12:19:30,1,R16,Times Sq-42 St,-73.986754,40.754672,2003.771456289946
12:19:30,1,R17,34 St-Herald Sq,-73.98795,40.749567,2106.751206141048
12:27:30,1,R18,28 St,-73.988691,40.745494,2193.12871528134
12:27:30,1,R19,23 St,-73.989344,40.741303,2276.0228564264803
12:03:30,1,R20,14 St-Union Sq,-73.990568,40.735736,2180.1017681660046
12:03:30,1,R21,8 St-NYU,-73.992629,40.730328,2304.573270756678
12:03:30,1,R22,Prince St,-73.997702,40.724329,2396.722726523001
12:03:30,1,R23,Canal St,-74.001775,40.719527,2504.637554885618
12:03:30,1,R24,City Hall,-74.006978,40.713282,2652.5520722032306
12:03:30,1,R25,Cortlandt St,-74.011029,40.710668,2777.5579373058704
12:03:30,1,R26,Rector St,-74.013342,40.70722,2882.9498786978115
12:03:30,1,R27,Whitehall St-South Ferry,-74.012994,40.703087,2978.564477237958
12:03:30,1,R28,Court St,-73.991777,40.6941,3009.213612365985
12:03:30,1,R29,Jay St-MetroTech,-73.985942,40.69218,3014.701023077217
12:35:30,1,R30,DeKalb Av,-73.981824,40.690635,3083.160262252102
12:19:30,1,R31,Atlantic Av-Barclays Ctr,-73.97881,40.683666,3182.9542581113155
12:31:30,1,R32,Union St,-73.98311,40.677316,3308.5876648338262
12:31:30,1,R33,4 Av-9 St,-73.988302,40.670847,3420.642941215736
12:31:30,1,R34,Prospect Av,-73.992872,40.665414,3530.326358301163
12:31:30,1,R35,25 St,-73.998091,40.660397,3647.552246626036
12:19:30,1,R36,36 St,-74.003549,40.655144,3604.644409776249
12:31:30,1,R39,45 St,-74.010006,40.648939,3778.3228628277748
13:59:30,1,R40,53 St,-74.014034,40.645069,3872.0982251466153
12:19:30,1,R41,59 St,-74.017881,40.641362,3923.086366169885
12:31:30,1,R42,Bay Ridge Av,-74.023377,40.634967,4087.560614956093
12:31:30,1,R43,77 St,-74.02551,40.629742,4170.169282060492
12:31:30,1,R44,86 St,-74.028398,40.622687,4354.621217141641
12:31:30,1,R45,Bay Ridge-95 St,-74.030876,40.616622,4423.202956272075
12:19:30,1,S01,Franklin Av,-73.955827,40.680596,3422.434925583417
12:19:30,1,S03,Park Pl,-73.957624,40.674772,3538.775203361195
12:35:30,1,S04,Botanic Garden,-73.959245,40.670343,3528.29924316351
