start_time,ntransfers,stop_id,stop_name,stop_lon,stop_lat,duration
12:05:00,2,101,Van Cortlandt Park-242 St,-73.898583,40.889248,2629.0078989909935
12:05:00,2,103,238 St,-73.90087,40.884667,2522.2571508080096
12:05:00,2,104,231 St,-73.904834,40.878856,2427.422044425031
12:05:00,2,106,Marble Hill-225 St,-73.909831,40.874561,2333.9501779135835
12:05:00,2,107,215 St,-73.915279,40.869444,2225.825614467716
12:05:00,2,108,207 St,-73.918822,40.864621,2146.840819146079
12:05:00,2,109,Dyckman St,-73.925536,40.860531,2048.804192088588
12:05:00,2,110,191 St,-73.929412,40.855225,1958.5851444695404
12:05:00,2,111,181 St,-73.933596,40.849505,1863.3405557249516
12:05:00,2,112,168 St-Washington Hts,-73.940133,40.840556,1742.4902303453418
12:05:00,2,113,157 St,-73.94489,40.834041,1722.8744917514466
12:05:00,2,114,145 St,-73.95036,40.826551,1607.2098444126323
12:05:00,2,115,137 St-City College,-73.953676,40.822008,1506.1670613529952
12:05:00,2,116,125 St,-73.958372,40.815581,1407.40592943456
12:05:00,2,117,116 St-Columbia University,-73.96411,40.807722,1289.249860070398
12:05:00,2,118,Cathedral Pkwy (110 St),-73.966847,40.803967,1211.219046594638
12:05:00,2,119,103 St,-73.968379,40.799446,1131.9008647764563
12:05:00,2,120,96 St,-73.972323,40.793919,831.8239194391821
12:09:00,2,121,86 St,-73.976218,40.788644,917.7612629029202
12:09:00,2,122,79 St,-73.979917,40.783934,835.9289748307781
12:05:00,2,123,72 St,-73.98197,40.778453,639.9616183375908
12:20:30,2,124,66 St-Lincoln Center,-73.982209,40.77344,693.3057558964028
12:20:30,2,125,59 St-Columbus Circle,-73.981929,40.768247,612.2077855607276
12:20:30,2,126,50 St,-73.983849,40.761728,503.58033458033543
12:05:00,2,127,Times Sq-42 St,-73.987495,40.75529,391.3832399592125
12:25:00,2,128,34 St-Penn Station,-73.991057,40.750373,498.772750448723
12:25:00,2,129,28 St,-73.993365,40.747215,580.5354601647755
12:25:00,2,130,23 St,-73.995657,40.744081,649.162690575947
12:25:00,2,131,18 St,-73.997871,40.74104,717.6032037952315
12:25:00,2,132,14 St,-74.000201,40.737826,657.7762567600835
12:01:00,2,133,Christopher St-Sheridan Sq,-74.002906,40.733422,890.8850937040942
12:01:00,2,134,Houston St,-74.005367,40.728251,974.0353690778157
12:01:00,2,135,Canal St,-74.006277,40.722854,1061.3107142454687
12:01:00,2,136,Franklin St,-74.006886,40.719318,1126.0632052777526
12:01:00,2,137,Chambers St,-74.009266,40.715478,905.4275495623195
12:01:00,2,138,WTC Cortlandt,-74.012188,40.711835,1189.1275941620588
12:01:00,2,139,Rector St,-74.013783,40.707513,1268.4261610410397
12:01:00,2,142,South Ferry,-74.013664,40.702068,1373.1465824348809
12:17:00,0,201,Wakefield-241 St,-73.85062,40.903125,3279.990038960187
12:17:00,0,204,Nereid Av,-73.854376,40.898379,3051.7259906218187
12:17:00,0,205,233 St,-73.857473,40.893193,2919.7259906218187
12:17:00,0,206,225 St,-73.860341,40.888022,2823.7259906218187
12:17:00,0,207,219 St,-73.862633,40.883895,2741.7259906218187
12:17:00,0,208,Gun Hill Rd,-73.866256,40.87785,2633.2259906218187
12:17:00,0,209,Burke Av,-73.867164,40.871356,2664.326638198165
12:17:00,0,210,Allerton Av,-73.867352,40.865462,2573.9013508418425
12:17:00,0,211,Pelham Pkwy,-73.867615,40.857192,2461.993304864831
12:17:00,0,212,Bronx Park East,-73.868457,40.848828,2334.843304864831
12:17:00,0,213,E 180 St,-73.873488,40.841894,2138.577920249447
12:17:00,0,214,West Farms Sq-E Tremont Av,-73.880049,40.840295,2089.7386915782904
12:17:00,0,215,174 St,-73.887734,40.837288,1963.6993274601982
12:17:00,0,216,Freeman St,-73.891865,40.829993,1841.1914386547887
12:17:00,0,217,Simpson St,-73.893064,40.824073,1727.9787520876246
12:01:00,0,218,Intervale Av,-73.896736,40.822181,1653.3143175638152
12:01:00,0,219,Prospect Av,-73.90177,40.819585,1568.1911741644103
12:17:00,0,220,Jackson Av,-73.907807,40.81649,1457.2248105280466
12:01:00,0,221,3 Av-149 St,-73.917757,40.816109,1308.8651375035236
12:01:00,0,222,149 St-Grand Concourse,-73.926718,40.81841,1176.018358943697
12:01:00,0,224,135 St,-73.94077,40.814229,1385.84594576601
12:05:00,2,225,125 St,-73.945495,40.807754,1275.7988139624088
12:05:00,2,226,116 St,-73.949625,40.802098,1175.9407892710506
12:05:00,2,227,Central Park North (110 St),-73.951822,40.799075,1097.0589595378867
12:01:00,2,228,Park Place,-74.008811,40.713051,994.6337056109952
12:01:00,1,229,Fulton St,-74.006571,40.709416,1109.506356967989
12:05:00,1,230,Wall St,-74.0091,40.706821,1184.9214513076115
12:05:00,1,231,Clark St,-73.993086,40.697466,1374.1350502087105
12:05:00,1,232,Borough Hall,-73.989998,40.693219,1490.868611852546
12:01:00,0,233,Hoyt St,-73.985065,40.690545,1579.6716214284695
12:01:00,0,234,Nevins St,-73.980492,40.688246,1483.2426440286367
12:01:00,0,235,Atlantic Av-Barclays Ctr,-73.977666,40.684359,1581.4691334427184
12:01:00,0,236,Bergen St,-73.975098,40.680829,1689.2491632565052
12:01:00,0,237,Grand Army Plaza,-73.971046,40.675235,1792.5312935366192
12:01:00,0,238,Eastern Pkwy-Brooklyn Museum,-73.964375,40.671987,1895.6752329305586
12:01:00,0,239,Franklin Av-Medgar Evers College,-73.958131,40.670682,1900.0331305847603
12:01:00,0,241,President St-Medgar Evers College,-73.950683,40.667883,2091.5637404005147
12:01:00,0,242,Sterling St,-73.95085,40.662742,2183.5562113108504
12:01:00,0,243,Winthrop St,-73.9502,40.656652,2272.6098797891113
12:01:00,0,244,Church Av,-73.949575,40.650843,2351.4482555852896
12:01:00,0,245,Beverly Rd,-73.948959,40.645098,2430.6775205886615
12:01:00,0,246,Newkirk Av-Little Haiti,-73.948411,40.639967,2517.8660341021746
12:01:00,0,247,Flatbush Av-Brooklyn College,-73.947642,40.632836,2668.485591561133
12:01:00,0,248,Nostrand Av,-73.950466,40.669847,2021.5325929519847
12:01:00,0,249,Kingston Av,-73.942161,40.669399,2108.9836970529313
12:05:00,0,250,Crown Hts-Utica Av,-73.932942,40.668897,2124.449648974768
12:05:00,0,251,Sutter Av-Rutland Rd,-73.92261,40.664717,2273.075937634562
12:05:00,0,252,Saratoga Av,-73.916327,40.661453,2377.3021587142534
12:05:00,0,253,Rockaway Av,-73.908946,40.662549,2465.178765398058
12:05:00,0,254,Junius St,-73.902447,40.663515,2497.2515011699093
12:05:00,0,255,Pennsylvania Av,-73.894895,40.664635,2606.935693629214
12:05:00,0,256,Van Siclen Av,-73.889395,40.665449,2686.9649979045703
12:05:00,0,257,New Lots Av,-73.884079,40.666235,2781.934085584607
12:01:00,0,301,Harlem-148 St,-73.93647,40.82388,1667.7397698495981
12:01:00,0,302,145 St,-73.936245,40.820421,1528.556376845325
12:05:00,0,401,Woodlawn,-73.878751,40.886037,2433.4607899354255
12:05:00,0,402,Mosholu Pkwy,-73.884655,40.87975,2311.0538186683507
12:05:00,0,405,Bedford Park Blvd-Lehman College,-73.890064,40.873412,2187.9954853350173
12:05:00,0,406,Kingsbridge Rd,-73.897174,40.86776,2078.195392998914
12:05:00,0,407,Fordham Rd,-73.901034,40.862803,1990.0725706992623
12:05:00,0,408,183 St,-73.903879,40.858407,1905.7771260137959
12:05:00,0,409,Burnside Av,-73.907684,40.853453,1806.454418590215
12:05:00,0,410,176 St,-73.911794,40.84848,1715.3857096186616
12:05:00,0,411,Mt Eden Av,-73.914685,40.844434,1635.0315521175617
12:05:00,0,412,170 St,-73.917791,40.840075,1553.028018548657
12:05:00,0,413,167 St,-73.9214,40.835537,1461.1878237722071
12:05:00,0,414,161 St-Yankee Stadium,-73.925831,40.827994,1326.8359351433153
12:05:00,0,415,149 St-Grand Concourse,-73.927351,40.818375,1134.613420863285
12:01:00,0,416,138 St-Grand Concourse,-73.929849,40.813224,1001.327103804816
12:01:00,0,418,Fulton St,-74.009509,40.710368,913.6915962728252
12:01:00,0,419,Wall St,-74.011862,40.707557,992.351009707073
12:01:00,0,420,Bowling Green,-74.014065,40.704817,1071.936604181666
12:01:00,0,423,Borough Hall,-73.990151,40.692404,1345.8264304843956
13:53:00,0,501,Eastchester-Dyre Av,-73.830834,40.8883,2854.501107941996
12:17:00,0,502,Baychester Av,-73.838591,40.878663,2723.827182760533
12:17:00,0,503,Gun Hill Rd,-73.846384,40.869526,2594.815141162285
12:17:00,0,504,Pelham Pkwy,-73.855359,40.858985,2457.821745455075
12:17:00,0,505,Morris Park,-73.860495,40.854364,2370.339372763413
13:57:00,0,601,Pelham Bay Park,-73.828121,40.852462,2404.7948755815232
13:57:00,0,602,Buhre Av,-73.832569,40.84681,2227.531717686786
13:57:00,0,603,Middletown Rd,-73.836322,40.843863,2157.23861423851
13:57:00,0,604,Westchester Sq-E Tremont Av,-73.842952,40.839892,2025.0621436502747
13:57:00,0,606,Zerega Av,-73.847036,40.836488,1938.0121436502745
13:57:00,0,607,Castle Hill Av,-73.851222,40.834255,1868.7662420109305
12:45:00,0,608,Parkchester,-73.860816,40.833226,1683.352448907482
12:45:00,0,609,St Lawrence Av,-73.867618,40.831509,1927.2127815702802
12:45:00,0,610,Morrison Av-Soundview,-73.874516,40.829521,1826.061737589827
12:45:00,0,611,Elder Av,-73.879159,40.828584,1753.3363331298358
12:45:00,0,612,Whitlock Av,-73.886283,40.826525,1640.631571225074
12:45:00,0,613,Hunts Point Av,-73.890549,40.820948,1410.9524489074822
12:01:00,0,614,Longwood Av,-73.896435,40.816104,1542.7709204240184
12:01:00,0,615,E 149 St,-73.904098,40.812118,1440.000138328593
12:01:00,0,616,E 143 St-St Mary's St,-73.907657,40.808719,1363.3260422414212
12:01:00,0,617,Cypress Av,-73.914042,40.805368,1260.2823914477704
12:01:00,0,618,Brook Av,-73.91924,40.807566,1185.9452064567765
12:01:00,0,619,3 Av-138 St,-73.926138,40.810476,1043.3070588365601
12:01:00,0,621,125 St,-73.937594,40.804138,832.5715627369516
12:01:00,0,622,116 St,-73.941617,40.798629,742.90120149126
12:01:00,0,623,110 St,-73.94425,40.79502,662.3508659207902
12:01:00,0,624,103 St,-73.947478,40.7906,583.3111308214525
12:01:00,0,625,96 St,-73.95107,40.785672,493.5413939793471
12:01:00,0,626,86 St,-73.955589,40.779492,394.92355958444267
12:01:00,0,627,77 St,-73.959874,40.77362,291.5650690184049
12:01:00,0,628,68 St-Hunter College,-73.96387,40.768141,201.4275690184049
12:01:00,0,629,59 St,-73.967967,40.762526,99.1963190184049
12:01:00,0,630,51 St,-73.97192,40.757107,0.0
12:00:30,0,631,Grand Central-42 St,-73.976848,40.751776,115.7271203486423
12:00:30,0,632,33 St,-73.982076,40.746081,231.69778613638127
12:00:30,0,633,28 St,-73.984264,40.74307,301.5192498712024
12:00:30,0,634,23 St,-73.986599,40.739864,368.75700297374976
12:01:00,0,635,14 St-Union Sq,-73.989951,40.734673,500.351526806382
12:01:00,0,636,Astor Pl,-73.99107,40.730054,587.8017876231243
12:01:00,0,637,Bleecker St,-73.994659,40.725915,683.6410148660844
12:01:00,0,638,Spring St,-73.997141,40.722301,754.1667880619607
12:01:00,0,639,Canal St,-74.000193,40.718803,828.2497491340731
12:01:00,0,640,Brooklyn Bridge-City Hall,-74.004131,40.713065,797.4284133749629
12:01:00,2,701,Flushing-Main St,-73.83003,40.7596,1802.975272204445
12:01:00,2,702,Mets-Willets Point,-73.845625,40.754622,1637.9526184827623
12:01:00,2,705,111 St,-73.855334,40.75173,1702.173053945268
12:01:00,2,706,103 St-Corona Plaza,-73.8627,40.749865,1623.2656841007788
12:01:00,2,707,Junction Blvd,-73.869527,40.749145,1419.0915706467713
12:01:00,2,708,90 St-Elmhurst Av,-73.876613,40.748408,1479.2120155537064
12:01:00,2,709,82 St-Jackson Hts,-73.883697,40.747659,1374.151272126689
12:16:30,1,710,74 St-Broadway,-73.891394,40.746848,1247.1965213886313
12:37:00,2,711,69 St,-73.896403,40.746325,1178.2600349021448
12:16:30,1,712,61 St-Woodside,-73.902984,40.74563,1096.3405123761534
12:16:30,1,713,52 St,-73.912549,40.744149,978.5224701422105
12:16:30,1,714,46 St-Bliss St,-73.918435,40.743132,922.2329964579999
12:16:30,1,715,40 St-Lowery St,-73.924016,40.743781,863.9273133351527
12:13:00,2,716,33 St-Rawson St,-73.930997,40.744587,779.535301500833
12:16:30,1,718,Queensboro Plaza,-73.940202,40.750582,635.2536688477719
12:16:30,1,719,Court Sq,-73.945264,40.747023,559.0476184231894
12:16:30,1,720,Hunters Point Av,-73.948916,40.742216,492.6383205077487
12:16:30,1,721,Vernon Blvd-Jackson Av,-73.953581,40.742626,449.66082854633396
12:12:30,1,723,Grand Central-42 St,-73.976041,40.751431,235.7271203486423
12:12:30,1,724,5 Av,-73.981963,40.753821,306.0454207586311
12:12:30,1,725,Times Sq-42 St,-73.987691,40.755477,391.3832399592125
12:12:30,1,726,34 St-Hudson Yards,-74.00191,40.755882,535.9854297402344
12:16:30,1,901,Grand Central-42 St,-73.979189,40.752769,175.7271203486423
12:16:30,1,902,Times Sq-42 St,-73.986229,40.755983,273.55782631163066
13:49:00,1,A02,Inwood-207 St,-73.919899,40.868072,2087.3838309142507
13:49:00,1,A03,Dyckman St,-73.927271,40.865491,1987.6450040986078
13:49:00,1,A05,190 St,-73.93418,40.859022,1857.2649931156313
13:49:00,1,A06,181 St,-73.937969,40.851695,1744.3800812213583
13:49:00,1,A07,175 St,-73.939704,40.847391,1651.5950757086791
12:05:00,1,A09,168 St,-73.939561,40.840719,1517.0010991331073
13:49:00,1,A10,163 St-Amsterdam Av,-73.939892,40.836013,1550.6135742895465
13:49:00,1,A11,155 St,-73.941514,40.830518,1465.7437473519994
12:05:00,1,A12,145 St,-73.944216,40.824783,1271.1896010678781
12:57:00,1,A14,135 St,-73.947649,40.817894,1182.320548023654
12:05:00,1,A15,125 St,-73.952343,40.811109,1056.9249924680985
12:57:00,1,A16,116 St,-73.954882,40.805085,1194.8634130929565
12:05:00,1,A17,Cathedral Pkwy (110 St),-73.958161,40.800603,1200.9712911673585
12:05:00,1,A18,103 St,-73.961454,40.796092,1116.9098175541205
12:05:00,1,A19,96 St,-73.964696,40.791642,1029.7828453527682
12:05:00,1,A20,86 St,-73.968916,40.785868,928.9751530450758
12:05:00,1,A21,81 St-Museum of Natural History,-73.972143,40.781433,830.5005510738855
12:05:00,1,A22,72 St,-73.97641,40.775594,738.6376722860068
12:05:00,1,A24,59 St-Columbus Circle,-73.981736,40.768296,555.9145586405313
12:05:00,1,A25,50 St,-73.985984,40.762456,494.0664082760442
13:41:00,1,A27,42 St-Port Authority Bus Terminal,-73.989735,40.757308,391.3832399592125
12:56:30,2,A28,34 St-Penn Station,-73.993391,40.752287,493.1795057472411
12:57:00,1,A30,23 St,-73.998041,40.745906,595.6687694291719
12:57:00,1,A31,14 St,-74.00169,40.740893,641.9542854829239
12:01:00,2,A32,W 4 St-Wash Sq,-74.000495,40.732338,776.6830147646917
12:01:00,2,A33,Spring St,-74.003739,40.726227,942.5933783899842
12:01:00,2,A34,Canal St,-74.005229,40.720824,958.0245479454697
13:29:00,1,A36,Chambers St,-74.008585,40.714111,1081.2556692269343
12:13:00,1,A38,Fulton St,-74.007691,40.710197,1136.6192286046735
13:17:00,1,A40,High St,-73.990531,40.699337,1320.4406014595875
13:17:00,1,A41,Jay St-MetroTech,-73.987342,40.692338,1447.0693717612116
13:17:00,1,A42,Hoyt-Schermerhorn Sts,-73.985001,40.688484,1566.0154010595925
13:57:00,1,A43,Lafayette Av,-73.973946,40.686113,1736.6712652571234
13:57:00,1,A44,Clinton-Washington Avs,-73.965838,40.683263,1820.832853080908
13:57:00,1,A45,Franklin Av,-73.956848,40.68138,1929.8066753084433
13:17:00,1,A46,Nostrand Av,-73.950426,40.680438,1876.7823039744944
12:05:00,1,A47,Kingston-Throop Avs,-73.940858,40.679921,1981.7617157392006
13:17:00,1,A48,Utica Av,-73.930729,40.679364,2052.237985792676
12:05:00,1,A49,Ralph Av,-73.920786,40.678822,2161.9130646570293
12:05:00,1,A50,Rockaway Av,-73.911946,40.67834,2248.183468399139
13:17:00,1,A51,Broadway Junction,-73.905316,40.678334,2158.9392910888464
13:29:00,1,A52,Liberty Av,-73.896548,40.674542,2296.954986156111
13:29:00,1,A53,Van Siclen Av,-73.890358,40.67271,2393.1134315970676
13:29:00,1,A54,Shepherd Av,-73.88075,40.67413,2494.611550483448
13:17:00,1,A55,Euclid Av,-73.872106,40.675377,2476.2667458076257
13:17:00,1,A57,Grant Av,-73.86505,40.677044,2606.4734273221025
13:17:00,1,A59,80 St,-73.858992,40.679371,2703.9800711283606
13:17:00,1,A60,88 St,-73.85147,40.679843,2803.1697115393195
13:17:00,1,A61,Rockaway Blvd,-73.843853,40.680429,2896.5936292418487
13:53:00,1,A63,104 St,-73.837683,40.681711,2987.6415804188323
13:53:00,1,A64,111 St,-73.832163,40.684331,3078.776959480204
13:53:00,1,A65,Ozone Park-Lefferts Blvd,-73.825798,40.685951,3189.6554191673276
12:05:00,1,B04,21 St-Queensbridge,-73.942836,40.754203,644.2934193110359
12:05:00,1,B06,Roosevelt Island,-73.95326,40.759145,549.3839518268426
12:29:00,1,B08,Lexington Av/63 St,-73.966113,40.764629,444.1963190184049
12:09:00,1,B10,57 St,-73.97745,40.763972,594.1963190184049
13:52:30,1,B12,9 Av,-73.994324,40.646292,2330.1850687894744
13:52:30,1,B13,Fort Hamilton Pkwy,-73.994304,40.640914,2500.7279259323313
13:52:30,1,B14,50 St,-73.994791,40.63626,2582.060609493085
13:52:30,1,B15,55 St,-73.995476,40.631435,2671.660091022573
13:52:30,1,B16,62 St,-73.996895,40.626472,2783.3205650776663
13:52:30,1,B17,71 St,-73.998864,40.619589,2885.5955011390474
13:52:30,1,B18,79 St,-74.00061,40.613501,2975.7940917860687
13:52:30,1,B19,18 Av,-74.001736,40.607954,3070.2826268179156
13:52:30,1,B20,20 Av,-73.998168,40.604556,3154.4115355607364
13:52:30,1,B21,Bay Pkwy,-73.993728,40.601875,3248.3867421723066
13:52:30,1,B22,25 Av,-73.986829,40.597704,3348.6395938833334
13:52:30,1,B23,Bay 50 St,-73.983765,40.588841,3490.6517112302718
12:13:00,1,D01,Norwood-205 St,-73.878855,40.874811,2546.775716240515
12:13:00,1,D03,Bedford Park Blvd,-73.887138,40.873244,2387.1781587153714
12:13:00,1,D04,Kingsbridge Rd,-73.893509,40.866978,2268.637774099987
12:13:00,1,D05,Fordham Rd,-73.897749,40.861296,2168.5048881939465
12:13:00,1,D06,182-183 Sts,-73.900741,40.856093,2083.33210091373
12:13:00,1,D07,Tremont Av,-73.905227,40.85041,1999.7317274310035
12:13:00,1,D08,174-175 Sts,-73.910136,40.8459,1906.5213008907192
12:13:00,1,D09,170 St,-73.9134,40.839306,1800.9774913669096
12:13:00,1,D10,167 St,-73.91844,40.833771,1694.8346342240525
13:41:00,1,D11,161 St-Yankee Stadium,-73.925651,40.827905,1572.6129787766358
12:05:00,1,D12,155 St,-73.938209,40.830135,1493.0299992553396
12:57:00,1,D13,145 St,-73.944216,40.824783,1345.1181824585526
12:05:00,1,D14,7 Av,-73.981637,40.762862,429.2690219670958
12:09:00,1,D15,47-50 Sts-Rockefeller Ctr,-73.981329,40.758663,486.1904755660466
12:09:00,1,D16,42 St-Bryant Pk,-73.984569,40.754222,531.0454207586312
12:12:30,2,D17,34 St-Herald Sq,-73.987823,40.749719,610.968295429972
12:00:30,2,D18,23 St,-73.992821,40.742878,728.2774726370646
12:00:30,2,D19,14 St,-73.996209,40.738228,808.4719269703111
12:01:00,1,D20,W 4 St-Wash Sq,-74.000495,40.732338,804.2996561085702
13:00:30,1,D21,Broadway-Lafayette St,-73.996204,40.725297,895.8695872347063
13:52:30,1,D22,Grand St,-73.993753,40.718267,1032.5561346170787
12:17:00,1,D24,Atlantic Av-Barclays Ctr,-73.97689,40.68446,1669.0523208421619
12:17:00,1,D25,7 Av,-73.972367,40.67705,1818.8767544991197
12:17:00,1,D26,Prospect Park,-73.962246,40.661614,2026.5507762472926
12:17:00,1,D27,Parkside Av,-73.961495,40.655292,2122.4223592097846
12:17:00,1,D28,Church Av,-73.962982,40.650527,2210.6911255794653
12:17:00,1,D29,Beverley Rd,-73.964492,40.644031,2301.1419880167714
12:17:00,1,D30,Cortelyou Rd,-73.963891,40.640927,2379.279017972157
12:36:30,1,D31,Newkirk Plaza,-73.962793,40.635082,2422.497345675159
12:05:00,1,D32,Avenue H,-73.961639,40.62927,2535.8221247190727
12:05:00,1,D33,Avenue J,-73.960803,40.625039,2632.7066660917476
12:05:00,1,D34,Avenue M,-73.959399,40.617618,2743.513015298097
12:36:30,1,D35,Kings Hwy,-73.957734,40.60867,2682.1272417582927
12:17:00,1,D37,Avenue U,-73.955929,40.5993,2899.465172792776
12:17:00,1,D38,Neck Rd,-73.955161,40.595246,3003.5629301245754
12:17:00,1,D39,Sheepshead Bay,-73.954155,40.586896,2920.771599734946
12:17:00,1,D40,Brighton Beach,-73.961376,40.577621,3068.099085115063
12:17:00,1,D41,Ocean Pkwy,-73.968501,40.576312,3214.4649494542805
12:17:00,1,D42,W 8 St-NY Aquarium,-73.975939,40.576127,3329.0146298726418
12:17:00,1,D43,Coney Island-Stillwell Av,-73.981233,40.577422,3417.7805873194507
12:01:00,1,E01,World Trade Center,-74.009781,40.712582,1141.8007860995162
12:45:00,1,F01,Jamaica-179 St,-73.783817,40.712646,2274.196319018405
13:05:00,1,F02,169 St,-73.793604,40.71047,2184.196319018405
12:05:00,1,F03,Parsons Blvd,-73.803326,40.707564,2064.196319018405
12:05:00,1,F04,Sutphin Blvd,-73.810708,40.70546,1974.196319018405
12:05:00,1,F05,Briarwood,-73.820574,40.709179,1854.196319018405
12:37:00,1,F06,Kew Gardens-Union Tpke,-73.831008,40.714441,1732.1629994306677
12:05:00,1,F07,75 Av,-73.837324,40.718331,1640.8891989289866
12:37:00,1,F09,Court Sq-23 St,-73.946,40.747846,426.38528076085174
13:05:00,1,F11,Lexington Av/53 St,-73.969055,40.757552,228.94736766815183
12:05:00,1,F12,5 Av/53 St,-73.975224,40.760167,309.7511898517609
12:01:00,1,F14,2 Av,-73.989938,40.723402,995.2816621761518
12:01:00,1,F15,Delancey St-Essex St,-73.988114,40.718611,1094.396191281689
12:01:00,1,F16,East Broadway,-73.990173,40.713715,1177.8054980243292
12:01:00,1,F18,York St,-73.986751,40.701397,1343.1454885141056
13:17:00,1,F20,Bergen St,-73.990862,40.686145,1600.4621274209678
13:17:00,1,F21,Carroll St,-73.995048,40.680303,1757.0544938331816
13:17:00,1,F22,Smith-9 Sts,-73.995959,40.67358,1892.1544420465425
13:17:00,1,F23,4 Av-9 St,-73.989779,40.670272,1986.1111568079186
13:17:00,1,F24,7 Av,-73.980305,40.666271,1897.6686063577981
13:17:00,1,F25,15 St-Prospect Park,-73.979493,40.660365,2060.038116256844
13:17:00,1,F26,Fort Hamilton Pkwy,-73.975776,40.650782,2232.8106281051855
13:17:00,1,F27,Church Av,-73.979678,40.644041,2137.668606357798
13:53:00,1,F29,Ditmas Av,-73.978172,40.636119,2257.668606357798
13:53:00,1,F30,18 Av,-73.976971,40.629755,2377.668606357798
13:53:00,1,F31,Avenue I,-73.976127,40.625322,2437.668606357798
13:53:00,1,F32,Bay Pkwy,-73.975264,40.620769,2497.668606357798
13:53:00,1,F33,Avenue N,-73.974197,40.61514,2617.668606357798
13:53:00,1,F34,Avenue P,-73.973022,40.608944,2707.668606357798
13:53:00,1,F35,Kings Hwy,-73.972361,40.603217,2922.9697024386746
13:17:00,1,F36,Avenue U,-73.973357,40.596063,3030.9458929148655
13:17:00,1,F38,Avenue X,-73.97425,40.58962,3132.246104187194
12:36:30,1,F39,Neptune Av,-73.974574,40.581011,3253.755416724389
12:01:00,1,G05,Jamaica Center-Parsons/Archer,-73.801109,40.702147,2226.5282707439305
12:37:00,1,G06,Sutphin Blvd-Archer Av-JFK Airport,-73.807969,40.700486,2115.8227562470574
12:37:00,1,G07,Jamaica-Van Wyck,-73.816859,40.702566,1980.3740613775701
12:37:00,1,G08,Forest Hills-71 Av,-73.844521,40.721691,1507.3770038070352
12:37:00,1,G09,67 Av,-73.852719,40.726523,1656.366936250742
12:13:00,1,G10,63 Dr-Rego Park,-73.861604,40.729846,1544.923246416801
12:13:00,1,G11,Woodhaven Blvd,-73.869229,40.733106,1432.7977851621886
12:13:00,1,G12,Grand Av-Newtown,-73.877223,40.737015,1314.694654407124
12:13:00,1,G13,Elmhurst Av,-73.882017,40.742454,1209.1034941861296
12:37:00,1,G14,Jackson Hts-Roosevelt Av,-73.891338,40.746644,1051.3368980335667
12:09:00,1,G15,65 St,-73.898453,40.749669,1083.0852807608517
12:09:00,1,G16,Northern Blvd,-73.906006,40.752885,980.7852807608517
12:09:00,1,G18,46 St,-73.913333,40.756312,890.7852807608517
12:09:00,1,G19,Steinway St,-73.92074,40.756879,770.7852807608517
12:09:00,1,G20,36 St,-73.928781,40.752039,650.7852807608517
12:09:00,1,G21,Queens Plaza,-73.937243,40.748973,530.7852807608517
12:13:00,2,G22,Court Sq,-73.943832,40.746554,499.0476184231894
12:13:00,2,G24,21 St,-73.949724,40.744065,593.7824010318851
12:13:00,2,G26,Greenpoint Av,-73.954449,40.731352,734.377180397951
12:13:00,2,G28,Nassau Av,-73.951277,40.724635,845.3269352999117
12:13:00,2,G29,Metropolitan Av,-73.951418,40.712792,997.4445461373502
12:13:00,2,G30,Broadway,-73.950308,40.706092,1086.4014692142734
12:13:00,2,G31,Flushing Av,-73.950234,40.700377,1177.8018382179635
12:13:00,2,G32,Myrtle-Willoughby Avs,-73.949046,40.694568,1263.8790914368476
12:01:00,2,G33,Bedford-Nostrand Avs,-73.953522,40.689627,1369.1670171334422
13:57:00,1,G34,Classon Av,-73.96007,40.688873,1452.777594056519
13:57:00,1,G35,Clinton-Washington Avs,-73.966839,40.688089,1534.289957483776
13:57:00,1,G36,Fulton St,-73.975375,40.687119,1625.0957994081748
12:37:00,1,H01,Aqueduct Racetrack,-73.834058,40.668234,3107.472133914746
13:17:00,1,H02,Aqueduct-N Conduit Av,-73.834058,40.668234,3168.611670285046
13:17:00,1,H03,Howard Beach-JFK Airport,-73.830301,40.660476,3285.2186449733886
13:17:00,1,H04,Broad Channel,-73.815925,40.608382,3750.6002016569755
13:17:00,1,H06,Beach 67 St,-73.796924,40.590927,4079.5667132848826
13:17:00,1,H07,Beach 60 St,-73.788522,40.592374,4205.423460050132
13:17:00,1,H08,Beach 44 St,-73.776013,40.592943,4315.099685767062
13:17:00,1,H09,Beach 36 St,-73.768175,40.595398,4416.371907989284
13:17:00,1,H10,Beach 25 St,-73.761353,40.600066,4516.812428435381
13:17:00,1,H11,Far Rockaway-Mott Av,-73.755405,40.603995,4607.11201521224
12:37:00,1,H12,Beach 90 St,-73.813641,40.588034,4020.657344514118
12:37:00,1,H13,Beach 98 St,-73.820558,40.585307,4120.761118099024
12:37:00,1,H14,Beach 105 St,-73.827559,40.583209,4210.437308575214
12:37:00,1,H15,Rockaway Park-Beach 116 St,-73.835592,40.580903,4313.986759124665
12:01:00,1,J12,121 St,-73.828294,40.700492,2518.06046116509
12:01:00,1,J13,111 St,-73.836345,40.697418,2541.4756636270095
12:01:00,1,J14,104 St,-73.84433,40.695178,2708.78046116509
12:01:00,1,J15,Woodhaven Blvd,-73.851576,40.693879,2828.4756636270095
12:01:00,1,J16,85 St-Forest Pkwy,-73.86001,40.692435,2891.3234984003275
12:01:00,1,J17,75 St-Elderts Ln,-73.867139,40.691324,2698.9392910888464
12:01:00,1,J19,Cypress Hills,-73.87255,40.689941,2723.7021391770263
13:04:30,2,J20,Crescent St,-73.873785,40.683194,2548.9392910888464
13:04:30,2,J21,Norwood Av,-73.880039,40.68141,2458.9392910888464
13:04:30,2,J22,Cleveland St,-73.884639,40.679947,2464.154875355088
13:04:30,2,J23,Van Siclen Av,-73.891688,40.678024,2308.9392910888464
13:04:30,2,J24,Alabama Av,-73.898654,40.676992,2248.9392910888464
13:09:00,1,J27,Broadway Junction,-73.904512,40.679498,2145.6209038188726
12:04:30,2,J28,Chauncey St,-73.910456,40.682893,2202.87920006694
13:09:00,1,J29,Halsey St,-73.916559,40.68637,2160.0469504138287
13:09:00,1,J30,Gates Av,-73.92227,40.68963,2050.3832000669395
13:09:00,1,J31,Kosciuszko St,-73.928814,40.693342,1972.7643706265949
12:01:00,1,L01,8 Av,-74.002578,40.739777,701.9542854829239
12:01:00,1,L02,6 Av,-73.996786,40.737335,801.0870317321085
12:01:00,1,L03,14 St-Union Sq,-73.99073,40.734789,714.3125665879525
12:04:30,1,L05,3 Av,-73.986122,40.732849,779.3796676559881
12:04:30,1,L06,1 Av,-73.981628,40.730953,826.3070686918588
12:04:30,1,L08,Bedford Av,-73.956872,40.717304,1030.3836644365397
12:04:30,1,L10,Lorimer St,-73.950275,40.714063,1106.2017613098992
12:04:30,1,L11,Graham Av,-73.944053,40.714565,1146.8635208612486
12:04:30,1,L12,Grand St,-73.94067,40.711926,1235.4558027404435
12:04:30,1,L13,Montrose Av,-73.93985,40.707739,1273.018683064987
12:04:30,1,L14,Morgan Av,-73.933147,40.706152,1354.081940130936
12:04:30,1,L15,Jefferson St,-73.922913,40.706607,1452.5760323287764
12:04:30,1,L16,DeKalb Av,-73.918425,40.703811,1520.312683614208
12:04:30,1,L17,Myrtle-Wyckoff Avs,-73.911586,40.699814,1599.0703190821885
12:04:30,1,L19,Halsey St,-73.904084,40.695602,1647.3539554458248
12:04:30,1,L20,Wilson Av,-73.904046,40.688764,1767.7041099257424
12:04:30,1,L21,Bushwick Av-Aberdeen St,-73.905249,40.682829,1860.3780466760152
12:04:30,1,L22,Broadway Junction,-73.90324,40.678856,1920.6209038188724
12:04:30,1,L24,Atlantic Av,-73.903097,40.675345,2025.023234182135
12:04:30,1,L25,Sutter Av,-73.901975,40.669367,2101.5229006264312
12:04:30,1,L26,Livonia Av,-73.900571,40.664038,2167.2515011699093
12:04:30,1,L27,New Lots Av,-73.899232,40.658733,2221.0737156302657
12:04:30,1,L28,East 105 St,-73.899485,40.650573,2331.3001372668814
12:04:30,1,L29,Canarsie-Rockaway Pkwy,-73.90185,40.646654,2455.0743067331005
12:04:30,2,M01,Middle Village-Metropolitan Av,-73.889601,40.711396,2223.628726639706
12:04:30,2,M04,Fresh Pond Rd,-73.895877,40.706186,2103.046940609644
12:04:30,2,M05,Forest Av,-73.903077,40.704423,2005.527349988241
12:04:30,2,M06,Seneca Av,-73.90774,40.702762,1910.6677131167328
13:16:30,1,M08,Myrtle-Wyckoff Avs,-73.912385,40.69943,1824.0703190821885
12:36:30,1,M09,Knickerbocker Av,-73.919711,40.698664,1924.4667098724808
13:16:30,1,M10,Central Av,-73.927397,40.697857,1995.6184725498215
12:36:30,1,M11,Myrtle Av,-73.935657,40.697207,1855.5140386212827
12:36:30,1,M12,Flushing Av,-73.941126,40.70026,1729.5988016510053
12:36:30,1,M13,Lorimer St,-73.947408,40.703869,1628.224881098328
12:36:30,1,M14,Hewes St,-73.953431,40.70687,1535.1661591639586
12:36:30,1,M16,Marcy Av,-73.957757,40.708359,1457.432883751274
12:36:30,1,M18,Delancey St-Essex St,-73.987437,40.718315,1083.2272762746384
12:09:00,1,M19,Bowery,-73.993915,40.72028,1150.0293737158743
12:09:00,1,M20,Canal St,-73.999892,40.718092,1034.7163655256952
12:36:30,1,M21,Chambers St,-74.003401,40.713243,941.0732381612564
12:09:00,1,M22,Fulton St,-74.007582,40.710374,1035.0387087096653
12:09:00,1,M23,Broad St,-74.011056,40.706476,1099.9456854538516
12:01:00,1,N02,8 Av,-74.011719,40.635064,2585.9192553440716
12:01:00,1,N03,Fort Hamilton Pkwy,-74.005351,40.631386,2681.1386093953874
12:01:00,1,N04,New Utrecht Av,-73.996353,40.624842,2798.250157951818
12:01:00,1,N05,18 Av,-73.990414,40.620671,2894.2204353626503
12:01:00,1,N06,20 Av,-73.985026,40.61741,2981.6569432991587
12:01:00,1,N07,Bay Pkwy,-73.981848,40.611815,3079.4284664779666
12:01:00,1,N08,Kings Hwy,-73.980353,40.603923,3206.9327969243354
12:01:00,1,N09,Avenue U,-73.979137,40.597473,3322.6250532661247
12:01:00,1,N10,86 St,-73.97823,40.592721,3442.154491301246
12:01:00,1,Q01,Canal St,-74.00046,40.718383,939.4815349958967
12:21:00,1,Q03,72 St,-73.958424,40.768799,568.8051408408077
12:21:00,1,Q04,86 St,-73.951787,40.777891,708.3063423284282
12:21:00,1,Q05,96 St,-73.947152,40.784318,794.2422614125437
12:01:00,1,R01,Astoria-Ditmars Blvd,-73.912034,40.775036,1304.128381494259
12:01:00,1,R03,Astoria Blvd,-73.917843,40.770258,1207.833034865579
12:01:00,1,R04,30 Av,-73.921479,40.766779,1101.1360950827557
12:01:00,1,R05,Broadway,-73.925508,40.76182,1005.7551427018034
12:01:00,1,R06,36 Av,-73.929575,40.756804,878.2155528826793
12:01:00,1,R08,39 Av-Dutch Kills,-73.932755,40.752882,775.7290072257199
12:01:00,1,R09,Queensboro Plaza,-73.940202,40.750582,588.2536671788419
12:09:00,1,R11,Lexington Av/59 St,-73.967258,40.76266,324.1963190184049
12:01:00,1,R13,5 Av/59 St,-73.973347,40.764811,425.9252272069905
12:01:00,1,R14,57 St-7 Av,-73.980658,40.764664,567.0395735526209
12:01:00,1,R15,49 St,-73.984139,40.759901,485.38812754474526
12:01:00,1,R16,Times Sq-42 St,-73.986754,40.754672,391.3832399592125
12:01:00,1,R17,34 St-Herald Sq,-73.98795,40.749567,494.3629898103144
12:29:00,1,R18,28 St,-73.988691,40.745494,580.7404989506066
12:29:00,1,R19,23 St,-73.989344,40.741303,663.6346400957464
12:25:00,1,R20,14 St-Union Sq,-73.990568,40.735736,664.4869469020903
12:05:00,1,R21,8 St-NYU,-73.992629,40.730328,849.8230293970556
12:05:00,1,R22,Prince St,-73.997702,40.724329,941.972485163378
12:05:00,1,R23,Canal St,-74.001775,40.719527,1049.8873135259958
12:05:00,1,R24,City Hall,-74.006978,40.713282,1197.801830843608
12:05:00,1,R25,Cortlandt St,-74.011029,40.710668,1201.8776557568601
12:05:00,1,R26,Rector St,-74.013342,40.70722,1317.3254788390993
12:05:00,1,R27,Whitehall St-South Ferry,-74.012994,40.703087,1408.4427585059973
12:25:00,1,R28,Court St,-73.991777,40.6941,1585.3297425952965
12:25:00,1,R29,Jay St-MetroTech,-73.985942,40.69218,1582.0693717612116
12:17:00,1,R30,DeKalb Av,-73.981824,40.690635,1450.547835861892
12:01:00,1,R31,Atlantic Av-Barclays Ctr,-73.97881,40.683666,1613.6062334964458
12:13:00,1,R32,Union St,-73.98311,40.677316,1773.9904869507486
12:13:00,1,R33,4 Av-9 St,-73.988302,40.670847,1886.0457633326582
12:13:00,1,R34,Prospect Av,-73.992872,40.665414,1995.729180418085
12:13:00,1,R35,25 St,-73.998091,40.660397,2090.5289226100726
12:01:00,1,R36,36 St,-74.003549,40.655144,2010.4707830751888
12:13:00,1,R39,45 St,-74.010006,40.648939,2243.725684944697
12:01:00,1,R40,53 St,-74.014034,40.645069,2337.5010472635377
12:01:00,1,R41,59 St,-74.017881,40.641362,2391.031529268121
12:13:00,1,R42,Bay Ridge Av,-74.023377,40.634967,2555.5057780543293
12:13:00,1,R43,77 St,-74.02551,40.629742,2638.1144451587284
12:13:00,1,R44,86 St,-74.028398,40.622687,2822.566380239877
12:53:00,1,R45,Bay Ridge-95 St,-74.030876,40.616622,2891.1481193703116
12:01:00,1,S01,Franklin Av,-73.955827,40.680596,1989.8066753084433
12:01:00,1,S03,Park Pl,-73.957624,40.674772,2106.1469530862214
12:17:00,1,S04,Botanic Garden,-73.959245,40.670343,2130.0174414368335
