start_time,ntransfers,stop_id,stop_name,stop_lon,stop_lat,duration
12:35:30,1,101,Van Cortlandt Park-242 St,-73.898583,40.889248,3120.185739009346
12:35:30,1,103,238 St,-73.90087,40.884667,3013.4349908263616
12:35:30,1,104,231 St,-73.904834,40.878856,2918.599884443383
12:35:30,1,106,Marble Hill-225 St,-73.909831,40.874561,2825.1280179319356
12:35:30,1,107,215 St,-73.915279,40.869444,2717.003454486068
12:35:30,1,108,207 St,-73.918822,40.864621,2638.018659164431
12:35:30,1,109,Dyckman St,-73.925536,40.860531,2539.9820321069396
12:35:30,1,110,191 St,-73.929412,40.855225,2449.762984487892
12:35:30,1,111,181 St,-73.933596,40.849505,2354.5183957433037
12:35:30,1,112,168 St-Washington Hts,-73.940133,40.840556,2233.668070363694
12:35:30,1,113,157 St,-73.94489,40.834041,2214.0523317697985
12:35:30,1,114,145 St,-73.95036,40.826551,2098.3876844309843
12:35:30,1,115,137 St-City College,-73.953676,40.822008,1997.3449013713473
12:35:30,1,116,125 St,-73.958372,40.815581,1898.5837694529123
12:35:30,1,117,116 St-Columbia University,-73.96411,40.807722,1780.4277000887503
12:35:30,1,118,Cathedral Pkwy (110 St),-73.966847,40.803967,1702.39688661299
12:35:30,1,119,103 St,-73.968379,40.799446,1623.0787047948083
12:15:30,1,120,96 St,-73.972323,40.793919,1323.0017594575343
12:15:30,1,121,86 St,-73.976218,40.788644,1408.9391029212723
12:15:30,1,122,79 St,-73.979917,40.783934,1327.1068148491302
12:15:30,1,123,72 St,-73.98197,40.778453,1131.1394583559431
12:25:30,1,124,66 St-Lincoln Center,-73.982209,40.77344,1184.4835959147551
12:25:30,1,125,59 St-Columbus Circle,-73.981929,40.768247,1103.38562557908
12:25:30,1,126,50 St,-73.983849,40.761728,994.7581745986877
13:35:30,1,127,Times Sq-42 St,-73.987495,40.75529,882.5610799775648
12:10:30,1,128,34 St-Penn Station,-73.991057,40.750373,989.9505904670751
13:30:30,1,129,28 St,-73.993365,40.747215,1071.7133001831278
13:30:30,1,130,23 St,-73.995657,40.744081,1140.3405305942993
13:30:30,1,131,18 St,-73.997871,40.74104,1208.7810438135837
12:10:30,1,132,14 St,-74.000201,40.737826,1148.9540967784355
12:55:30,1,133,Christopher St-Sheridan Sq,-74.002906,40.733422,1382.0629337224464
12:55:30,1,134,Houston St,-74.005367,40.728251,1465.213209096168
12:55:30,1,135,Canal St,-74.006277,40.722854,1552.4885542638208
12:10:30,1,136,Franklin St,-74.006886,40.719318,1617.2410452961046
12:10:30,1,137,Chambers St,-74.009266,40.715478,1396.6053895806717
12:10:30,1,138,WTC Cortlandt,-74.012188,40.711835,1680.3054341804109
12:10:30,1,139,Rector St,-74.013783,40.707513,1759.604001059392
12:10:30,1,142,South Ferry,-74.013664,40.702068,1864.324422453233
12:15:30,2,201,Wakefield-241 St,-73.85062,40.903125,3636.132702424211
12:15:30,2,204,Nereid Av,-73.854376,40.898379,3407.8686540858425
12:15:30,2,205,233 St,-73.857473,40.893193,3275.8686540858425
12:15:30,2,206,225 St,-73.860341,40.888022,3179.868654085842
12:15:30,2,207,219 St,-73.862633,40.883895,3097.868654085842
12:15:30,2,208,Gun Hill Rd,-73.866256,40.87785,2989.3686540858425
12:15:30,2,209,Burke Av,-73.867164,40.871356,3066.868654085842
12:15:30,2,210,Allerton Av,-73.867352,40.865462,2998.022023381863
12:15:30,2,211,Pelham Pkwy,-73.867615,40.857192,2886.1139774048515
12:15:30,2,212,Bronx Park East,-73.868457,40.848828,2758.9639774048514
12:15:30,2,213,E 180 St,-73.873488,40.841894,2517.8389824824285
12:15:30,2,214,West Farms Sq-E Tremont Av,-73.880049,40.840295,2445.8813550423147
12:15:30,2,215,174 St,-73.887734,40.837288,2319.8419909242225
12:15:30,2,216,Freeman St,-73.891865,40.829993,2197.334102118813
12:15:30,2,217,Simpson St,-73.893064,40.824073,2084.1214155516486
12:15:30,2,218,Intervale Av,-73.896736,40.822181,2009.456981027839
12:15:30,2,219,Prospect Av,-73.90177,40.819585,1925.891602127393
12:15:30,2,220,Jackson Av,-73.907807,40.81649,1826.1650684984204
12:15:30,2,221,3 Av-149 St,-73.917757,40.816109,1687.193660873787
12:15:30,2,222,149 St-Grand Concourse,-73.926718,40.81841,1555.5342120548892
12:15:30,1,224,135 St,-73.94077,40.814229,1877.023785784362
12:15:30,1,225,125 St,-73.945495,40.807754,1766.976653980761
12:15:30,1,226,116 St,-73.949625,40.802098,1667.1186292894029
12:15:30,1,227,Central Park North (110 St),-73.951822,40.799075,1588.2367995562388
12:10:30,1,228,Park Place,-74.008811,40.713051,1485.8115456293474
12:10:30,1,229,Fulton St,-74.006571,40.709416,1600.6841969863412
12:10:30,1,230,Wall St,-74.0091,40.706821,1676.0992913259638
12:10:30,1,231,Clark St,-73.993086,40.697466,1865.3128902270628
12:10:30,1,232,Borough Hall,-73.989998,40.693219,1982.0464518708984
12:10:30,1,233,Hoyt St,-73.985065,40.690545,2070.849461446822
12:05:30,1,234,Nevins St,-73.980492,40.688246,1974.420484046989
12:05:30,1,235,Atlantic Av-Barclays Ctr,-73.977666,40.684359,2072.6469734610705
12:05:30,1,236,Bergen St,-73.975098,40.680829,2180.427003274857
12:05:30,1,237,Grand Army Plaza,-73.971046,40.675235,2283.7091335549712
12:05:30,1,238,Eastern Pkwy-Brooklyn Museum,-73.964375,40.671987,2386.8530729489107
12:05:30,1,239,Franklin Av-Medgar Evers College,-73.958131,40.670682,2391.2109706031124
12:05:30,1,241,President St-Medgar Evers College,-73.950683,40.667883,2582.741580418867
12:05:30,1,242,Sterling St,-73.95085,40.662742,2674.7340513292024
12:05:30,1,243,Winthrop St,-73.9502,40.656652,2763.7877198074634
12:05:30,1,244,Church Av,-73.949575,40.650843,2842.6260956036417
12:05:30,1,245,Beverly Rd,-73.948959,40.645098,2921.8553606070136
12:05:30,1,246,Newkirk Av-Little Haiti,-73.948411,40.639967,3009.0438741205267
12:05:30,1,247,Flatbush Av-Brooklyn College,-73.947642,40.632836,3159.663431579485
12:05:30,1,248,Nostrand Av,-73.950466,40.669847,2512.710432970337
12:05:30,1,249,Kingston Av,-73.942161,40.669399,2600.1615370712834
12:25:30,1,250,Crown Hts-Utica Av,-73.932942,40.668897,2615.62748899312
12:05:30,1,251,Sutter Av-Rutland Rd,-73.92261,40.664717,2707.931848003843
12:05:30,1,252,Saratoga Av,-73.916327,40.661453,2602.191588263583
12:35:30,3,253,Rockaway Av,-73.908946,40.662549,2510.259330199067
12:15:30,3,254,Junius St,-73.902447,40.663515,2429.076637891375
12:15:30,3,255,Pennsylvania Av,-73.894895,40.664635,2538.760830350679
12:15:30,3,256,Van Siclen Av,-73.889395,40.665449,2618.7901346260355
12:15:30,3,257,New Lots Av,-73.884079,40.666235,2715.7087807485177
12:35:30,1,301,Harlem-148 St,-73.93647,40.82388,2158.9176098679504
12:35:30,1,302,145 St,-73.936245,40.820421,2019.7342168636774
12:20:30,2,401,Woodlawn,-73.878751,40.886037,2776.1670561758556
12:20:30,2,402,Mosholu Pkwy,-73.884655,40.87975,2653.7600849087803
12:20:30,2,405,Bedford Park Blvd-Lehman College,-73.890064,40.873412,2530.701751575447
12:20:30,2,406,Kingsbridge Rd,-73.897174,40.86776,2420.9016592393436
12:20:30,2,407,Fordham Rd,-73.901034,40.862803,2332.778836939692
12:20:30,2,408,183 St,-73.903879,40.858407,2248.4833922542257
12:20:30,2,409,Burnside Av,-73.907684,40.853453,2149.1606848306446
12:20:30,2,410,176 St,-73.911794,40.84848,2058.091975859091
12:20:30,2,411,Mt Eden Av,-73.914685,40.844434,1977.737818357991
12:20:30,2,412,170 St,-73.917791,40.840075,1895.7342847890864
12:20:30,2,413,167 St,-73.9214,40.835537,1803.8940900126365
12:20:30,2,414,161 St-Yankee Stadium,-73.925831,40.827994,1682.9785986073387
12:20:30,2,415,149 St-Grand Concourse,-73.927351,40.818375,1477.3196871037142
12:20:30,2,416,138 St-Grand Concourse,-73.929849,40.813224,1344.0333700452454
12:05:30,1,418,Fulton St,-74.009509,40.710368,1404.8694362911772
12:05:30,1,419,Wall St,-74.011862,40.707557,1483.528849725425
12:05:30,1,420,Bowling Green,-74.014065,40.704817,1563.1144442000182
12:05:30,1,423,Borough Hall,-73.990151,40.692404,1837.0042705027479
12:15:30,2,501,Eastchester-Dyre Av,-73.830834,40.8883,3267.8389824824285
12:15:30,2,502,Baychester Av,-73.838591,40.878663,3117.8389824824285
12:15:30,2,503,Gun Hill Rd,-73.846384,40.869526,2967.8389824824285
12:15:30,2,504,Pelham Pkwy,-73.855359,40.858985,2817.8389824824285
12:15:30,2,505,Morris Park,-73.860495,40.854364,2727.8389824824285
12:20:30,2,601,Pelham Bay Park,-73.828121,40.852462,2984.6000738649795
12:20:30,2,602,Buhre Av,-73.832569,40.84681,2807.3369159702424
12:20:30,2,603,Middletown Rd,-73.836322,40.843863,2737.0438125219666
12:35:30,2,604,Westchester Sq-E Tremont Av,-73.842952,40.839892,2604.8673419337315
12:20:30,2,606,Zerega Av,-73.847036,40.836488,2517.8173419337313
12:35:30,2,607,Castle Hill Av,-73.851222,40.834255,2448.571440294387
12:35:30,2,608,Parkchester,-73.860816,40.833226,2263.157647190939
12:35:30,2,609,St Lawrence Av,-73.867618,40.831509,2507.017979853737
12:35:30,2,610,Morrison Av-Soundview,-73.874516,40.829521,2405.8669358732836
12:35:30,2,611,Elder Av,-73.879159,40.828584,2333.1415314132923
12:35:30,2,612,Whitlock Av,-73.886283,40.826525,2220.4367695085307
12:35:30,2,613,Hunts Point Av,-73.890549,40.820948,1990.757647190939
12:20:30,2,614,Longwood Av,-73.896435,40.816104,2109.8489425844455
12:20:30,2,615,E 149 St,-73.904098,40.812118,2007.07816048902
12:20:30,2,616,E 143 St-St Mary's St,-73.907657,40.808719,1930.404064401848
12:20:30,2,617,Cypress Av,-73.914042,40.805368,1818.9891141949938
12:20:30,2,618,Brook Av,-73.91924,40.807566,1743.3701650845262
12:20:30,2,619,3 Av-138 St,-73.926138,40.810476,1623.1122571200171
12:20:30,2,621,125 St,-73.937594,40.804138,1188.714226200975
12:15:30,2,622,116 St,-73.941617,40.798629,1324.0438649552832
12:05:30,2,623,110 St,-73.94425,40.79502,1243.4935293848134
12:05:30,2,624,103 St,-73.947478,40.7906,1164.4537942854756
12:05:30,2,625,96 St,-73.95107,40.785672,1074.6840574433704
12:20:30,2,626,86 St,-73.955589,40.779492,880.3936800371258
12:05:30,2,627,77 St,-73.959874,40.77362,871.5123951207058
12:05:30,2,628,68 St-Hunter College,-73.96387,40.768141,773.9008755128627
12:05:30,2,629,59 St,-73.967967,40.762526,678.6955036120363
12:05:30,2,630,51 St,-73.97192,40.757107,779.5353015008332
12:05:30,2,631,Grand Central-42 St,-73.976848,40.751776,726.9049603669945
12:15:30,1,632,33 St,-73.982076,40.746081,842.8756261547335
12:15:30,1,633,28 St,-73.984264,40.74307,912.6970898895545
12:15:30,1,634,23 St,-73.986599,40.739864,979.9348429921018
12:05:30,1,635,14 St-Union Sq,-73.989951,40.734673,991.5293668247342
12:15:30,1,636,Astor Pl,-73.99107,40.730054,1198.9796276414763
12:15:30,1,637,Bleecker St,-73.994659,40.725915,1294.8188548844364
12:15:30,1,638,Spring St,-73.997141,40.722301,1365.3446280803125
12:05:30,1,639,Canal St,-74.000193,40.718803,1439.4275891524248
12:05:30,1,640,Brooklyn Bridge-City Hall,-74.004131,40.713065,1288.606253393315
12:03:00,0,701,Flushing-Main St,-73.83003,40.7596,1039.941123702361
12:03:00,0,702,Mets-Willets Point,-73.845625,40.754622,874.9184699806783
12:03:00,0,705,111 St,-73.855334,40.75173,939.1389054431843
12:03:00,0,706,103 St-Corona Plaza,-73.8627,40.749865,860.2315355986947
12:03:00,0,707,Junction Blvd,-73.869527,40.749145,656.0574221446874
12:03:00,0,708,90 St-Elmhurst Av,-73.876613,40.748408,701.5390014992279
12:03:00,0,709,82 St-Jackson Hts,-73.883697,40.747659,613.8714360138658
12:03:00,0,710,74 St-Broadway,-73.891394,40.746848,453.0339585363883
12:03:00,0,711,69 St,-73.896403,40.746325,384.09747204990185
12:03:00,0,712,61 St-Woodside,-73.902984,40.74563,302.17794952391034
12:03:00,0,713,52 St,-73.912549,40.744149,198.98716864137737
12:03:00,0,714,46 St-Bliss St,-73.918435,40.743132,142.69769495716685
12:03:00,0,715,40 St-Lowery St,-73.924016,40.743781,78.7439393939394
12:00:30,0,716,33 St-Rawson St,-73.930997,40.744587,0.0
12:00:30,0,718,Queensboro Plaza,-73.940202,40.750582,132.58165548098435
12:00:30,0,719,Court Sq,-73.945264,40.747023,235.1149444290536
12:00:30,0,720,Hunters Point Av,-73.948916,40.742216,349.99376020788804
12:00:30,0,721,Vernon Blvd-Jackson Av,-73.953581,40.742626,392.97125216930283
12:00:30,0,723,Grand Central-42 St,-73.976041,40.751431,606.9049603669945
12:00:30,0,724,5 Av,-73.981963,40.753821,695.1592884885765
12:00:30,0,725,Times Sq-42 St,-73.987691,40.755477,753.0241533534413
12:00:30,0,726,34 St-Hudson Yards,-74.00191,40.755882,884.4241533534413
12:00:30,1,901,Grand Central-42 St,-73.979189,40.752769,666.9049603669945
12:00:30,1,902,Times Sq-42 St,-73.986229,40.755983,764.7356663299828
13:25:30,1,A02,Inwood-207 St,-73.919899,40.868072,2578.5616709326027
13:25:30,1,A03,Dyckman St,-73.927271,40.865491,2478.82284411696
13:25:30,1,A05,190 St,-73.93418,40.859022,2348.4428331339836
13:25:30,1,A06,181 St,-73.937969,40.851695,2235.55792123971
13:25:30,1,A07,175 St,-73.939704,40.847391,2142.772915727031
13:25:30,1,A09,168 St,-73.939561,40.840719,2008.1789391514596
12:20:30,1,A10,163 St-Amsterdam Av,-73.939892,40.836013,2041.7914143078988
12:20:30,1,A11,155 St,-73.941514,40.830518,1956.9215873703515
13:25:30,1,A12,145 St,-73.944216,40.824783,1762.3674410862302
12:05:30,1,A14,135 St,-73.947649,40.817894,1673.4983880420064
13:20:30,1,A15,125 St,-73.952343,40.811109,1548.1028324864508
12:20:30,1,A16,116 St,-73.954882,40.805085,1686.0412531113088
12:00:30,1,A17,Cathedral Pkwy (110 St),-73.958161,40.800603,1692.1491311857105
12:00:30,1,A18,103 St,-73.961454,40.796092,1608.087657572473
12:00:30,1,A19,96 St,-73.964696,40.791642,1520.9606853711205
12:00:30,1,A20,86 St,-73.968916,40.785868,1420.152993063428
12:00:30,1,A21,81 St-Museum of Natural History,-73.972143,40.781433,1321.678391092238
12:00:30,1,A22,72 St,-73.97641,40.775594,1229.8155123043591
13:20:30,1,A24,59 St-Columbus Circle,-73.981736,40.768296,1047.0923986588834
13:55:30,1,A25,50 St,-73.985984,40.762456,879.4009386418
13:30:30,1,A27,42 St-Port Authority Bus Terminal,-73.989735,40.757308,882.5610799775648
12:20:30,1,A28,34 St-Penn Station,-73.993391,40.752287,984.3573457655932
12:20:30,1,A30,23 St,-73.998041,40.745906,1086.8466094475239
12:20:30,1,A31,14 St,-74.00169,40.740893,1133.132125501276
12:20:30,1,A32,W 4 St-Wash Sq,-74.000495,40.732338,1267.860854783044
12:20:30,1,A33,Spring St,-74.003739,40.726227,1433.7712184083366
12:20:30,1,A34,Canal St,-74.005229,40.720824,1449.2023879638218
12:20:30,1,A36,Chambers St,-74.008585,40.714111,1572.4335092452864
12:20:30,1,A38,Fulton St,-74.007691,40.710197,1627.7970686230253
12:05:30,2,A40,High St,-73.990531,40.699337,1811.6184414779395
12:05:30,1,A41,Jay St-MetroTech,-73.987342,40.692338,1871.9047495106038
12:05:30,1,A42,Hoyt-Schermerhorn Sts,-73.985001,40.688484,1532.0903043131214
12:15:30,1,A43,Lafayette Av,-73.973946,40.686113,1895.1419800790636
12:15:30,1,A44,Clinton-Washington Avs,-73.965838,40.683263,1980.1419800790634
12:15:30,1,A45,Franklin Av,-73.956848,40.68138,2085.8609552592075
13:15:30,1,A46,Nostrand Av,-73.950426,40.680438,2043.5147541582317
12:15:30,1,A47,Kingston-Throop Avs,-73.940858,40.679921,2148.4941659229376
13:15:30,1,A48,Utica Av,-73.930729,40.679364,2218.9704359764132
12:15:30,1,A49,Ralph Av,-73.920786,40.678822,2276.672738859206
12:15:30,1,A50,Rockaway Av,-73.911946,40.67834,2180.0086051206044
13:15:30,1,A51,Broadway Junction,-73.905316,40.678334,2090.7644278103116
12:05:30,1,A52,Liberty Av,-73.896548,40.674542,2228.780122877576
13:15:30,1,A53,Van Siclen Av,-73.890358,40.67271,2324.938568318533
13:15:30,1,A54,Shepherd Av,-73.88075,40.67413,2426.436687204913
13:15:30,1,A55,Euclid Av,-73.872106,40.675377,2408.091882529091
13:15:30,1,A57,Grant Av,-73.86505,40.677044,2538.2985640435677
13:15:30,1,A59,80 St,-73.858992,40.679371,2635.805207849826
13:15:30,1,A60,88 St,-73.85147,40.679843,2734.9948482607847
13:15:30,1,A61,Rockaway Blvd,-73.843853,40.680429,2828.418765963314
13:15:30,1,A63,104 St,-73.837683,40.681711,2919.4667171402975
13:15:30,1,A64,111 St,-73.832163,40.684331,3010.602096201669
13:15:30,1,A65,Ozone Park-Lefferts Blvd,-73.825798,40.685951,3121.480555888793
12:08:00,1,B04,21 St-Queensbridge,-73.942836,40.754203,1000.4360827750592
12:50:30,2,B06,Roosevelt Island,-73.95326,40.759145,892.0902180672717
12:10:30,1,B08,Lexington Av/63 St,-73.966113,40.764629,639.6914394759825
12:00:30,2,B10,57 St,-73.97745,40.763972,950.3389824824283
12:00:30,1,B12,9 Av,-73.994324,40.646292,2819.7555696018626
12:00:30,1,B13,Fort Hamilton Pkwy,-73.994304,40.640914,2977.036500900222
12:00:30,1,B14,50 St,-73.994791,40.63626,3057.79644408204
12:00:30,1,B15,55 St,-73.995476,40.631435,3160.824893584174
12:00:30,1,B16,62 St,-73.996895,40.626472,3225.7732757105223
12:00:30,1,B17,71 St,-73.998864,40.619589,3328.6705652968276
12:00:30,1,B18,79 St,-74.00061,40.613501,3433.1213498902653
12:00:30,1,B19,18 Av,-74.001736,40.607954,3517.604921318837
12:00:30,1,B20,20 Av,-73.998168,40.604556,3602.8165010186226
12:00:30,1,B21,Bay Pkwy,-73.993728,40.601875,3683.974433538364
13:30:30,1,B22,25 Av,-73.986829,40.597704,3810.780585183571
13:30:30,1,B23,Bay 50 St,-73.983765,40.588841,3980.2222120426604
12:20:30,1,D01,Norwood-205 St,-73.878855,40.874811,2900.990549151221
12:20:30,1,D03,Bedford Park Blvd,-73.887138,40.873244,2741.392991626078
12:20:30,1,D04,Kingsbridge Rd,-73.893509,40.866978,2622.852607010693
12:20:30,1,D05,Fordham Rd,-73.897749,40.861296,2522.719721104653
12:20:30,1,D06,182-183 Sts,-73.900741,40.856093,2437.5469338244366
13:20:30,1,D07,Tremont Av,-73.905227,40.85041,2353.94656034171
13:20:30,1,D08,174-175 Sts,-73.910136,40.8459,2260.7361338014257
13:20:30,1,D09,170 St,-73.9134,40.839306,2155.192324277616
13:20:30,1,D10,167 St,-73.91844,40.833771,2049.049467134759
13:20:30,1,D11,161 St-Yankee Stadium,-73.925651,40.827905,1915.3192450170652
13:20:30,1,D12,155 St,-73.938209,40.830135,1984.207839273692
13:20:30,1,D13,145 St,-73.944216,40.824783,1826.5081338941204
13:55:30,1,D14,7 Av,-73.981637,40.762862,763.1910413766255
12:15:30,1,D15,47-50 Sts-Rockefeller Ctr,-73.981329,40.758663,809.4006587147678
12:15:30,1,D16,42 St-Bryant Pk,-73.984569,40.754222,903.6959307932692
12:25:30,1,D17,34 St-Herald Sq,-73.987823,40.749719,983.6188054646102
12:25:30,1,D18,23 St,-73.992821,40.742878,1104.210378981377
12:25:30,1,D19,14 St,-73.996209,40.738228,1181.1224370049492
12:25:30,1,D20,W 4 St-Wash Sq,-74.000495,40.732338,1193.4135238385154
12:00:30,1,D21,Broadway-Lafayette St,-73.996204,40.725297,1345.0761406609454
12:00:30,1,D22,Grand St,-73.993753,40.718267,1490.9287228205696
12:15:30,1,D24,Atlantic Av-Barclays Ctr,-73.97689,40.68446,2161.0345355522063
12:15:30,1,D25,7 Av,-73.972367,40.67705,2310.150216786139
12:15:30,1,D26,Prospect Park,-73.962246,40.661614,2513.712880494612
12:15:30,1,D27,Parkside Av,-73.961495,40.655292,2613.6001992281367
12:15:30,1,D28,Church Av,-73.962982,40.650527,2701.11333660001
12:15:30,1,D29,Beverley Rd,-73.964492,40.644031,2792.319828035124
12:15:30,1,D30,Cortelyou Rd,-73.963891,40.640927,2870.4568579905094
12:15:30,1,D31,Newkirk Plaza,-73.962793,40.635082,2879.85733660001
12:15:30,1,D32,Avenue H,-73.961639,40.62927,2993.1821156439237
12:15:30,1,D33,Avenue J,-73.960803,40.625039,3090.0666570165986
12:15:30,1,D34,Avenue M,-73.959399,40.617618,3200.8730062229474
12:15:30,1,D35,Kings Hwy,-73.957734,40.60867,3145.25270883341
13:45:30,1,D37,Avenue U,-73.955929,40.5993,3364.6009519482764
13:45:30,1,D38,Neck Rd,-73.955161,40.595246,3468.698709280076
12:15:30,1,D39,Sheepshead Bay,-73.954155,40.586896,3413.7473844964493
13:45:30,1,D40,Brighton Beach,-73.961376,40.577621,3561.0748698765665
13:45:30,1,D41,Ocean Pkwy,-73.968501,40.576312,3707.440734215784
13:45:30,1,D42,W 8 St-NY Aquarium,-73.975939,40.576127,3597.659463529779
13:45:30,1,D43,Coney Island-Stillwell Av,-73.981233,40.577422,3713.534463529779
12:10:30,1,E01,World Trade Center,-74.009781,40.712582,1632.9786261178683
12:53:00,1,F01,Jamaica-179 St,-73.783817,40.712646,1833.9914070189018
13:28:00,1,F02,169 St,-73.793604,40.71047,1743.9914070189018
12:53:00,1,F03,Parsons Blvd,-73.803326,40.707564,1623.9914070189018
12:53:00,1,F04,Sutphin Blvd,-73.810708,40.70546,1533.9914070189018
12:53:00,1,F05,Briarwood,-73.820574,40.709179,1413.9914070189018
12:13:00,1,F06,Kew Gardens-Union Tpke,-73.831008,40.714441,1293.9914070189018
12:53:00,1,F07,75 Av,-73.837324,40.718331,1203.9914070189018
12:20:30,1,F09,Court Sq-23 St,-73.946,40.747846,355.1149444290536
12:15:30,1,F11,Lexington Av/53 St,-73.969055,40.757552,558.6863730004821
12:15:30,1,F12,5 Av/53 St,-73.975224,40.760167,642.353686595571
12:10:30,1,F14,2 Av,-73.989938,40.723402,1575.0715493602163
12:10:30,1,F15,Delancey St-Essex St,-73.988114,40.718611,1674.1860784657533
12:10:30,1,F16,East Broadway,-73.990173,40.713715,1757.5953852083935
13:55:30,1,F18,York St,-73.986751,40.701397,1922.9353756981698
12:15:30,1,F20,Bergen St,-73.990862,40.686145,1679.531463733411
12:15:30,1,F21,Carroll St,-73.995048,40.680303,1780.885435696028
12:15:30,1,F22,Smith-9 Sts,-73.995959,40.67358,1932.8871890566356
12:15:30,1,F23,4 Av-9 St,-73.989779,40.670272,2020.5910238648953
12:15:30,1,F24,7 Av,-73.980305,40.666271,2131.525102734819
12:15:30,1,F25,15 St-Prospect Park,-73.979493,40.660365,2245.72947367398
12:15:30,1,F26,Fort Hamilton Pkwy,-73.975776,40.650782,2418.5019855223213
12:15:30,1,F27,Church Av,-73.979678,40.644041,2419.6902416947037
13:45:30,1,F29,Ditmas Av,-73.978172,40.636119,2539.6902416947037
13:45:30,1,F30,18 Av,-73.976971,40.629755,2659.6902416947037
13:45:30,1,F31,Avenue I,-73.976127,40.625322,2719.6902416947037
13:45:30,1,F32,Bay Pkwy,-73.975264,40.620769,2779.6902416947037
13:45:30,1,F33,Avenue N,-73.974197,40.61514,2899.6902416947037
13:45:30,1,F34,Avenue P,-73.973022,40.608944,2989.6902416947037
13:45:30,1,F35,Kings Hwy,-73.972361,40.603217,3158.9713102196743
13:15:30,1,F36,Avenue U,-73.973357,40.596063,3266.947500695865
13:15:30,1,F38,Avenue X,-73.97425,40.58962,3368.9236911720554
12:25:30,1,F39,Neptune Av,-73.974574,40.581011,3489.757024505389
12:13:00,1,G05,Jamaica Center-Parsons/Archer,-73.801109,40.702147,1839.1827797292653
12:13:00,1,G06,Sutphin Blvd-Archer Av-JFK Airport,-73.807969,40.700486,1728.477265232392
12:13:00,1,G07,Jamaica-Van Wyck,-73.816859,40.702566,1593.0285703629052
12:13:00,1,G08,Forest Hills-71 Av,-73.844521,40.721691,1083.229502256997
12:58:00,1,G09,67 Av,-73.852719,40.726523,1177.7414070189018
12:58:00,1,G10,63 Dr-Rego Park,-73.861604,40.729846,1083.9914070189018
12:58:00,1,G11,Woodhaven Blvd,-73.869229,40.733106,993.4150277762822
12:58:00,1,G12,Grand Av-Newtown,-73.877223,40.737015,873.9914070189017
12:58:00,1,G13,Elmhurst Av,-73.882017,40.742454,780.4756370745604
12:20:30,1,G14,Jackson Hts-Roosevelt Av,-73.891338,40.746644,663.9914070189017
12:08:00,1,G15,65 St,-73.898453,40.749669,749.7087303459812
12:08:00,1,G16,Northern Blvd,-73.906006,40.752885,848.3213039261182
12:05:30,1,G18,46 St,-73.913333,40.756312,860.7976711279806
12:05:30,1,G19,Steinway St,-73.92074,40.756879,743.8904546331352
12:05:30,1,G20,36 St,-73.928781,40.752039,623.8904546331352
12:20:30,1,G21,Queens Plaza,-73.937243,40.748973,478.4822913678291
12:35:30,1,G22,Court Sq,-73.943832,40.746554,295.1149444290536
12:05:30,1,G24,21 St,-73.949724,40.744065,389.84972703774923
12:05:30,1,G26,Greenpoint Av,-73.954449,40.731352,530.4445064038151
12:05:30,1,G28,Nassau Av,-73.951277,40.724635,641.3942613057759
12:05:30,1,G29,Metropolitan Av,-73.951418,40.712792,793.5118721432144
12:05:30,1,G30,Broadway,-73.950308,40.706092,882.4687952201375
12:05:30,1,G31,Flushing Av,-73.950234,40.700377,973.8691642238275
12:05:30,1,G32,Myrtle-Willoughby Avs,-73.949046,40.694568,1059.9464174427117
12:05:30,1,G33,Bedford-Nostrand Avs,-73.953522,40.689627,1165.2343431393062
12:05:30,1,G34,Classon Av,-73.96007,40.688873,1248.8449200623832
12:05:30,1,G35,Clinton-Washington Avs,-73.966839,40.688089,1330.3572834896402
12:05:30,1,G36,Fulton St,-73.975375,40.687119,1421.1631254140386
12:25:30,1,H01,Aqueduct Racetrack,-73.834058,40.668234,3039.297270636211
13:05:30,1,H02,Aqueduct-N Conduit Av,-73.834058,40.668234,3100.436807006511
13:05:30,1,H03,Howard Beach-JFK Airport,-73.830301,40.660476,3217.043781694854
13:05:30,1,H04,Broad Channel,-73.815925,40.608382,3682.4253383784408
13:05:30,1,H06,Beach 67 St,-73.796924,40.590927,4011.3918500063473
13:05:30,1,H07,Beach 60 St,-73.788522,40.592374,4137.2485967715975
13:05:30,1,H08,Beach 44 St,-73.776013,40.592943,4246.924822488526
13:05:30,1,H09,Beach 36 St,-73.768175,40.595398,4348.197044710749
13:05:30,1,H10,Beach 25 St,-73.761353,40.600066,4448.637565156846
13:05:30,1,H11,Far Rockaway-Mott Av,-73.755405,40.603995,4538.9371519337055
12:25:30,1,H12,Beach 90 St,-73.813641,40.588034,3952.4824812355837
12:25:30,1,H13,Beach 98 St,-73.820558,40.585307,4052.5862548204896
12:25:30,1,H14,Beach 105 St,-73.827559,40.583209,4142.26244529668
12:25:30,1,H15,Rockaway Park-Beach 116 St,-73.835592,40.580903,4245.81189584613
12:03:00,1,J12,121 St,-73.828294,40.700492,2130.714970150425
12:03:00,1,J13,111 St,-73.836345,40.697418,2154.1301726123443
12:03:00,1,J14,104 St,-73.84433,40.695178,2321.434970150425
12:03:00,1,J15,Woodhaven Blvd,-73.851576,40.693879,2441.1301726123443
12:03:00,1,J16,85 St-Forest Pkwy,-73.86001,40.692435,2722.8358008598325
12:03:00,1,J17,75 St-Elderts Ln,-73.867139,40.691324,2630.7644278103116
12:03:00,1,J19,Cypress Hills,-73.87255,40.689941,2655.5272758984916
12:03:00,1,J20,Crescent St,-73.873785,40.683194,2480.7644278103116
12:03:00,1,J21,Norwood Av,-73.880039,40.68141,2390.7644278103116
12:03:00,1,J22,Cleveland St,-73.884639,40.679947,2400.6181215599986
12:05:30,3,J23,Van Siclen Av,-73.891688,40.678024,2240.7644278103116
13:15:30,2,J24,Alabama Av,-73.898654,40.676992,2180.7644278103116
12:05:30,3,J27,Broadway Junction,-73.904512,40.679498,2077.446040540338
13:15:30,2,J28,Chauncey St,-73.910456,40.682893,2150.7644278103116
12:05:30,3,J29,Halsey St,-73.916559,40.68637,2280.1192023461203
12:45:30,1,J30,Gates Av,-73.92227,40.68963,2300.7644278103116
12:45:30,1,J31,Kosciuszko St,-73.928814,40.693342,2266.475646871169
12:00:30,2,L01,8 Av,-74.002578,40.739777,1193.132125501276
12:00:30,2,L02,6 Av,-73.996786,40.737335,1292.2648717504605
12:00:30,2,L03,14 St-Union Sq,-73.99073,40.734789,1205.4904066063048
12:00:30,2,L05,3 Av,-73.986122,40.732849,1279.650234534829
12:00:30,2,L06,1 Av,-73.981628,40.730953,1317.4849087102111
12:05:30,2,L08,Bedford Av,-73.956872,40.717304,1134.425539832774
12:05:30,2,L10,Lorimer St,-73.950275,40.714063,1061.4848445362504
12:05:30,2,L11,Graham Av,-73.944053,40.714565,1102.1466040875998
12:05:30,2,L12,Grand St,-73.94067,40.711926,1188.6881038779604
12:05:30,2,L13,Montrose Av,-73.93985,40.707739,1228.301766291338
12:05:30,2,L14,Morgan Av,-73.933147,40.706152,1298.9729200982908
12:05:30,2,L15,Jefferson St,-73.922913,40.706607,1384.4011690502418
12:05:30,2,L16,DeKalb Av,-73.918425,40.703811,1452.1378203356735
12:05:30,2,L17,Myrtle-Wyckoff Avs,-73.911586,40.699814,1530.895455803654
12:05:30,2,L19,Halsey St,-73.904084,40.695602,1579.1790921672903
12:05:30,2,L20,Wilson Av,-73.904046,40.688764,1699.5292466472079
12:05:30,2,L21,Bushwick Av-Aberdeen St,-73.905249,40.682829,1792.2031833974806
12:05:30,2,L22,Broadway Junction,-73.90324,40.678856,1852.4460405403377
12:05:30,2,L24,Atlantic Av,-73.903097,40.675345,1956.8483709036002
12:05:30,2,L25,Sutter Av,-73.901975,40.669367,2033.3480373478963
12:05:30,2,L26,Livonia Av,-73.900571,40.664038,2099.076637891375
12:05:30,2,L27,New Lots Av,-73.899232,40.658733,2152.898852351731
12:05:30,2,L28,East 105 St,-73.899485,40.650573,2263.125273988347
13:55:30,2,L29,Canarsie-Rockaway Pkwy,-73.90185,40.646654,2386.8994434545657
12:05:30,3,M01,Middle Village-Metropolitan Av,-73.889601,40.711396,2155.453863361172
12:05:30,3,M04,Fresh Pond Rd,-73.895877,40.706186,2034.87207733111
12:05:30,3,M05,Forest Av,-73.903077,40.704423,1937.3524867097067
12:05:30,3,M06,Seneca Av,-73.90774,40.702762,1842.4928498381983
12:35:30,3,M08,Myrtle-Wyckoff Avs,-73.912385,40.69943,1755.895455803654
12:45:30,3,M09,Knickerbocker Av,-73.919711,40.698664,1856.2918465939465
12:05:30,3,M10,Central Av,-73.927397,40.697857,1971.3125232856758
12:25:30,1,M11,Myrtle Av,-73.935657,40.697207,2101.3126933677486
12:25:30,1,M12,Flushing Av,-73.941126,40.70026,2215.0216082559073
12:25:30,1,M13,Lorimer St,-73.947408,40.703869,2208.6242058812504
12:25:30,1,M14,Hewes St,-73.953431,40.70687,2115.565483946881
12:25:30,1,M16,Marcy Av,-73.957757,40.708359,2037.8322085341965
12:25:30,1,M18,Delancey St-Essex St,-73.987437,40.718315,1663.626601057561
12:05:30,2,M19,Bowery,-73.993915,40.72028,1641.2072137342266
12:05:30,2,M20,Canal St,-73.999892,40.718092,1525.8942055440475
12:00:30,2,M21,Chambers St,-74.003401,40.713243,1432.2510781796088
12:15:30,2,M22,Fulton St,-74.007582,40.710374,1526.2165487280176
12:15:30,2,M23,Broad St,-74.011056,40.706476,1591.1235254722037
12:00:30,1,N02,8 Av,-74.011719,40.635064,2998.025765767432
12:00:30,1,N03,Fort Hamilton Pkwy,-74.005351,40.631386,3145.496596645452
12:00:30,1,N04,New Utrecht Av,-73.996353,40.624842,3275.5609705786514
12:00:30,1,N05,18 Av,-73.990414,40.620671,3371.5312479894837
12:00:30,1,N06,20 Av,-73.985026,40.61741,3458.967755925992
12:00:30,1,N07,Bay Pkwy,-73.981848,40.611815,3556.7392791048
12:00:30,1,N08,Kings Hwy,-73.980353,40.603923,3675.8310051262247
12:00:30,1,N09,Avenue U,-73.979137,40.597473,3773.7421681887613
12:00:30,1,N10,86 St,-73.97823,40.592721,3854.261001724606
12:00:30,1,Q01,Canal St,-74.00046,40.718383,1430.659375014249
12:25:30,2,Q03,72 St,-73.958424,40.768799,769.9529779375209
12:10:30,1,Q04,86 St,-73.951787,40.777891,903.8014627860058
12:10:30,1,Q05,96 St,-73.947152,40.784318,995.9125738971169
12:00:30,1,R01,Astoria-Ditmars Blvd,-73.912034,40.775036,882.1257847099333
12:00:30,1,R03,Astoria Blvd,-73.917843,40.770258,785.8304380812534
12:00:30,1,R04,30 Av,-73.921479,40.766779,679.13349829843
12:00:30,1,R05,Broadway,-73.925508,40.76182,583.7525459174776
12:00:30,1,R06,36 Av,-73.929575,40.756804,471.271320621035
12:00:30,1,R08,39 Av-Dutch Kills,-73.932755,40.752882,353.72641044139425
12:00:30,1,R09,Queensboro Plaza,-73.940202,40.750582,191.28163432199128
12:00:30,1,R11,Lexington Av/59 St,-73.967258,40.76266,450.2828039126345
12:00:30,1,R13,5 Av/59 St,-73.973347,40.764811,547.9096526043296
12:00:30,1,R14,57 St-7 Av,-73.980658,40.764664,688.0698798770569
12:00:30,1,R15,49 St,-73.984139,40.759901,810.6143243215014
12:00:30,1,R16,Times Sq-42 St,-73.986754,40.754672,882.5610799775648
12:00:30,1,R17,34 St-Herald Sq,-73.98795,40.749567,985.5408298286667
12:05:30,1,R18,28 St,-73.988691,40.745494,1071.9183389689588
12:05:30,1,R19,23 St,-73.989344,40.741303,1154.8124801140987
12:00:30,1,R20,14 St-Union Sq,-73.990568,40.735736,1155.6647869204428
12:05:30,1,R21,8 St-NYU,-73.992629,40.730328,1341.0008694154078
12:05:30,1,R22,Prince St,-73.997702,40.724329,1433.15032518173
12:05:30,1,R23,Canal St,-74.001775,40.719527,1541.0651535443476
12:05:30,1,R24,City Hall,-74.006978,40.713282,1688.97967086196
12:05:30,1,R25,Cortlandt St,-74.011029,40.710668,1693.0554957752122
12:05:30,1,R26,Rector St,-74.013342,40.70722,1808.5033188574514
12:05:30,1,R27,Whitehall St-South Ferry,-74.012994,40.703087,1899.6205985243496
12:15:30,1,R28,Court St,-73.991777,40.6941,2076.5075826136485
12:15:30,1,R29,Jay St-MetroTech,-73.985942,40.69218,2006.904749510604
12:15:30,1,R30,DeKalb Av,-73.981824,40.690635,1940.1183366742807
12:00:30,1,R31,Atlantic Av-Barclays Ctr,-73.97881,40.683666,2103.1767343088345
12:00:30,1,R32,Union St,-73.98311,40.677316,2265.168326969101
12:00:30,1,R33,4 Av-9 St,-73.988302,40.670847,2245.5910238648953
12:00:30,1,R34,Prospect Av,-73.992872,40.665414,2342.177230761447
12:00:30,1,R35,25 St,-73.998091,40.660397,2416.4577737478726
12:00:30,1,R36,36 St,-74.003549,40.655144,2500.0412838875773
12:00:30,1,R39,45 St,-74.010006,40.648939,2701.9427756956716
12:30:30,1,R40,53 St,-74.014034,40.645069,2814.811859890371
12:00:30,1,R41,59 St,-74.017881,40.641362,2824.502379148131
12:00:30,1,R42,Bay Ridge Av,-74.023377,40.634967,2988.976627934339
12:00:30,1,R43,77 St,-74.02551,40.629742,3071.5852950387384
12:00:30,1,R44,86 St,-74.028398,40.622687,3255.297565150423
12:10:30,1,R45,Bay Ridge-95 St,-74.030876,40.616622,3324.6189692503212
12:05:30,1,S01,Franklin Av,-73.955827,40.680596,2145.8609552592075
12:05:30,2,S03,Park Pl,-73.957624,40.674772,2262.2012330369853
12:05:30,1,S04,Botanic Garden,-73.959245,40.670343,2386.777034518587
