start_time,ntransfers,stop_id,stop_name,stop_lon,stop_lat,duration
12:17:30,1,101,Van Cortlandt Park-242 St,-73.898583,40.889248,2065.4979984783236
12:17:30,1,103,238 St,-73.90087,40.884667,1958.7472502953394
12:17:30,1,104,231 St,-73.904834,40.878856,1863.912143912361
12:17:30,1,106,Marble Hill-225 St,-73.909831,40.874561,1770.4402774009134
12:17:30,1,107,215 St,-73.915279,40.869444,1662.315713955046
12:17:30,1,108,207 St,-73.918822,40.864621,1583.3309186334088
12:17:30,1,109,Dyckman St,-73.925536,40.860531,1485.2942915759184
12:17:30,1,110,191 St,-73.929412,40.855225,1395.0752439568707
12:17:30,1,111,181 St,-73.933596,40.849505,1299.8306552122817
13:47:30,1,112,168 St-Washington Hts,-73.940133,40.840556,1178.9803298326722
13:47:30,1,113,157 St,-73.94489,40.834041,1278.256759642031
13:47:30,1,114,145 St,-73.95036,40.826551,1393.9214069808454
12:10:00,1,115,137 St-City College,-73.953676,40.822008,1488.832201759592
12:10:00,1,116,125 St,-73.958372,40.815581,1379.0481626863743
12:10:00,1,117,116 St-Columbia University,-73.96411,40.807722,1256.8941986879063
12:10:00,1,118,Cathedral Pkwy (110 St),-73.966847,40.803967,1189.4093263892817
12:10:00,1,119,103 St,-73.968379,40.799446,1107.4790397897464
12:10:00,1,120,96 St,-73.972323,40.793919,935.070494587105
12:10:00,1,121,86 St,-73.976218,40.788644,882.4217555141686
12:10:00,1,122,79 St,-73.979917,40.783934,797.4814171348276
12:10:00,1,123,72 St,-73.98197,40.778453,704.0282571168983
12:10:00,1,124,66 St-Lincoln Center,-73.982209,40.77344,611.0663005951592
12:10:00,1,125,59 St-Columbus Circle,-73.981929,40.768247,529.9683302594839
12:00:00,1,126,50 St,-73.983849,40.761728,638.5957812398761
12:00:00,1,127,Times Sq-42 St,-73.987495,40.75529,657.5919130858633
12:00:00,1,128,34 St-Penn Station,-73.991057,40.750373,764.9814235753738
12:00:00,1,129,28 St,-73.993365,40.747215,846.7441332914264
12:00:00,1,130,23 St,-73.995657,40.744081,915.3713637025978
12:00:00,1,131,18 St,-73.997871,40.74104,983.8118769218823
12:00:00,1,132,14 St,-74.000201,40.737826,923.9849298867342
12:00:00,1,133,Christopher St-Sheridan Sq,-74.002906,40.733422,1157.093766830745
12:00:00,1,134,Houston St,-74.005367,40.728251,1240.2440422044665
12:00:00,1,135,Canal St,-74.006277,40.722854,1327.5193873721194
12:39:30,1,136,Franklin St,-74.006886,40.719318,1392.2718784044032
12:00:00,1,137,Chambers St,-74.009266,40.715478,1171.6362226889703
12:39:30,1,138,WTC Cortlandt,-74.012188,40.711835,1455.3362672887097
12:39:30,1,139,Rector St,-74.013783,40.707513,1534.6348341676905
12:39:30,1,142,South Ferry,-74.013664,40.702068,1639.3552555615317
12:10:00,1,201,Wakefield-241 St,-73.85062,40.903125,3753.32267099157
12:10:00,1,204,Nereid Av,-73.854376,40.898379,3525.0586226532014
12:10:00,1,205,233 St,-73.857473,40.893193,3393.0586226532014
12:10:00,1,206,225 St,-73.860341,40.888022,3297.058622653201
12:10:00,1,207,219 St,-73.862633,40.883895,3215.058622653201
12:10:00,1,208,Gun Hill Rd,-73.866256,40.87785,3106.5586226532014
12:10:00,1,209,Burke Av,-73.867164,40.871356,3161.032459876716
12:10:00,1,210,Allerton Av,-73.867352,40.865462,3070.607172520394
12:10:00,1,211,Pelham Pkwy,-73.867615,40.857192,2958.6991265433826
12:10:00,1,212,Bronx Park East,-73.868457,40.848828,2831.5491265433825
12:10:00,1,213,E 180 St,-73.873488,40.841894,2533.151811523585
12:10:00,1,214,West Farms Sq-E Tremont Av,-73.880049,40.840295,2539.144576402778
12:10:00,1,215,174 St,-73.887734,40.837288,2416.5466014176677
12:10:00,1,216,Freeman St,-73.891865,40.829993,2295.855346212433
12:10:00,1,217,Simpson St,-73.893064,40.824073,2183.6769871161187
12:10:00,1,218,Intervale Av,-73.896736,40.822181,2110.4640186449706
12:10:00,1,219,Prospect Av,-73.90177,40.819585,2029.192852274337
12:10:00,1,220,Jackson Av,-73.907807,40.81649,1933.5175429048616
12:10:00,1,221,3 Av-149 St,-73.917757,40.816109,1799.2544469660738
12:10:00,1,222,149 St-Grand Concourse,-73.926718,40.81841,1672.7241806222482
12:10:00,1,224,135 St,-73.94077,40.814229,1472.9783991542492
12:10:00,1,225,125 St,-73.945495,40.807754,1362.026440929706
12:10:00,1,226,116 St,-73.949625,40.802098,1262.8832062574018
12:10:00,1,227,Central Park North (110 St),-73.951822,40.799075,1193.501648228785
12:00:00,1,228,Park Place,-74.008811,40.713051,1260.842378737646
12:06:00,1,229,Fulton St,-74.006571,40.709416,1375.7150300946398
12:06:00,1,230,Wall St,-74.0091,40.706821,1451.1301244342624
12:06:00,1,231,Clark St,-73.993086,40.697466,1640.3437233353613
12:06:00,1,232,Borough Hall,-73.989998,40.693219,1757.077284979197
12:06:00,1,233,Hoyt St,-73.985065,40.690545,1845.8802945551204
12:06:00,1,234,Nevins St,-73.980492,40.688246,1944.3987624073775
12:06:00,1,235,Atlantic Av-Barclays Ctr,-73.977666,40.684359,2027.7275482191098
12:36:00,1,236,Bergen St,-73.975098,40.680829,2105.283330532035
12:36:00,1,237,Grand Army Plaza,-73.971046,40.675235,2219.3501321514677
12:36:00,1,238,Eastern Pkwy-Brooklyn Museum,-73.964375,40.671987,2322.804066246962
12:36:00,1,239,Franklin Av-Medgar Evers College,-73.958131,40.670682,2364.0822229903733
12:36:00,1,241,President St-Medgar Evers College,-73.950683,40.667883,2552.2535728352705
12:36:00,1,242,Sterling St,-73.95085,40.662742,2644.246043745606
12:36:00,1,243,Winthrop St,-73.9502,40.656652,2733.299712223867
12:36:00,1,244,Church Av,-73.949575,40.650843,2812.1380880200454
12:36:00,1,245,Beverly Rd,-73.948959,40.645098,2891.367353023417
12:36:00,1,246,Newkirk Av-Little Haiti,-73.948411,40.639967,2978.5558665369304
12:36:00,1,247,Flatbush Av-Brooklyn College,-73.947642,40.632836,3129.175423995888
12:36:00,1,248,Nostrand Av,-73.950466,40.669847,2498.281868211392
12:36:00,1,249,Kingston Av,-73.942161,40.669399,2586.803607341827
12:36:00,1,250,Crown Hts-Utica Av,-73.932942,40.668897,2613.538785207439
12:06:00,1,251,Sutter Av-Rutland Rd,-73.92261,40.664717,2756.663785207439
12:06:00,1,252,Saratoga Av,-73.916327,40.661453,2871.5179518741056
12:06:00,1,253,Rockaway Av,-73.908946,40.662549,2954.4507302390393
12:06:00,1,254,Junius St,-73.902447,40.663515,2870.1910152131327
12:06:00,1,255,Pennsylvania Av,-73.894895,40.664635,2977.8263187312323
12:06:00,1,256,Van Siclen Av,-73.889395,40.665449,3057.1090950808466
12:06:00,1,257,New Lots Av,-73.884079,40.666235,3134.109743639657
12:46:00,1,301,Harlem-148 St,-73.93647,40.82388,1729.667875808196
12:46:00,1,302,145 St,-73.936245,40.820421,1613.107854080874
13:57:30,1,401,Woodlawn,-73.878751,40.886037,2283.5274935378725
13:57:30,1,402,Mosholu Pkwy,-73.884655,40.87975,2161.1205222707977
13:57:30,1,405,Bedford Park Blvd-Lehman College,-73.890064,40.873412,2038.0621889374643
13:57:30,1,406,Kingsbridge Rd,-73.897174,40.86776,1928.2620966013608
13:57:30,1,407,Fordham Rd,-73.901034,40.862803,1840.1392743017093
13:57:30,1,408,183 St,-73.903879,40.858407,1755.8438296162428
13:57:30,1,409,Burnside Av,-73.907684,40.853453,1656.521122192662
13:57:30,1,410,176 St,-73.911794,40.84848,1565.4524132211086
13:57:30,1,411,Mt Eden Av,-73.914685,40.844434,1485.0982557200086
13:57:30,1,412,170 St,-73.917791,40.840075,1403.094722151104
13:57:30,1,413,167 St,-73.9214,40.835537,1311.2545273746541
13:57:30,1,414,161 St-Yankee Stadium,-73.925831,40.827994,1197.6796823790828
13:37:30,1,415,149 St-Grand Concourse,-73.927351,40.818375,1404.4018129540964
13:37:30,1,416,138 St-Grand Concourse,-73.929849,40.813224,1511.8952817494521
13:56:00,1,418,Fulton St,-74.009509,40.710368,1491.2125086206167
12:06:00,1,419,Wall St,-74.011862,40.707557,1569.8719220548646
12:06:00,1,420,Bowling Green,-74.014065,40.704817,1649.4575165294575
12:06:00,1,423,Borough Hall,-73.990151,40.692404,1923.3473428321872
12:10:00,1,501,Eastchester-Dyre Av,-73.830834,40.8883,3283.151811523585
12:10:00,1,502,Baychester Av,-73.838591,40.878663,3133.151811523585
12:10:00,1,503,Gun Hill Rd,-73.846384,40.869526,2983.151811523585
12:10:00,1,504,Pelham Pkwy,-73.855359,40.858985,2833.151811523585
12:10:00,1,505,Morris Park,-73.860495,40.854364,2743.151811523585
13:50:00,1,601,Pelham Bay Park,-73.828121,40.852462,3305.526673732258
13:50:00,1,602,Buhre Av,-73.832569,40.84681,3128.263515837521
13:50:00,1,603,Middletown Rd,-73.836322,40.843863,3057.970412389245
13:50:00,1,604,Westchester Sq-E Tremont Av,-73.842952,40.839892,2925.7939418010096
13:50:00,1,606,Zerega Av,-73.847036,40.836488,2838.7439418010094
13:50:00,1,607,Castle Hill Av,-73.851222,40.834255,2769.4980401616654
12:46:00,1,608,Parkchester,-73.860816,40.833226,2584.0842470582174
12:46:00,1,609,St Lawrence Av,-73.867618,40.831509,2827.9445797210155
12:46:00,1,610,Morrison Av-Soundview,-73.874516,40.829521,2726.793535740562
12:46:00,1,611,Elder Av,-73.879159,40.828584,2654.068131280571
12:46:00,1,612,Whitlock Av,-73.886283,40.826525,2541.3633693758093
12:46:00,1,613,Hunts Point Av,-73.890549,40.820948,2311.6842470582174
13:56:00,1,614,Longwood Av,-73.896435,40.816104,2428.9342667597366
13:56:00,1,615,E 149 St,-73.904098,40.812118,2326.163484664311
13:56:00,1,616,E 143 St-St Mary's St,-73.907657,40.808719,2249.4893885771394
13:56:00,1,617,Cypress Av,-73.914042,40.805368,2146.4457377834888
13:56:00,1,618,Brook Av,-73.91924,40.807566,2074.746930626431
13:56:00,1,619,3 Av-138 St,-73.926138,40.810476,1944.0388569872955
13:56:00,1,621,125 St,-73.937594,40.804138,1509.6408260682533
13:56:00,1,622,116 St,-73.941617,40.798629,1687.5076396654279
13:56:00,1,623,110 St,-73.94425,40.79502,1605.6193544362256
13:56:00,1,624,103 St,-73.947478,40.7906,1527.9783635980853
13:56:00,1,625,96 St,-73.95107,40.785672,1437.603957623883
13:56:00,1,626,86 St,-73.955589,40.779492,1195.7480326964337
13:56:00,1,627,77 St,-73.959874,40.77362,1232.1665080478103
13:56:00,1,628,68 St-Hunter College,-73.96387,40.768141,1138.6293402038818
13:56:00,1,629,59 St,-73.967967,40.762526,963.2480326964337
13:56:00,1,630,51 St,-73.97192,40.757107,928.9751530450759
12:10:00,1,631,Grand Central-42 St,-73.976848,40.751776,813.2480326964336
12:10:00,1,632,33 St,-73.982076,40.746081,929.2186984841725
12:10:00,1,633,28 St,-73.984264,40.74307,999.0401622189936
12:10:00,1,634,23 St,-73.986599,40.739864,1066.277915321541
13:56:00,1,635,14 St-Union Sq,-73.989951,40.734673,1077.8724391541734
12:06:00,1,636,Astor Pl,-73.99107,40.730054,1234.658582991704
12:00:00,1,637,Bleecker St,-73.994659,40.725915,1276.6654945430955
12:00:00,1,638,Spring St,-73.997141,40.722301,1347.1912677389719
12:00:00,1,639,Canal St,-74.000193,40.718803,1421.2742288110842
12:06:00,1,640,Brooklyn Bridge-City Hall,-74.004131,40.713065,1374.9493257227546
12:16:00,1,701,Flushing-Main St,-73.83003,40.7596,2443.721379639573
12:16:00,1,702,Mets-Willets Point,-73.845625,40.754622,2278.6987259178904
12:16:00,1,705,111 St,-73.855334,40.75173,2340.3762973462717
12:16:00,1,706,103 St-Corona Plaza,-73.8627,40.749865,2261.468927501782
12:16:00,1,707,Junction Blvd,-73.869527,40.749145,2059.8376780818994
12:16:00,1,708,90 St-Elmhurst Av,-73.876613,40.748408,2110.565809393745
12:16:00,1,709,82 St-Jackson Hts,-73.883697,40.747659,2005.5050659667277
12:16:00,1,710,74 St-Broadway,-73.891394,40.746848,1887.9426288237592
12:16:00,1,711,69 St,-73.896403,40.746325,1819.0061423372726
13:56:00,1,712,61 St-Woodside,-73.902984,40.74563,1737.0866198112813
13:56:00,1,713,52 St,-73.912549,40.744149,1619.1401617048052
13:56:00,1,714,46 St-Bliss St,-73.918435,40.743132,1562.8506880205946
13:56:00,1,715,40 St-Lowery St,-73.924016,40.743781,1504.5450048977475
13:56:00,1,716,33 St-Rawson St,-73.930997,40.744587,1420.1529930634279
13:56:00,1,718,Queensboro Plaza,-73.940202,40.750582,1275.8713604103668
12:06:00,1,719,Court Sq,-73.945264,40.747023,1169.6339002769948
12:16:00,1,720,Hunters Point Av,-73.948916,40.742216,1070.15923285554
12:06:00,1,721,Vernon Blvd-Jackson Av,-73.953581,40.742626,1027.1817408941251
12:06:00,1,723,Grand Central-42 St,-73.976041,40.751431,813.2480326964336
12:06:00,1,724,5 Av,-73.981963,40.753821,731.342330727026
12:06:00,1,725,Times Sq-42 St,-73.987691,40.755477,657.5919130858633
12:39:30,1,726,34 St-Hudson Yards,-74.00191,40.755882,802.1941028668853
12:06:00,1,901,Grand Central-42 St,-73.979189,40.752769,693.2480326964336
12:06:00,1,902,Times Sq-42 St,-73.986229,40.755983,597.5919130858633
13:47:30,0,A02,Inwood-207 St,-73.919899,40.868072,1523.8739304015803
13:47:30,0,A03,Dyckman St,-73.927271,40.865491,1424.135103585938
13:47:30,0,A05,190 St,-73.93418,40.859022,1293.7550926029617
13:47:30,0,A06,181 St,-73.937969,40.851695,1180.8701807086886
13:47:30,0,A07,175 St,-73.939704,40.847391,1088.0851751960095
13:47:30,0,A09,168 St,-73.939561,40.840719,953.4911986204377
13:55:30,0,A10,163 St-Amsterdam Av,-73.939892,40.836013,896.7878812162991
13:55:30,0,A11,155 St,-73.941514,40.830518,811.9180542787522
12:03:30,0,A12,145 St,-73.944216,40.824783,683.5075900193565
12:03:30,0,A14,135 St,-73.947649,40.817894,568.5352225809696
12:03:30,0,A15,125 St,-73.952343,40.811109,448.25719567514005
12:03:30,0,A16,116 St,-73.954882,40.805085,352.9269384109501
12:03:30,0,A17,Cathedral Pkwy (110 St),-73.958161,40.800603,261.495994355006
12:03:30,0,A18,103 St,-73.961454,40.796092,184.07204809357523
12:03:30,0,A19,96 St,-73.964696,40.791642,93.85594639865997
13:37:30,0,A20,86 St,-73.968916,40.785868,0.0
12:00:00,0,A21,81 St-Museum of Natural History,-73.972143,40.781433,82.56010928961749
12:00:00,0,A22,72 St,-73.97641,40.775594,182.6523981088357
12:00:00,0,A24,59 St-Columbus Circle,-73.981736,40.768296,302.9931325238656
12:00:00,0,A25,50 St,-73.985984,40.762456,428.6593760875736
12:06:00,0,A27,42 St-Port Authority Bus Terminal,-73.989735,40.757308,537.5919130858633
12:06:00,0,A28,34 St-Penn Station,-73.993391,40.752287,652.3236204029365
12:10:00,0,A30,23 St,-73.998041,40.745906,741.8774425558227
12:06:00,0,A31,14 St,-74.00169,40.740893,831.0780574674291
12:06:00,0,A32,W 4 St-Wash Sq,-74.000495,40.732338,972.6013576966116
12:06:00,0,A33,Spring St,-74.003739,40.726227,1095.4710241046798
12:06:00,0,A34,Canal St,-74.005229,40.720824,1143.9928871443688
12:06:00,0,A36,Chambers St,-74.008585,40.714111,1259.7682310058053
12:06:00,0,A38,Fulton St,-74.007691,40.710197,1369.4102880322819
12:06:00,0,A40,High St,-73.990531,40.699337,1562.4967636481692
12:06:00,0,A41,Jay St-MetroTech,-73.987342,40.692338,1693.6980754544256
12:06:00,0,A42,Hoyt-Schermerhorn Sts,-73.985001,40.688484,1821.090137409895
12:20:00,0,A43,Lafayette Av,-73.973946,40.686113,1973.3303971501548
12:20:00,0,A44,Clinton-Washington Avs,-73.965838,40.683263,2053.6239125085162
12:20:00,0,A45,Franklin Av,-73.956848,40.68138,2186.3527536801716
12:06:00,0,A46,Nostrand Av,-73.950426,40.680438,2166.33723605593
12:06:00,0,A47,Kingston-Throop Avs,-73.940858,40.679921,2291.917787606299
12:06:00,0,A48,Utica Av,-73.930729,40.679364,2334.405854098157
12:06:00,0,A49,Ralph Av,-73.920786,40.678822,2472.0691365241278
12:06:00,0,A50,Rockaway Av,-73.911946,40.67834,2573.787402777998
12:06:00,0,A51,Broadway Junction,-73.905316,40.678334,2518.352627633855
12:06:00,0,A52,Liberty Av,-73.896548,40.674542,2656.3683227011193
12:06:00,0,A53,Van Siclen Av,-73.890358,40.67271,2752.526768142076
12:06:00,0,A54,Shepherd Av,-73.88075,40.67413,2854.0248870284568
12:06:00,0,A55,Euclid Av,-73.872106,40.675377,2835.680082352634
12:06:00,0,A57,Grant Av,-73.86505,40.677044,2965.886763867111
12:06:00,0,A59,80 St,-73.858992,40.679371,3063.393407673369
12:06:00,0,A60,88 St,-73.85147,40.679843,3162.5830480843283
12:06:00,0,A61,Rockaway Blvd,-73.843853,40.680429,3256.006965786857
12:06:00,0,A63,104 St,-73.837683,40.681711,3347.0549169638407
12:06:00,0,A64,111 St,-73.832163,40.684331,3438.1902960252123
12:06:00,0,A65,Ozone Park-Lefferts Blvd,-73.825798,40.685951,3549.0687557123365
12:46:00,0,B04,21 St-Queensbridge,-73.942836,40.754203,1395.695944771902
12:46:00,0,B06,Roosevelt Island,-73.95326,40.759145,1237.7232542396619
12:46:00,0,B08,Lexington Av/63 St,-73.966113,40.764629,1040.2451818636184
12:46:00,0,B10,57 St,-73.97745,40.763972,975.6959447719022
12:00:00,0,B12,9 Av,-73.994324,40.646292,2743.799133770746
12:00:00,0,B13,Fort Hamilton Pkwy,-73.994304,40.640914,2862.616195074618
12:00:00,0,B14,50 St,-73.994791,40.63626,2943.376138256436
12:00:00,0,B15,55 St,-73.995476,40.631435,3046.4045877585704
12:00:00,0,B16,62 St,-73.996895,40.626472,3111.3529698849184
12:00:00,0,B17,71 St,-73.998864,40.619589,3214.2502594712237
12:00:00,0,B18,79 St,-74.00061,40.613501,3318.7010440646613
12:00:00,0,B19,18 Av,-74.001736,40.607954,3403.184615493233
12:00:00,0,B20,20 Av,-73.998168,40.604556,3488.3961951930187
12:00:00,0,B21,Bay Pkwy,-73.993728,40.601875,3569.55412771276
13:50:00,0,B22,25 Av,-73.986829,40.597704,3696.3602793579676
13:50:00,0,B23,Bay 50 St,-73.983765,40.588841,3904.265776211543
12:07:30,0,D01,Norwood-205 St,-73.878855,40.874811,1917.3048750509113
12:07:30,0,D03,Bedford Park Blvd,-73.887138,40.873244,1748.6051207287705
12:07:30,0,D04,Kingsbridge Rd,-73.893509,40.866978,1630.064736113386
12:07:30,0,D05,Fordham Rd,-73.897749,40.861296,1529.9318502073456
12:07:30,0,D06,182-183 Sts,-73.900741,40.856093,1444.7590629271294
13:37:30,0,D07,Tremont Av,-73.905227,40.85041,1361.1586894444029
13:37:30,0,D08,174-175 Sts,-73.910136,40.8459,1334.2404155881552
13:37:30,0,D09,170 St,-73.9134,40.839306,1228.6966060643456
13:37:30,0,D10,167 St,-73.91844,40.833771,1121.4583938636767
13:37:30,0,D11,161 St-Yankee Stadium,-73.925651,40.827905,972.6796823790828
13:37:30,0,D12,155 St,-73.938209,40.830135,839.2043061820924
12:07:30,0,D13,145 St,-73.944216,40.824783,690.6143031468561
12:00:00,0,D14,7 Av,-73.981637,40.762862,436.05289049407327
12:00:00,0,D15,47-50 Sts-Rockefeller Ctr,-73.981329,40.758663,540.6959447719022
12:00:00,0,D16,42 St-Bryant Pk,-73.984569,40.754222,639.5200700021047
12:00:00,0,D17,34 St-Herald Sq,-73.987823,40.749719,724.5772655740604
13:56:00,0,D18,23 St,-73.992821,40.742878,1061.7521218805382
13:56:00,0,D19,14 St,-73.996209,40.738228,1141.9465762137845
12:00:00,0,D20,W 4 St-Wash Sq,-74.000495,40.732338,912.7743053520438
12:00:00,0,D21,Broadway-Lafayette St,-73.996204,40.725297,1064.4369221744737
12:00:00,0,D22,Grand St,-73.993753,40.718267,1210.2895043340982
12:06:00,0,D24,Atlantic Av-Barclays Ctr,-73.97689,40.68446,1905.0744363358745
12:06:00,0,D25,7 Av,-73.972367,40.67705,2057.6876530511317
12:06:00,0,D26,Prospect Park,-73.962246,40.661614,2270.6127023607964
12:06:00,0,D27,Parkside Av,-73.961495,40.655292,2388.631032336435
12:06:00,0,D28,Church Av,-73.962982,40.650527,2420.474118113538
13:46:00,0,D29,Beverley Rd,-73.964492,40.644031,2527.570536317232
13:56:00,0,D30,Cortelyou Rd,-73.963891,40.640927,2605.7075662726174
12:06:00,0,D31,Newkirk Plaza,-73.962793,40.635082,2599.2181181135384
12:26:00,0,D32,Avenue H,-73.961639,40.62927,2712.542897157452
12:26:00,0,D33,Avenue J,-73.960803,40.625039,2809.427438530127
12:26:00,0,D34,Avenue M,-73.959399,40.617618,2920.233787736476
12:06:00,0,D35,Kings Hwy,-73.957734,40.60867,2864.6134903469388
13:56:00,0,D37,Avenue U,-73.955929,40.5993,3083.961733461805
13:56:00,0,D38,Neck Rd,-73.955161,40.595246,3188.0594907936047
12:06:00,0,D39,Sheepshead Bay,-73.954155,40.586896,3133.7738964383093
13:56:00,0,D40,Brighton Beach,-73.961376,40.577621,3295.080796541296
13:56:00,0,D41,Ocean Pkwy,-73.968501,40.576312,3483.825723666494
13:56:00,0,D42,W 8 St-NY Aquarium,-73.975939,40.576127,3598.3754040848553
13:56:00,0,D43,Coney Island-Stillwell Av,-73.981233,40.577422,3687.141361531664
12:06:00,0,E01,World Trade Center,-74.009781,40.712582,1327.7691252984152
13:56:00,0,F01,Jamaica-179 St,-73.783817,40.712646,2917.8898091437222
13:16:00,0,F02,169 St,-73.793604,40.71047,2858.730797647074
12:10:00,0,F03,Parsons Blvd,-73.803326,40.707564,2714.4612377151507
12:10:00,0,F04,Sutphin Blvd,-73.810708,40.70546,2648.730797647074
12:10:00,0,F05,Briarwood,-73.820574,40.709179,2519.25155439097
12:10:00,0,F06,Kew Gardens-Union Tpke,-73.831008,40.714441,2363.5167932707063
12:10:00,0,F07,75 Av,-73.837324,40.718331,2272.242992769025
13:56:00,0,F09,Court Sq-23 St,-73.946,40.747846,1079.793725858317
13:56:00,0,F11,Lexington Av/53 St,-73.969055,40.757552,866.8299836917996
13:56:00,0,F12,5 Av/53 St,-73.975224,40.760167,776.1988136382188
12:36:00,0,F14,2 Av,-73.989938,40.723402,1394.8540650316165
12:36:00,0,F15,Delancey St-Essex St,-73.988114,40.718611,1506.787674990123
12:36:00,0,F16,East Broadway,-73.990173,40.713715,1597.53677742209
12:36:00,0,F18,York St,-73.986751,40.701397,1752.2043157013725
12:36:00,0,F20,Bergen St,-73.990862,40.686145,1990.012632237929
12:36:00,0,F21,Carroll St,-73.995048,40.680303,2094.8021059221396
12:36:00,0,F22,Smith-9 Sts,-73.995959,40.67358,2245.5614972678363
12:36:00,0,F23,4 Av-9 St,-73.989779,40.670272,2328.928163934503
12:36:00,0,F24,7 Av,-73.980305,40.666271,2248.6980754544256
12:36:00,0,F25,15 St-Prospect Park,-73.979493,40.660365,2411.0675853534713
12:36:00,0,F26,Fort Hamilton Pkwy,-73.975776,40.650782,2583.8400972018126
12:36:00,0,F27,Church Av,-73.979678,40.644041,2488.6980754544256
12:36:00,0,F29,Ditmas Av,-73.978172,40.636119,2608.6980754544256
12:36:00,0,F30,18 Av,-73.976971,40.629755,2728.6980754544256
12:36:00,0,F31,Avenue I,-73.976127,40.625322,2788.6980754544256
12:36:00,0,F32,Bay Pkwy,-73.975264,40.620769,2848.6980754544256
12:36:00,0,F33,Avenue N,-73.974197,40.61514,2968.6980754544256
12:36:00,0,F34,Avenue P,-73.973022,40.608944,3058.6980754544256
12:36:00,0,F35,Kings Hwy,-73.972361,40.603217,3274.5203116292423
13:20:00,0,F36,Avenue U,-73.973357,40.596063,3386.3613591322874
12:06:00,0,F38,Avenue X,-73.97425,40.58962,3483.2755732838214
12:06:00,0,F39,Neptune Av,-73.974574,40.581011,3609.6552524282065
12:56:00,0,G05,Jamaica Center-Parsons/Archer,-73.801109,40.702147,2857.882064583969
13:56:00,0,G06,Sutphin Blvd-Archer Av-JFK Airport,-73.807969,40.700486,2747.176550087096
13:56:00,0,G07,Jamaica-Van Wyck,-73.816859,40.702566,2611.7278552176085
12:10:00,0,G08,Forest Hills-71 Av,-73.844521,40.721691,2138.730797647074
12:10:00,0,G09,67 Av,-73.852719,40.726523,2287.7207300907803
12:10:00,0,G10,63 Dr-Rego Park,-73.861604,40.729846,2185.683757272364
12:10:00,0,G11,Woodhaven Blvd,-73.869229,40.733106,2073.5582960177517
12:10:00,0,G12,Grand Av-Newtown,-73.877223,40.737015,1955.4551652626874
12:10:00,0,G13,Elmhurst Av,-73.882017,40.742454,1849.8640050416927
12:10:00,0,G14,Jackson Hts-Roosevelt Av,-73.891338,40.746644,1682.6906918736054
12:10:00,0,G15,65 St,-73.898453,40.749669,1850.581980868387
12:00:00,0,G16,Northern Blvd,-73.906006,40.752885,1795.476452557244
12:00:00,0,G18,46 St,-73.913333,40.756312,1705.476452557244
12:00:00,0,G19,Steinway St,-73.92074,40.756879,1588.5692360623987
12:00:00,0,G20,36 St,-73.928781,40.752039,1468.5692360623987
13:56:00,0,G21,Queens Plaza,-73.937243,40.748973,1203.603869484888
12:10:00,1,G22,Court Sq,-73.943832,40.746554,1139.793725858317
12:10:00,1,G24,21 St,-73.949724,40.744065,1234.5285084670124
12:10:00,1,G26,Greenpoint Av,-73.954449,40.731352,1375.1232878330784
12:10:00,1,G28,Nassau Av,-73.951277,40.724635,1486.0730427350393
12:10:00,1,G29,Metropolitan Av,-73.951418,40.712792,1638.1906535724777
12:10:00,1,G30,Broadway,-73.950308,40.706092,1727.1475766494007
12:10:00,1,G31,Flushing Av,-73.950234,40.700377,1818.547945653091
12:10:00,1,G32,Myrtle-Willoughby Avs,-73.949046,40.694568,1904.625198871975
12:00:00,0,G33,Bedford-Nostrand Avs,-73.953522,40.689627,2009.9131245685694
12:00:00,0,G34,Classon Av,-73.96007,40.688873,2093.523701491646
12:00:00,0,G35,Clinton-Washington Avs,-73.966839,40.688089,2175.0360649189033
12:00:00,0,G36,Fulton St,-73.975375,40.687119,2168.0513859556518
12:30:00,0,H01,Aqueduct Racetrack,-73.834058,40.668234,3466.8854704597543
13:26:00,0,H02,Aqueduct-N Conduit Av,-73.834058,40.668234,3545.8014446056454
13:26:00,0,H03,Howard Beach-JFK Airport,-73.830301,40.660476,3644.631981518397
13:26:00,0,H04,Broad Channel,-73.815925,40.608382,4110.013538201984
13:26:00,0,H06,Beach 67 St,-73.796924,40.590927,4438.980049829891
13:26:00,0,H07,Beach 60 St,-73.788522,40.592374,4564.836796595141
13:26:00,0,H08,Beach 44 St,-73.776013,40.592943,4674.51302231207
13:26:00,0,H09,Beach 36 St,-73.768175,40.595398,4775.785244534292
13:26:00,0,H10,Beach 25 St,-73.761353,40.600066,4876.22576498039
13:26:00,0,H11,Far Rockaway-Mott Av,-73.755405,40.603995,4966.525351757249
13:56:00,0,H12,Beach 90 St,-73.813641,40.588034,4380.070681059127
13:56:00,0,H13,Beach 98 St,-73.820558,40.585307,4480.174454644033
13:56:00,0,H14,Beach 105 St,-73.827559,40.583209,4569.850645120224
13:56:00,0,H15,Rockaway Park-Beach 116 St,-73.835592,40.580903,4673.400095669674
12:16:00,0,J12,121 St,-73.828294,40.700492,3149.414255005129
12:16:00,0,J13,111 St,-73.836345,40.697418,3172.829457467048
12:16:00,0,J14,104 St,-73.84433,40.695178,3328.352627633855
12:16:00,0,J15,Woodhaven Blvd,-73.851576,40.693879,3238.352627633855
12:16:00,0,J16,85 St-Forest Pkwy,-73.86001,40.692435,3250.7368349453363
12:16:00,0,J17,75 St-Elderts Ln,-73.867139,40.691324,3058.352627633855
12:16:00,0,J19,Cypress Hills,-73.87255,40.689941,3083.1154757220347
12:56:00,0,J20,Crescent St,-73.873785,40.683194,2908.352627633855
12:56:00,0,J21,Norwood Av,-73.880039,40.68141,2818.352627633855
12:56:00,0,J22,Cleveland St,-73.884639,40.679947,2816.330533410138
12:56:00,0,J23,Van Siclen Av,-73.891688,40.678024,2668.352627633855
12:56:00,0,J24,Alabama Av,-73.898654,40.676992,2608.352627633855
12:56:00,0,J27,Broadway Junction,-73.904512,40.679498,2518.352627633855
12:56:00,0,J28,Chauncey St,-73.910456,40.682893,2578.352627633855
12:56:00,0,J29,Halsey St,-73.916559,40.68637,2604.587241653696
12:56:00,0,J30,Gates Av,-73.92227,40.68963,2456.2257604378788
12:56:00,0,J31,Kosciuszko St,-73.928814,40.693342,2417.304661866462
13:56:00,1,L01,8 Av,-74.002578,40.739777,891.0780574674291
12:06:00,1,L02,6 Av,-73.996786,40.737335,990.2108037166137
12:06:00,1,L03,14 St-Union Sq,-73.99073,40.734789,1081.6827833381565
12:06:00,1,L05,3 Av,-73.986122,40.732849,1131.5553257110378
12:06:00,1,L06,1 Av,-73.981628,40.730953,1181.22321500747
12:06:00,1,L08,Bedford Av,-73.956872,40.717304,1385.4367240684253
12:06:00,1,L10,Lorimer St,-73.950275,40.714063,1458.377419364949
12:06:00,1,L11,Graham Av,-73.944053,40.714565,1499.0391789162984
12:06:00,1,L12,Grand St,-73.94067,40.711926,1587.631460795493
12:06:00,1,L13,Montrose Av,-73.93985,40.707739,1625.1943411200368
12:06:00,1,L14,Morgan Av,-73.933147,40.706152,1706.2575981859857
12:06:00,1,L15,Jefferson St,-73.922913,40.706607,1813.0342154366597
12:06:00,1,L16,DeKalb Av,-73.918425,40.703811,1877.637191425838
12:06:00,1,L17,Myrtle-Wyckoff Avs,-73.911586,40.699814,1952.9220274914119
12:06:00,1,L19,Halsey St,-73.904084,40.695602,2023.663663179144
12:06:00,1,L20,Wilson Av,-73.904046,40.688764,2154.115394940382
12:06:00,1,L21,Bushwick Av-Aberdeen St,-73.905249,40.682829,2217.079654061752
12:06:00,1,L22,Broadway Junction,-73.90324,40.678856,2300.713739274785
12:06:00,1,L24,Atlantic Av,-73.903097,40.675345,2379.2608879889112
12:06:00,1,L25,Sutter Av,-73.901975,40.669367,2462.439672849469
12:06:00,1,L26,Livonia Av,-73.900571,40.664038,2538.7276019746073
12:06:00,1,L27,New Lots Av,-73.899232,40.658733,2628.905658864153
12:06:00,1,L28,East 105 St,-73.899485,40.650573,2761.64423048924
13:56:00,1,L29,Canarsie-Rockaway Pkwy,-73.90185,40.646654,2843.0889860496936
13:26:00,0,M01,Middle Village-Metropolitan Av,-73.889601,40.711396,2578.9367457979833
13:16:00,0,M04,Fresh Pond Rd,-73.895877,40.706186,2458.3549597679216
13:26:00,0,M05,Forest Av,-73.903077,40.704423,2359.379058397464
13:16:00,0,M06,Seneca Av,-73.90774,40.702762,2264.5194215259557
13:16:00,0,M08,Myrtle-Wyckoff Avs,-73.912385,40.69943,2179.378338240466
12:46:00,0,M09,Knickerbocker Av,-73.919711,40.698664,2279.774729030758
13:16:00,0,M10,Central Av,-73.927397,40.697857,2394.7954057224874
12:46:00,0,M11,Myrtle Av,-73.935657,40.697207,2270.7137604378786
12:46:00,0,M12,Flushing Av,-73.941126,40.70026,2161.347954122358
12:46:00,0,M13,Lorimer St,-73.947408,40.703869,2059.974033569681
12:46:00,0,M14,Hewes St,-73.953431,40.70687,1966.9153116353116
12:46:00,0,M16,Marcy Av,-73.957757,40.708359,1889.182036222627
12:46:00,0,M18,Delancey St-Essex St,-73.987437,40.718315,1514.9764287459916
12:16:00,0,M19,Bowery,-73.993915,40.72028,1532.9177327061159
12:16:00,0,M20,Canal St,-73.999892,40.718092,1431.4113611434063
12:16:00,0,M21,Chambers St,-74.003401,40.713243,1518.5941505090477
12:16:00,0,M22,Fulton St,-74.007582,40.710374,1600.2355310284977
13:40:30,1,M23,Broad St,-74.011056,40.706476,1677.4665978016428
12:00:00,0,N02,8 Av,-74.011719,40.635064,2859.5666158553718
12:00:00,0,N03,Fort Hamilton Pkwy,-74.005351,40.631386,2947.3472825220383
12:00:00,0,N04,New Utrecht Av,-73.996353,40.624842,3064.458831078469
12:00:00,0,N05,18 Av,-73.990414,40.620671,3160.429108489301
12:00:00,0,N06,20 Av,-73.985026,40.61741,3247.865616425809
12:00:00,0,N07,Bay Pkwy,-73.981848,40.611815,3345.637139604617
12:00:00,0,N08,Kings Hwy,-73.980353,40.603923,3473.141470050986
12:00:00,0,N09,Avenue U,-73.979137,40.597473,3588.833726392775
12:00:00,0,N10,86 St,-73.97823,40.592721,3717.410327151914
12:06:00,1,Q01,Canal St,-74.00046,40.718383,1205.6902081225476
12:46:00,0,Q03,72 St,-73.958424,40.768799,1170.683048217663
12:46:00,0,Q04,86 St,-73.951787,40.777891,1295.7224831794051
12:46:00,0,Q05,96 St,-73.947152,40.784318,1388.720947081095
12:46:00,0,R01,Astoria-Ditmars Blvd,-73.912034,40.775036,2013.7155124672386
12:46:00,0,R03,Astoria Blvd,-73.917843,40.770258,1917.420165838559
12:46:00,0,R04,30 Av,-73.921479,40.766779,1810.7232260557357
12:46:00,0,R05,Broadway,-73.925508,40.76182,1715.3422736747832
12:46:00,0,R06,36 Av,-73.929575,40.756804,1602.8610483783407
12:46:00,0,R08,39 Av-Dutch Kills,-73.932755,40.752882,1485.3161381987
12:46:00,0,R09,Queensboro Plaza,-73.940202,40.750582,1322.871362079297
12:46:00,0,R11,Lexington Av/59 St,-73.967258,40.76266,1129.4722095434047
12:46:00,0,R13,5 Av/59 St,-73.973347,40.764811,1020.7913723949416
12:46:00,0,R14,57 St-7 Av,-73.980658,40.764664,840.7257243164487
12:06:00,1,R15,49 St,-73.984139,40.759901,751.5968006713961
12:00:00,1,R16,Times Sq-42 St,-73.986754,40.754672,657.5919130858633
12:06:00,1,R17,34 St-Herald Sq,-73.98795,40.749567,760.5716629369651
12:00:00,1,R18,28 St,-73.988691,40.745494,846.9491720772575
12:00:00,1,R19,23 St,-73.989344,40.741303,929.8433132223972
12:06:00,1,R20,14 St-Union Sq,-73.990568,40.735736,930.695620028741
13:40:30,1,R21,8 St-NYU,-73.992629,40.730328,1132.5714224995133
13:40:30,1,R22,Prince St,-73.997702,40.724329,1256.2784117468252
13:40:30,1,R23,Canal St,-74.001775,40.719527,1369.4917810918623
12:06:00,1,R24,City Hall,-74.006978,40.713282,1533.6750137213248
12:06:00,1,R25,Cortlandt St,-74.011029,40.710668,1391.8115020615166
12:06:00,1,R26,Rector St,-74.013342,40.70722,1507.2593251437559
12:06:00,1,R27,Whitehall St-South Ferry,-74.012994,40.703087,1598.3766048106538
13:40:30,1,R28,Court St,-73.991777,40.6941,1802.3453548106538
12:26:00,0,R29,Jay St-MetroTech,-73.985942,40.69218,1828.6980754544256
12:06:00,0,R30,DeKalb Av,-73.981824,40.690635,1734.3977664423603
12:00:00,0,R31,Atlantic Av-Barclays Ctr,-73.97881,40.683666,1928.3520098183321
12:00:00,0,R32,Union St,-73.98311,40.677316,2040.1991600773997
12:00:00,0,R33,4 Av-9 St,-73.988302,40.670847,2152.2544364593095
12:00:00,0,R34,Prospect Av,-73.992872,40.665414,2261.9378535447363
12:00:00,0,R35,25 St,-73.998091,40.660397,2379.1637418696096
12:00:00,0,R36,36 St,-74.003549,40.655144,2369.2097481818028
12:00:00,0,R39,45 St,-74.010006,40.648939,2509.934358071348
12:00:00,0,R40,53 St,-74.014034,40.645069,2603.7097203901885
12:00:00,0,R41,59 St,-74.017881,40.641362,2676.748080534568
12:00:00,0,R42,Bay Ridge Av,-74.023377,40.634967,2841.222329320776
12:00:00,0,R43,77 St,-74.02551,40.629742,2923.8309964251757
12:00:00,0,R44,86 St,-74.028398,40.622687,3108.282931506324
12:20:00,0,R45,Bay Ridge-95 St,-74.030876,40.616622,3176.8646706367585
12:06:00,0,S01,Franklin Av,-73.955827,40.680596,2246.3527536801716
12:06:00,0,S03,Park Pl,-73.957624,40.674772,2362.693031457949
12:06:00,0,S04,Botanic Garden,-73.959245,40.670343,2473.3454847299427
