start_time,ntransfers,stop_id,stop_name,stop_lon,stop_lat,duration
12:16:00,1,101,Van Cortlandt Park-242 St,-73.898583,40.889248,2163.9726004495137
12:16:00,1,103,238 St,-73.90087,40.884667,2057.2218522665294
12:16:00,1,104,231 St,-73.904834,40.878856,1962.386745883551
12:16:00,1,106,Marble Hill-225 St,-73.909831,40.874561,1868.9148793721038
12:16:00,1,107,215 St,-73.915279,40.869444,1760.7903159262364
12:16:00,1,108,207 St,-73.918822,40.864621,1681.805520604599
12:16:00,1,109,Dyckman St,-73.925536,40.860531,1583.7688935471085
12:16:00,1,110,191 St,-73.929412,40.855225,1493.549845928061
12:16:00,1,111,181 St,-73.933596,40.849505,1398.3052571834721
12:11:30,1,112,168 St-Washington Hts,-73.940133,40.840556,1277.4549318038626
13:46:00,1,113,157 St,-73.94489,40.834041,1376.7313616132212
12:11:30,1,114,145 St,-73.95036,40.826551,1483.085476565
12:11:30,1,115,137 St-City College,-73.953676,40.822008,1401.801501041907
12:11:30,1,116,125 St,-73.958372,40.815581,1290.601560744627
12:11:30,1,117,116 St-Columbia University,-73.96411,40.807722,1168.447596746159
12:11:30,1,118,Cathedral Pkwy (110 St),-73.966847,40.803967,1100.9627244475341
12:11:30,1,119,103 St,-73.968379,40.799446,1019.032437847999
12:11:30,1,120,96 St,-73.972323,40.793919,848.0397938694198
12:11:30,1,121,86 St,-73.976218,40.788644,793.975153572421
12:11:30,1,122,79 St,-73.979917,40.783934,709.0348151930799
12:11:30,1,123,72 St,-73.98197,40.778453,615.5816551751507
12:11:30,1,124,66 St-Lincoln Center,-73.982209,40.77344,522.6196986534117
12:11:30,1,125,59 St-Columbus Circle,-73.981929,40.768247,441.52172831773635
12:01:30,1,126,50 St,-73.983849,40.761728,550.1491792981286
12:01:30,1,127,Times Sq-42 St,-73.987495,40.75529,559.117311114673
12:01:30,1,128,34 St-Penn Station,-73.991057,40.750373,666.5068216041835
12:01:30,1,129,28 St,-73.993365,40.747215,748.2695313202361
12:01:30,1,130,23 St,-73.995657,40.744081,816.8967617314075
12:01:30,1,131,18 St,-73.997871,40.74104,885.3372749506921
12:01:30,1,132,14 St,-74.000201,40.737826,825.5103279155439
12:01:30,1,133,Christopher St-Sheridan Sq,-74.002906,40.733422,1058.6191648595548
12:01:30,1,134,Houston St,-74.005367,40.728251,1141.7694402332763
12:01:30,1,135,Canal St,-74.006277,40.722854,1229.0447854009292
12:41:00,1,136,Franklin St,-74.006886,40.719318,1293.797276433213
12:01:30,1,137,Chambers St,-74.009266,40.715478,1073.1616207177801
12:41:00,1,138,WTC Cortlandt,-74.012188,40.711835,1356.8616653175193
12:41:00,1,139,Rector St,-74.013783,40.707513,1436.1602321965004
12:41:00,1,142,South Ferry,-74.013664,40.702068,1540.8806535903414
12:11:30,1,201,Wakefield-241 St,-73.85062,40.903125,3714.8278758821216
12:11:30,1,204,Nereid Av,-73.854376,40.898379,3606.563827543753
12:11:30,1,205,233 St,-73.857473,40.893193,3491.5332246243916
12:11:30,1,206,225 St,-73.860341,40.888022,3395.5332246243916
12:11:30,1,207,219 St,-73.862633,40.883895,3313.5332246243916
12:11:30,1,208,Gun Hill Rd,-73.866256,40.87785,3205.0332246243916
12:11:30,1,209,Burke Av,-73.867164,40.871356,3157.5858741687653
12:11:30,1,210,Allerton Av,-73.867352,40.865462,3070.1554105926066
12:11:30,1,211,Pelham Pkwy,-73.867615,40.857192,2962.2957883363533
12:11:30,1,212,Bronx Park East,-73.868457,40.848828,2839.2666024684577
12:11:30,1,213,E 180 St,-73.873488,40.841894,2631.626413494775
12:11:30,1,214,West Farms Sq-E Tremont Av,-73.880049,40.840295,2529.912037139239
12:11:30,1,215,174 St,-73.887734,40.837288,2415.5014233873335
12:11:30,1,216,Freeman St,-73.891865,40.829993,2294.8101681820986
12:11:30,1,217,Simpson St,-73.893064,40.824073,2181.0848646517966
12:11:30,1,218,Intervale Av,-73.896736,40.822181,2099.112359560147
12:11:30,1,219,Prospect Av,-73.90177,40.819585,2016.6518399473096
12:11:30,1,220,Jackson Av,-73.907807,40.81649,1908.4769933215425
12:11:30,1,221,3 Av-149 St,-73.917757,40.816109,1754.7113201457973
12:11:30,1,222,149 St-Grand Concourse,-73.926718,40.81841,1623.6137591701877
12:11:30,1,224,135 St,-73.94077,40.814229,1385.9476984365638
12:11:30,1,225,125 St,-73.945495,40.807754,1274.9957402120208
12:11:30,1,226,116 St,-73.949625,40.802098,1175.8525055397165
12:11:30,1,227,Central Park North (110 St),-73.951822,40.799075,1106.4709475110997
12:01:30,1,228,Park Place,-74.008811,40.713051,1162.3677767664558
12:07:30,1,229,Fulton St,-74.006571,40.709416,1277.2404281234496
12:07:30,1,230,Wall St,-74.0091,40.706821,1352.6555224630722
12:07:30,1,231,Clark St,-73.993086,40.697466,1541.869121364171
12:07:30,1,232,Borough Hall,-73.989998,40.693219,1658.6026830080068
12:07:30,1,233,Hoyt St,-73.985065,40.690545,1747.40569258393
12:07:30,1,234,Nevins St,-73.980492,40.688246,1845.924160436187
12:07:30,1,235,Atlantic Av-Barclays Ctr,-73.977666,40.684359,1929.25294624792
12:37:30,1,236,Bergen St,-73.975098,40.680829,2006.8087285608449
12:37:30,1,237,Grand Army Plaza,-73.971046,40.675235,2120.875530180278
12:37:30,1,238,Eastern Pkwy-Brooklyn Museum,-73.964375,40.671987,2224.3294642757724
12:37:30,1,239,Franklin Av-Medgar Evers College,-73.958131,40.670682,2265.6076210191823
12:37:30,1,241,President St-Medgar Evers College,-73.950683,40.667883,2453.7789708640807
12:37:30,1,242,Sterling St,-73.95085,40.662742,2545.771441774416
12:37:30,1,243,Winthrop St,-73.9502,40.656652,2634.825110252677
12:37:30,1,244,Church Av,-73.949575,40.650843,2713.6634860488552
12:37:30,1,245,Beverly Rd,-73.948959,40.645098,2792.892751052227
12:37:30,1,246,Newkirk Av-Little Haiti,-73.948411,40.639967,2880.08126456574
12:37:30,1,247,Flatbush Av-Brooklyn College,-73.947642,40.632836,3030.7008220246985
12:37:30,1,248,Nostrand Av,-73.950466,40.669847,2399.807266240202
12:37:30,1,249,Kingston Av,-73.942161,40.669399,2488.329005370637
12:37:30,1,250,Crown Hts-Utica Av,-73.932942,40.668897,2515.0641832362494
12:07:30,1,251,Sutter Av-Rutland Rd,-73.92261,40.664717,2658.189183236249
12:07:30,1,252,Saratoga Av,-73.916327,40.661453,2773.0433499029155
12:07:30,1,253,Rockaway Av,-73.908946,40.662549,2855.976128267849
12:07:30,1,254,Junius St,-73.902447,40.663515,2771.716413241942
12:07:30,1,255,Pennsylvania Av,-73.894895,40.664635,2879.3517167600417
12:07:30,1,256,Van Siclen Av,-73.889395,40.665449,2958.634493109656
12:07:30,1,257,New Lots Av,-73.884079,40.666235,3035.6351416684665
12:47:30,1,301,Harlem-148 St,-73.93647,40.82388,1642.6371750905107
12:47:30,1,302,145 St,-73.936245,40.820421,1526.0771533631887
13:56:00,1,401,Woodlawn,-73.878751,40.886037,2382.002095509063
13:56:00,1,402,Mosholu Pkwy,-73.884655,40.87975,2259.595124241988
13:56:00,1,405,Bedford Park Blvd-Lehman College,-73.890064,40.873412,2136.536790908655
13:56:00,1,406,Kingsbridge Rd,-73.897174,40.86776,2026.7366985725514
13:56:00,1,407,Fordham Rd,-73.901034,40.862803,1938.6138762728997
13:56:00,1,408,183 St,-73.903879,40.858407,1854.3184315874332
13:56:00,1,409,Burnside Av,-73.907684,40.853453,1754.9957241638526
13:56:00,1,410,176 St,-73.911794,40.84848,1663.927015192299
13:56:00,1,411,Mt Eden Av,-73.914685,40.844434,1583.572857691199
13:56:00,1,412,170 St,-73.917791,40.840075,1501.5693241222946
13:56:00,1,413,167 St,-73.9214,40.835537,1409.7291293458447
13:56:00,1,414,161 St-Yankee Stadium,-73.925831,40.827994,1296.1542843502734
13:36:00,1,415,149 St-Grand Concourse,-73.927351,40.818375,1502.8764149252868
13:57:30,1,416,138 St-Grand Concourse,-73.929849,40.813224,1567.7694516986212
13:57:30,1,418,Fulton St,-74.009509,40.710368,1392.7379066494261
12:07:30,1,419,Wall St,-74.011862,40.707557,1471.397320083674
12:07:30,1,420,Bowling Green,-74.014065,40.704817,1550.982914558267
12:07:30,1,423,Borough Hall,-73.990151,40.692404,1824.8727408609968
12:11:30,1,501,Eastchester-Dyre Av,-73.830834,40.8883,3381.626413494775
12:11:30,1,502,Baychester Av,-73.838591,40.878663,3231.626413494775
12:11:30,1,503,Gun Hill Rd,-73.846384,40.869526,3081.626413494775
12:11:30,1,504,Pelham Pkwy,-73.855359,40.858985,2931.626413494775
12:11:30,1,505,Morris Park,-73.860495,40.854364,2841.626413494775
13:51:30,1,601,Pelham Bay Park,-73.828121,40.852462,3207.052071761068
13:51:30,1,602,Buhre Av,-73.832569,40.84681,3029.7889138663313
13:51:30,1,603,Middletown Rd,-73.836322,40.843863,2959.495810418055
13:51:30,1,604,Westchester Sq-E Tremont Av,-73.842952,40.839892,2827.31933982982
13:51:30,1,606,Zerega Av,-73.847036,40.836488,2740.2693398298197
13:51:30,1,607,Castle Hill Av,-73.851222,40.834255,2671.023438190475
12:47:30,1,608,Parkchester,-73.860816,40.833226,2485.6096450870273
12:47:30,1,609,St Lawrence Av,-73.867618,40.831509,2729.4699777498254
12:47:30,1,610,Morrison Av-Soundview,-73.874516,40.829521,2628.318933769372
12:47:30,1,611,Elder Av,-73.879159,40.828584,2555.5935293093808
12:47:30,1,612,Whitlock Av,-73.886283,40.826525,2442.888767404619
12:47:30,1,613,Hunts Point Av,-73.890549,40.820948,2213.209645087027
13:57:30,1,614,Longwood Av,-73.896435,40.816104,2330.4596647885473
13:57:30,1,615,E 149 St,-73.904098,40.812118,2227.6888826931217
13:57:30,1,616,E 143 St-St Mary's St,-73.907657,40.808719,2151.0147866059497
13:57:30,1,617,Cypress Av,-73.914042,40.805368,2047.971135812299
13:57:30,1,618,Brook Av,-73.91924,40.807566,1976.2723286552414
13:57:30,1,619,3 Av-138 St,-73.926138,40.810476,1845.5642550161053
13:57:30,1,621,125 St,-73.937594,40.804138,1411.1662240970632
13:57:30,1,622,116 St,-73.941617,40.798629,1589.0330376942375
13:57:30,1,623,110 St,-73.94425,40.79502,1507.1447524650353
13:57:30,1,624,103 St,-73.947478,40.7906,1429.5037616268946
13:57:30,1,625,96 St,-73.95107,40.785672,1339.1293556526923
13:57:30,1,626,86 St,-73.955589,40.779492,1097.273430725243
13:57:30,1,627,77 St,-73.959874,40.77362,1133.69190607662
13:57:30,1,628,68 St-Hunter College,-73.96387,40.768141,1040.1547382326912
13:57:30,1,629,59 St,-73.967967,40.762526,864.7734307252433
13:57:30,1,630,51 St,-73.97192,40.757107,830.5005510738856
12:11:30,1,631,Grand Central-42 St,-73.976848,40.751776,714.7734307252433
12:11:30,1,632,33 St,-73.982076,40.746081,830.7440965129822
12:11:30,1,633,28 St,-73.984264,40.74307,900.5655602478033
12:11:30,1,634,23 St,-73.986599,40.739864,967.8033133503507
13:57:30,1,635,14 St-Union Sq,-73.989951,40.734673,979.3978371829832
12:07:30,1,636,Astor Pl,-73.99107,40.730054,1136.1839810205138
12:01:30,1,637,Bleecker St,-73.994659,40.725915,1177.3879176895693
12:01:30,1,638,Spring St,-73.997141,40.722301,1247.9136908854457
12:01:30,1,639,Canal St,-74.000193,40.718803,1321.996651957558
12:07:30,1,640,Brooklyn Bridge-City Hall,-74.004131,40.713065,1276.474723751564
12:17:30,1,701,Flushing-Main St,-73.83003,40.7596,2344.443802786047
12:17:30,1,702,Mets-Willets Point,-73.845625,40.754622,2179.4211490643643
12:17:30,1,705,111 St,-73.855334,40.75173,2241.0987204927455
12:17:30,1,706,103 St-Corona Plaza,-73.8627,40.749865,2162.191350648256
12:17:30,1,707,Junction Blvd,-73.869527,40.749145,1960.5601012283732
12:17:30,1,708,90 St-Elmhurst Av,-73.876613,40.748408,2011.2882325402186
12:17:30,1,709,82 St-Jackson Hts,-73.883697,40.747659,1906.2274891132015
12:17:30,1,710,74 St-Broadway,-73.891394,40.746848,1788.665051970233
12:17:30,1,711,69 St,-73.896403,40.746325,1719.7285654837465
13:57:30,1,712,61 St-Woodside,-73.902984,40.74563,1637.809042957755
13:57:30,1,713,52 St,-73.912549,40.744149,1520.6655597336153
13:57:30,1,714,46 St-Bliss St,-73.918435,40.743132,1464.3760860494046
13:57:30,1,715,40 St-Lowery St,-73.924016,40.743781,1406.0704029265573
13:57:30,1,716,33 St-Rawson St,-73.930997,40.744587,1321.678391092238
13:57:30,1,718,Queensboro Plaza,-73.940202,40.750582,1177.3967584391767
12:07:30,1,719,Court Sq,-73.945264,40.747023,1071.1592983058047
12:17:30,1,720,Hunters Point Av,-73.948916,40.742216,971.6846308843496
12:07:30,1,721,Vernon Blvd-Jackson Av,-73.953581,40.742626,928.707138922935
12:07:30,1,723,Grand Central-42 St,-73.976041,40.751431,714.7734307252433
12:07:30,1,724,5 Av,-73.981963,40.753821,632.8677287558357
12:07:30,1,725,Times Sq-42 St,-73.987691,40.755477,559.117311114673
12:41:00,1,726,34 St-Hudson Yards,-74.00191,40.755882,703.719500895695
12:07:30,1,901,Grand Central-42 St,-73.979189,40.752769,594.7734307252433
12:07:30,1,902,Times Sq-42 St,-73.986229,40.755983,499.11731111467304
13:46:00,0,A02,Inwood-207 St,-73.919899,40.868072,1622.3485323727707
13:46:00,0,A03,Dyckman St,-73.927271,40.865491,1522.6097055571283
13:46:00,0,A05,190 St,-73.93418,40.859022,1392.2296945741518
13:46:00,0,A06,181 St,-73.937969,40.851695,1279.3447826798788
13:46:00,0,A07,175 St,-73.939704,40.847391,1186.5597771671996
13:46:00,0,A09,168 St,-73.939561,40.840719,1051.965800591628
13:54:00,0,A10,163 St-Amsterdam Av,-73.939892,40.836013,995.2624831874897
13:54:00,0,A11,155 St,-73.941514,40.830518,900.9310180131421
12:02:00,0,A12,145 St,-73.944216,40.824783,781.9821919905469
12:02:00,0,A14,135 St,-73.947649,40.817894,667.00982455216
12:02:00,0,A15,125 St,-73.952343,40.811109,546.7317976463304
12:02:00,0,A16,116 St,-73.954882,40.805085,435.7299287363678
12:02:00,0,A17,Cathedral Pkwy (110 St),-73.958161,40.800603,344.29898468042376
12:02:00,0,A18,103 St,-73.961454,40.796092,266.6321573831927
12:02:00,0,A19,96 St,-73.964696,40.791642,176.41605568827745
12:02:00,0,A20,86 St,-73.968916,40.785868,82.56010928961749
13:54:00,0,A21,81 St-Museum of Natural History,-73.972143,40.781433,0.0
12:01:30,0,A22,72 St,-73.97641,40.775594,91.86287878787878
12:01:30,0,A24,59 St-Columbus Circle,-73.981736,40.768296,216.52172831773635
12:01:30,0,A25,50 St,-73.985984,40.762456,336.4341427978414
12:07:30,0,A27,42 St-Port Authority Bus Terminal,-73.989735,40.757308,439.11731111467304
12:07:30,0,A28,34 St-Penn Station,-73.993391,40.752287,553.8490184317462
12:11:30,0,A30,23 St,-73.998041,40.745906,643.4028405846324
12:07:30,0,A31,14 St,-74.00169,40.740893,732.6034554962388
12:07:30,0,A32,W 4 St-Wash Sq,-74.000495,40.732338,874.1267557254214
12:07:30,0,A33,Spring St,-74.003739,40.726227,996.9964221334897
12:07:30,0,A34,Canal St,-74.005229,40.720824,1055.5462852026212
12:07:30,0,A36,Chambers St,-74.008585,40.714111,1171.3216290640578
12:07:30,0,A38,Fulton St,-74.007691,40.710197,1280.9636860905343
12:07:30,0,A40,High St,-73.990531,40.699337,1474.0501617064217
12:07:30,0,A41,Jay St-MetroTech,-73.987342,40.692338,1605.251473512678
12:07:30,0,A42,Hoyt-Schermerhorn Sts,-73.985001,40.688484,1732.6435354681475
12:21:30,0,A43,Lafayette Av,-73.973946,40.686113,1884.8837952084073
12:21:30,0,A44,Clinton-Washington Avs,-73.965838,40.683263,1965.1773105667692
12:21:30,0,A45,Franklin Av,-73.956848,40.68138,2097.906151738424
12:07:30,0,A46,Nostrand Av,-73.950426,40.680438,2077.8906341141824
12:07:30,0,A47,Kingston-Throop Avs,-73.940858,40.679921,2193.443185635109
12:07:30,0,A48,Utica Av,-73.930729,40.679364,2245.959252156409
12:07:30,0,A49,Ralph Av,-73.920786,40.678822,2373.5945345529376
12:07:30,0,A50,Rockaway Av,-73.911946,40.67834,2475.312800806808
12:07:30,0,A51,Broadway Junction,-73.905316,40.678334,2419.878025662664
12:07:30,0,A52,Liberty Av,-73.896548,40.674542,2557.893720729929
12:07:30,0,A53,Van Siclen Av,-73.890358,40.67271,2654.0521661708854
12:07:30,0,A54,Shepherd Av,-73.88075,40.67413,2755.550285057266
12:07:30,0,A55,Euclid Av,-73.872106,40.675377,2737.205480381444
12:07:30,0,A57,Grant Av,-73.86505,40.677044,2867.4121618959202
12:07:30,0,A59,80 St,-73.858992,40.679371,2964.9188057021784
12:07:30,0,A60,88 St,-73.85147,40.679843,3064.1084461131377
12:07:30,0,A61,Rockaway Blvd,-73.843853,40.680429,3157.5323638156665
12:07:30,0,A63,104 St,-73.837683,40.681711,3248.58031499265
12:07:30,0,A64,111 St,-73.832163,40.684331,3339.7156940540217
12:07:30,0,A65,Ozone Park-Lefferts Blvd,-73.825798,40.685951,3450.594153741146
12:47:30,0,B04,21 St-Queensbridge,-73.942836,40.754203,1296.418367918376
12:47:30,0,B06,Roosevelt Island,-73.95326,40.759145,1138.4456773861357
12:47:30,0,B08,Lexington Av/63 St,-73.966113,40.764629,941.7705798924283
12:47:30,0,B10,57 St,-73.97745,40.763972,876.418367918376
12:01:30,0,B12,9 Av,-73.994324,40.646292,2644.5215569172196
12:01:30,0,B13,Fort Hamilton Pkwy,-73.994304,40.640914,2764.1415931034276
12:01:30,0,B14,50 St,-73.994791,40.63626,2844.901536285246
12:01:30,0,B15,55 St,-73.995476,40.631435,2947.92998578738
12:01:30,0,B16,62 St,-73.996895,40.626472,3012.8783679137277
12:01:30,0,B17,71 St,-73.998864,40.619589,3115.7756575000335
12:01:30,0,B18,79 St,-74.00061,40.613501,3220.226442093471
12:01:30,0,B19,18 Av,-74.001736,40.607954,3304.7100135220426
12:01:30,0,B20,20 Av,-73.998168,40.604556,3389.9215932218285
12:01:30,0,B21,Bay Pkwy,-73.993728,40.601875,3471.07952574157
13:51:30,0,B22,25 Av,-73.986829,40.597704,3597.885677386777
13:51:30,0,B23,Bay 50 St,-73.983765,40.588841,3804.988199358017
12:07:30,0,D01,Norwood-205 St,-73.878855,40.874811,2015.779477022102
12:07:30,0,D03,Bedford Park Blvd,-73.887138,40.873244,1847.0797226999612
12:07:30,0,D04,Kingsbridge Rd,-73.893509,40.866978,1728.5393380845765
12:07:30,0,D05,Fordham Rd,-73.897749,40.861296,1628.406452178536
12:07:30,0,D06,182-183 Sts,-73.900741,40.856093,1543.2336648983198
13:36:00,0,D07,Tremont Av,-73.905227,40.85041,1459.6332914155935
13:36:00,0,D08,174-175 Sts,-73.910136,40.8459,1432.7150175593454
13:36:00,0,D09,170 St,-73.9134,40.839306,1327.1712080355358
13:36:00,0,D10,167 St,-73.91844,40.833771,1219.9329958348671
13:36:00,0,D11,161 St-Yankee Stadium,-73.925651,40.827905,1071.1542843502734
13:36:00,0,D12,155 St,-73.938209,40.830135,937.6789081532829
12:06:00,0,D13,145 St,-73.944216,40.824783,789.8918800003822
12:01:30,0,D14,7 Av,-73.981637,40.762862,336.77531364054704
12:01:30,0,D15,47-50 Sts-Rockefeller Ctr,-73.981329,40.758663,441.4183679183759
12:01:30,0,D16,42 St-Bryant Pk,-73.984569,40.754222,540.2424931485785
12:01:30,0,D17,34 St-Herald Sq,-73.987823,40.749719,625.2996887205343
13:57:30,0,D18,23 St,-73.992821,40.742878,962.4745450270119
13:57:30,0,D19,14 St,-73.996209,40.738228,1042.6689993602583
12:01:30,0,D20,W 4 St-Wash Sq,-74.000495,40.732338,813.4967284985177
12:01:30,0,D21,Broadway-Lafayette St,-73.996204,40.725297,965.1593453209476
12:01:30,0,D22,Grand St,-73.993753,40.718267,1111.011927480572
12:07:30,0,D24,Atlantic Av-Barclays Ctr,-73.97689,40.68446,1805.7968594823483
12:07:30,0,D25,7 Av,-73.972367,40.67705,1958.4100761976056
12:07:30,0,D26,Prospect Park,-73.962246,40.661614,2171.3351255072703
12:07:30,0,D27,Parkside Av,-73.961495,40.655292,2290.156430365245
12:07:30,0,D28,Church Av,-73.962982,40.650527,2321.196541260012
13:47:30,0,D29,Beverley Rd,-73.964492,40.644031,2428.2929594637058
13:57:30,0,D30,Cortelyou Rd,-73.963891,40.640927,2506.4299894190913
12:07:30,0,D31,Newkirk Plaza,-73.962793,40.635082,2499.940541260012
12:27:30,0,D32,Avenue H,-73.961639,40.62927,2613.265320303926
12:27:30,0,D33,Avenue J,-73.960803,40.625039,2710.1498616766007
12:27:30,0,D34,Avenue M,-73.959399,40.617618,2820.95621088295
12:07:30,0,D35,Kings Hwy,-73.957734,40.60867,2765.3359134934126
13:57:30,0,D37,Avenue U,-73.955929,40.5993,2984.6841566082785
13:57:30,0,D38,Neck Rd,-73.955161,40.595246,3088.7819139400785
12:07:30,0,D39,Sheepshead Bay,-73.954155,40.586896,3034.496319584783
13:57:30,0,D40,Brighton Beach,-73.961376,40.577621,3195.80321968777
13:57:30,0,D41,Ocean Pkwy,-73.968501,40.576312,3384.548146812968
13:57:30,0,D42,W 8 St-NY Aquarium,-73.975939,40.576127,3499.097827231329
13:57:30,0,D43,Coney Island-Stillwell Av,-73.981233,40.577422,3587.863784678138
12:07:30,0,E01,World Trade Center,-74.009781,40.712582,1239.3225233566677
13:57:30,0,F01,Jamaica-179 St,-73.783817,40.712646,2818.612232290196
13:17:30,0,F02,169 St,-73.793604,40.71047,2759.4532207935476
12:11:30,0,F03,Parsons Blvd,-73.803326,40.707564,2615.1836608616245
12:11:30,0,F04,Sutphin Blvd,-73.810708,40.70546,2549.4532207935476
12:11:30,0,F05,Briarwood,-73.820574,40.709179,2419.9739775374437
12:11:30,0,F06,Kew Gardens-Union Tpke,-73.831008,40.714441,2264.23921641718
12:11:30,0,F07,75 Av,-73.837324,40.718331,2172.965415915499
13:57:30,0,F09,Court Sq-23 St,-73.946,40.747846,980.5161490047908
13:57:30,0,F11,Lexington Av/53 St,-73.969055,40.757552,767.5524068382733
13:57:30,0,F12,5 Av/53 St,-73.975224,40.760167,676.9212367846925
12:37:30,0,F14,2 Av,-73.989938,40.723402,1295.5764881780904
12:37:30,0,F15,Delancey St-Essex St,-73.988114,40.718611,1407.5100981365968
12:37:30,0,F16,East Broadway,-73.990173,40.713715,1498.2592005685638
12:37:30,0,F18,York St,-73.986751,40.701397,1652.9267388478463
12:37:30,0,F20,Bergen St,-73.990862,40.686145,1894.7518855072094
12:37:30,0,F21,Carroll St,-73.995048,40.680303,2006.355503980392
12:37:30,0,F22,Smith-9 Sts,-73.995959,40.67358,2157.114895326089
12:37:30,0,F23,4 Av-9 St,-73.989779,40.670272,2240.4815619927554
12:37:30,0,F24,7 Av,-73.980305,40.666271,2160.251473512678
12:37:30,0,F25,15 St-Prospect Park,-73.979493,40.660365,2322.620983411724
12:37:30,0,F26,Fort Hamilton Pkwy,-73.975776,40.650782,2495.393495260065
12:37:30,0,F27,Church Av,-73.979678,40.644041,2400.251473512678
12:37:30,0,F29,Ditmas Av,-73.978172,40.636119,2520.251473512678
12:37:30,0,F30,18 Av,-73.976971,40.629755,2640.251473512678
12:37:30,0,F31,Avenue I,-73.976127,40.625322,2700.251473512678
12:37:30,0,F32,Bay Pkwy,-73.975264,40.620769,2760.251473512678
12:37:30,0,F33,Avenue N,-73.974197,40.61514,2880.251473512678
12:37:30,0,F34,Avenue P,-73.973022,40.608944,2970.251473512678
12:37:30,0,F35,Kings Hwy,-73.972361,40.603217,3186.0737096874946
13:21:30,0,F36,Avenue U,-73.973357,40.596063,3297.9147571905396
12:07:30,0,F38,Avenue X,-73.97425,40.58962,3394.8289713420736
12:07:30,0,F39,Neptune Av,-73.974574,40.581011,3521.2086504864587
12:57:30,0,G05,Jamaica Center-Parsons/Archer,-73.801109,40.702147,2758.604487730443
13:57:30,0,G06,Sutphin Blvd-Archer Av-JFK Airport,-73.807969,40.700486,2647.8989732335694
13:57:30,0,G07,Jamaica-Van Wyck,-73.816859,40.702566,2512.4502783640824
12:11:30,0,G08,Forest Hills-71 Av,-73.844521,40.721691,2039.4532207935476
12:11:30,0,G09,67 Av,-73.852719,40.726523,2188.443153237254
12:11:30,0,G10,63 Dr-Rego Park,-73.861604,40.729846,2086.4061804188377
12:11:30,0,G11,Woodhaven Blvd,-73.869229,40.733106,1974.2807191642255
12:11:30,0,G12,Grand Av-Newtown,-73.877223,40.737015,1856.177588409161
12:11:30,0,G13,Elmhurst Av,-73.882017,40.742454,1750.5864281881663
12:11:30,0,G14,Jackson Hts-Roosevelt Av,-73.891338,40.746644,1583.4131150200792
12:11:30,0,G15,65 St,-73.898453,40.749669,1751.3044040148607
12:01:30,0,G16,Northern Blvd,-73.906006,40.752885,1696.198875703718
12:01:30,0,G18,46 St,-73.913333,40.756312,1606.198875703718
12:01:30,0,G19,Steinway St,-73.92074,40.756879,1489.2916592088725
12:01:30,0,G20,36 St,-73.928781,40.752039,1369.2916592088725
13:57:30,0,G21,Queens Plaza,-73.937243,40.748973,1104.3262926313619
12:11:30,1,G22,Court Sq,-73.943832,40.746554,1040.5161490047908
12:11:30,1,G24,21 St,-73.949724,40.744065,1135.2509316134863
12:11:30,1,G26,Greenpoint Av,-73.954449,40.731352,1275.8457109795522
12:11:30,1,G28,Nassau Av,-73.951277,40.724635,1386.795465881513
12:11:30,1,G29,Metropolitan Av,-73.951418,40.712792,1538.9130767189515
12:11:30,1,G30,Broadway,-73.950308,40.706092,1627.8699997958745
12:11:30,1,G31,Flushing Av,-73.950234,40.700377,1719.2703687995647
12:11:30,1,G32,Myrtle-Willoughby Avs,-73.949046,40.694568,1805.3476220184489
12:01:30,0,G33,Bedford-Nostrand Avs,-73.953522,40.689627,1910.6355477150435
12:01:30,0,G34,Classon Av,-73.96007,40.688873,1994.2461246381201
12:01:30,0,G35,Clinton-Washington Avs,-73.966839,40.688089,2075.758488065377
12:01:30,0,G36,Fulton St,-73.975375,40.687119,2079.604784013904
12:31:30,0,H01,Aqueduct Racetrack,-73.834058,40.668234,3368.4108684885637
13:27:30,0,H02,Aqueduct-N Conduit Av,-73.834058,40.668234,3447.326842634455
13:27:30,0,H03,Howard Beach-JFK Airport,-73.830301,40.660476,3546.1573795472063
13:27:30,0,H04,Broad Channel,-73.815925,40.608382,4011.5389362307933
13:27:30,0,H06,Beach 67 St,-73.796924,40.590927,4340.5054478587
13:27:30,0,H07,Beach 60 St,-73.788522,40.592374,4466.36219462395
13:27:30,0,H08,Beach 44 St,-73.776013,40.592943,4576.038420340879
13:27:30,0,H09,Beach 36 St,-73.768175,40.595398,4677.310642563101
13:27:30,0,H10,Beach 25 St,-73.761353,40.600066,4777.7511630091985
13:27:30,0,H11,Far Rockaway-Mott Av,-73.755405,40.603995,4868.050749786058
13:57:30,0,H12,Beach 90 St,-73.813641,40.588034,4281.596079087936
13:57:30,0,H13,Beach 98 St,-73.820558,40.585307,4381.699852672842
13:57:30,0,H14,Beach 105 St,-73.827559,40.583209,4471.376043149033
13:57:30,0,H15,Rockaway Park-Beach 116 St,-73.835592,40.580903,4574.925493698483
12:17:30,0,J12,121 St,-73.828294,40.700492,3050.1366781516026
12:17:30,0,J13,111 St,-73.836345,40.697418,3073.551880613522
12:17:30,0,J14,104 St,-73.84433,40.695178,3229.878025662664
12:17:30,0,J15,Woodhaven Blvd,-73.851576,40.693879,3139.878025662664
12:17:30,0,J16,85 St-Forest Pkwy,-73.86001,40.692435,3152.2622329741457
12:17:30,0,J17,75 St-Elderts Ln,-73.867139,40.691324,2959.878025662664
12:17:30,0,J19,Cypress Hills,-73.87255,40.689941,2984.6408737508445
12:57:30,0,J20,Crescent St,-73.873785,40.683194,2809.878025662664
12:57:30,0,J21,Norwood Av,-73.880039,40.68141,2719.878025662664
12:57:30,0,J22,Cleveland St,-73.884639,40.679947,2717.8559314389477
12:57:30,0,J23,Van Siclen Av,-73.891688,40.678024,2569.878025662664
12:57:30,0,J24,Alabama Av,-73.898654,40.676992,2509.878025662664
12:57:30,0,J27,Broadway Junction,-73.904512,40.679498,2419.878025662664
12:57:30,0,J28,Chauncey St,-73.910456,40.682893,2479.878025662664
12:57:30,0,J29,Halsey St,-73.916559,40.68637,2505.3096648001697
12:57:30,0,J30,Gates Av,-73.92227,40.68963,2357.751158466689
12:57:30,0,J31,Kosciuszko St,-73.928814,40.693342,2318.027085012936
13:57:30,1,L01,8 Av,-74.002578,40.739777,792.6034554962388
12:07:30,1,L02,6 Av,-73.996786,40.737335,891.7362017454234
12:07:30,1,L03,14 St-Union Sq,-73.99073,40.734789,983.2081813669663
12:07:30,1,L05,3 Av,-73.986122,40.732849,1033.0807237398476
12:07:30,1,L06,1 Av,-73.981628,40.730953,1082.7486130362797
12:07:30,1,L08,Bedford Av,-73.956872,40.717304,1286.9621220972351
12:07:30,1,L10,Lorimer St,-73.950275,40.714063,1359.9028173937586
12:07:30,1,L11,Graham Av,-73.944053,40.714565,1400.564576945108
12:07:30,1,L12,Grand St,-73.94067,40.711926,1489.1568588243028
12:07:30,1,L13,Montrose Av,-73.93985,40.707739,1526.7197391488464
12:07:30,1,L14,Morgan Av,-73.933147,40.706152,1607.7829962147955
12:07:30,1,L15,Jefferson St,-73.922913,40.706607,1714.5596134654693
12:07:30,1,L16,DeKalb Av,-73.918425,40.703811,1779.1625894546476
12:07:30,1,L17,Myrtle-Wyckoff Avs,-73.911586,40.699814,1854.4474255202213
12:07:30,1,L19,Halsey St,-73.904084,40.695602,1925.1890612079535
12:07:30,1,L20,Wilson Av,-73.904046,40.688764,2055.6407929691914
12:07:30,1,L21,Bushwick Av-Aberdeen St,-73.905249,40.682829,2118.605052090562
12:07:30,1,L22,Broadway Junction,-73.90324,40.678856,2202.2391373035944
12:07:30,1,L24,Atlantic Av,-73.903097,40.675345,2280.7862860177206
12:07:30,1,L25,Sutter Av,-73.901975,40.669367,2363.9650708782783
12:07:30,1,L26,Livonia Av,-73.900571,40.664038,2440.2530000034167
12:07:30,1,L27,New Lots Av,-73.899232,40.658733,2530.4310568929627
12:07:30,1,L28,East 105 St,-73.899485,40.650573,2663.1696285180496
13:57:30,1,L29,Canarsie-Rockaway Pkwy,-73.90185,40.646654,2744.614384078503
13:27:30,0,M01,Middle Village-Metropolitan Av,-73.889601,40.711396,2480.462143826793
13:17:30,0,M04,Fresh Pond Rd,-73.895877,40.706186,2359.880357796731
13:27:30,0,M05,Forest Av,-73.903077,40.704423,2260.904456426274
13:17:30,0,M06,Seneca Av,-73.90774,40.702762,2166.0448195547656
13:17:30,0,M08,Myrtle-Wyckoff Avs,-73.912385,40.69943,2080.903736269275
12:47:30,0,M09,Knickerbocker Av,-73.919711,40.698664,2181.300127059568
13:17:30,0,M10,Central Av,-73.927397,40.697857,2296.320803751297
12:47:30,0,M11,Myrtle Av,-73.935657,40.697207,2172.239158466689
12:47:30,0,M12,Flushing Av,-73.941126,40.70026,2062.070377268832
12:47:30,0,M13,Lorimer St,-73.947408,40.703869,1960.6964567161547
12:47:30,0,M14,Hewes St,-73.953431,40.70687,1867.6377347817854
12:47:30,0,M16,Marcy Av,-73.957757,40.708359,1789.9044593691008
12:47:30,0,M18,Delancey St-Essex St,-73.987437,40.718315,1415.6988518924654
12:17:30,0,M19,Bowery,-73.993915,40.72028,1434.4431307349255
12:17:30,0,M20,Canal St,-73.999892,40.718092,1332.936759172216
12:17:30,0,M21,Chambers St,-74.003401,40.713243,1420.1195485378576
12:17:30,0,M22,Fulton St,-74.007582,40.710374,1511.7889290867502
13:42:00,1,M23,Broad St,-74.011056,40.706476,1578.9919958304524
12:01:30,0,N02,8 Av,-74.011719,40.635064,2761.0920138841816
12:01:30,0,N03,Fort Hamilton Pkwy,-74.005351,40.631386,2848.872680550848
12:01:30,0,N04,New Utrecht Av,-73.996353,40.624842,2965.9842291072787
12:01:30,0,N05,18 Av,-73.990414,40.620671,3061.954506518111
12:01:30,0,N06,20 Av,-73.985026,40.61741,3149.391014454619
12:01:30,0,N07,Bay Pkwy,-73.981848,40.611815,3247.162537633427
12:01:30,0,N08,Kings Hwy,-73.980353,40.603923,3374.666868079796
12:01:30,0,N09,Avenue U,-73.979137,40.597473,3490.359124421585
12:01:30,0,N10,86 St,-73.97823,40.592721,3618.935725180723
12:07:30,1,Q01,Canal St,-74.00046,40.718383,1107.2156061513572
12:47:30,0,Q03,72 St,-73.958424,40.768799,1072.208446246473
12:47:30,0,Q04,86 St,-73.951787,40.777891,1197.2478812082152
12:47:30,0,Q05,96 St,-73.947152,40.784318,1290.246345109905
12:47:30,0,R01,Astoria-Ditmars Blvd,-73.912034,40.775036,1915.2409104960486
12:47:30,0,R03,Astoria Blvd,-73.917843,40.770258,1818.9455638673687
12:47:30,0,R04,30 Av,-73.921479,40.766779,1712.2486240845453
12:47:30,0,R05,Broadway,-73.925508,40.76182,1616.867671703593
12:47:30,0,R06,36 Av,-73.929575,40.756804,1504.3864464071503
12:47:30,0,R08,39 Av-Dutch Kills,-73.932755,40.752882,1386.8415362275096
12:47:30,0,R09,Queensboro Plaza,-73.940202,40.750582,1224.3967601081067
12:47:30,0,R11,Lexington Av/59 St,-73.967258,40.76266,1030.9976075722145
12:47:30,0,R13,5 Av/59 St,-73.973347,40.764811,922.3167704237514
12:47:30,0,R14,57 St-7 Av,-73.980658,40.764664,742.2511223452584
12:07:30,1,R15,49 St,-73.984139,40.759901,653.1221987002058
12:01:30,1,R16,Times Sq-42 St,-73.986754,40.754672,559.117311114673
12:07:30,1,R17,34 St-Herald Sq,-73.98795,40.749567,662.0970609657749
12:01:30,1,R18,28 St,-73.988691,40.745494,748.4745701060672
12:01:30,1,R19,23 St,-73.989344,40.741303,831.368711251207
12:07:30,1,R20,14 St-Union Sq,-73.990568,40.735736,832.2210180575507
13:42:00,1,R21,8 St-NYU,-73.992629,40.730328,1034.0968205283232
13:42:00,1,R22,Prince St,-73.997702,40.724329,1157.8038097756348
13:42:00,1,R23,Canal St,-74.001775,40.719527,1271.017179120672
12:07:30,1,R24,City Hall,-74.006978,40.713282,1436.470612159421
12:07:30,1,R25,Cortlandt St,-74.011029,40.710668,1303.3649001197691
12:07:30,1,R26,Rector St,-74.013342,40.70722,1418.8127232020083
12:07:30,1,R27,Whitehall St-South Ferry,-74.012994,40.703087,1509.9300028689063
13:42:00,1,R28,Court St,-73.991777,40.6941,1713.8987528689063
12:27:30,0,R29,Jay St-MetroTech,-73.985942,40.69218,1740.251473512678
12:07:30,0,R30,DeKalb Av,-73.981824,40.690635,1635.1201895888341
12:01:30,0,R31,Atlantic Av-Barclays Ctr,-73.97881,40.683666,1829.8774078471417
12:01:30,0,R32,Union St,-73.98311,40.677316,1941.724558106209
12:01:30,0,R33,4 Av-9 St,-73.988302,40.670847,2053.779834488119
12:01:30,0,R34,Prospect Av,-73.992872,40.665414,2163.4632515735457
12:01:30,0,R35,25 St,-73.998091,40.660397,2280.689139898419
12:01:30,0,R36,36 St,-74.003549,40.655144,2270.735146210612
12:01:30,0,R39,45 St,-74.010006,40.648939,2411.459756100158
12:01:30,0,R40,53 St,-74.014034,40.645069,2505.2351184189984
12:01:30,0,R41,59 St,-74.017881,40.641362,2578.273478563378
12:01:30,0,R42,Bay Ridge Av,-74.023377,40.634967,2742.747727349586
12:01:30,0,R43,77 St,-74.02551,40.629742,2825.3563944539856
12:01:30,0,R44,86 St,-74.028398,40.622687,3009.808329535134
12:21:30,0,R45,Bay Ridge-95 St,-74.030876,40.616622,3078.3900686655684
12:07:30,0,S01,Franklin Av,-73.955827,40.680596,2157.906151738424
12:07:30,0,S03,Park Pl,-73.957624,40.674772,2274.2464295162017
12:07:30,0,S04,Botanic Garden,-73.959245,40.670343,2374.067907876416
