start_time,ntransfers,stop_id,stop_name,stop_lon,stop_lat,duration
12:16:00,1,101,Van Cortlandt Park-242 St,-73.898583,40.889248,2237.6246590317805
12:16:00,1,103,238 St,-73.90087,40.884667,2130.873910848796
12:16:00,1,104,231 St,-73.904834,40.878856,2036.0388044658177
12:16:00,1,106,Marble Hill-225 St,-73.909831,40.874561,1942.5669379543704
12:16:00,1,107,215 St,-73.915279,40.869444,1834.4423745085032
12:16:00,1,108,207 St,-73.918822,40.864621,1755.457579186866
12:16:00,1,109,Dyckman St,-73.925536,40.860531,1657.4209521293756
12:16:00,1,110,191 St,-73.929412,40.855225,1567.201904510328
12:16:00,1,111,181 St,-73.933596,40.849505,1471.9573157657392
12:53:00,1,112,168 St-Washington Hts,-73.940133,40.840556,1351.1069903861294
12:26:00,1,113,157 St,-73.94489,40.834041,1450.3834201954883
12:53:00,1,114,145 St,-73.95036,40.826551,1335.82660445342
12:53:00,1,115,137 St-City College,-73.953676,40.822008,1234.783821393783
12:53:00,1,116,125 St,-73.958372,40.815581,1136.0226894753478
12:53:00,1,117,116 St-Columbia University,-73.96411,40.807722,1017.8666201111857
12:53:00,1,118,Cathedral Pkwy (110 St),-73.966847,40.803967,939.8358066354257
12:53:00,1,119,103 St,-73.968379,40.799446,860.5176248172438
12:53:00,1,120,96 St,-73.972323,40.793919,560.4406794799695
12:53:00,1,121,86 St,-73.976218,40.788644,646.3780229437075
12:53:00,1,122,79 St,-73.979917,40.783934,564.5457348715655
12:53:00,1,123,72 St,-73.98197,40.778453,368.5783783783784
12:53:00,1,124,66 St-Lincoln Center,-73.982209,40.77344,421.9225159371903
12:53:00,1,125,59 St-Columbus Circle,-73.981929,40.768247,340.82454560151507
12:26:00,1,126,50 St,-73.983849,40.761728,232.1970946211229
12:26:00,1,127,Times Sq-42 St,-73.987495,40.75529,120.0
12:05:00,1,128,34 St-Penn Station,-73.991057,40.750373,227.38951048951049
12:05:00,1,129,28 St,-73.993365,40.747215,309.1522202055631
12:05:00,1,130,23 St,-73.995657,40.744081,377.7794506167345
12:05:00,1,131,18 St,-73.997871,40.74104,446.2199638360191
12:05:00,1,132,14 St,-74.000201,40.737826,386.39301680087095
12:00:00,2,133,Christopher St-Sheridan Sq,-74.002906,40.733422,619.5018537448817
12:00:00,2,134,Houston St,-74.005367,40.728251,702.6521291186033
13:35:00,1,135,Canal St,-74.006277,40.722854,789.9274742862561
13:35:00,1,136,Franklin St,-74.006886,40.719318,854.6799653185399
13:27:00,1,137,Chambers St,-74.009266,40.715478,634.0443096031071
13:27:00,1,138,WTC Cortlandt,-74.012188,40.711835,917.7443542028464
13:27:00,1,139,Rector St,-74.013783,40.707513,997.0429210818272
13:27:00,1,142,South Ferry,-74.013664,40.702068,1101.7633424756684
12:33:00,1,201,Wakefield-241 St,-73.85062,40.903125,3408.547230681996
12:33:00,1,204,Nereid Av,-73.854376,40.898379,3279.3208744772714
12:33:00,1,205,233 St,-73.857473,40.893193,3157.5335441605293
12:33:00,1,206,225 St,-73.860341,40.888022,3062.119751057081
12:33:00,1,207,219 St,-73.862633,40.883895,2980.86499820537
12:33:00,1,208,Gun Hill Rd,-73.866256,40.87785,2886.1339375993093
12:33:00,1,209,Burke Av,-73.867164,40.871356,2790.4519452621444
12:33:00,1,210,Allerton Av,-73.867352,40.865462,2700.0266579058225
12:33:00,1,211,Pelham Pkwy,-73.867615,40.857192,2588.118611928811
12:33:00,1,212,Bronx Park East,-73.868457,40.848828,2460.968611928811
14:00:00,1,213,E 180 St,-73.873488,40.841894,2263.1561196105704
14:00:00,1,214,West Farms Sq-E Tremont Av,-73.880049,40.840295,2223.6313919391137
14:00:00,1,215,174 St,-73.887734,40.837288,2107.4610973508206
14:00:00,1,216,Freeman St,-73.891865,40.829993,1991.769394294052
14:00:00,1,217,Simpson St,-73.893064,40.824073,1865.6703668846799
14:00:00,1,218,Intervale Av,-73.896736,40.822181,1782.0802323555317
14:00:00,1,219,Prospect Av,-73.90177,40.819585,1694.31648122839
14:00:00,1,220,Jackson Av,-73.907807,40.81649,1583.3501175920264
14:00:00,1,221,3 Av-149 St,-73.917757,40.816109,1434.9904445675033
14:00:00,1,222,149 St-Grand Concourse,-73.926718,40.81841,1302.1436660076768
12:46:00,1,224,135 St,-73.94077,40.814229,1114.4627058067972
12:46:00,1,225,125 St,-73.945495,40.807754,1004.4155740031961
12:46:00,1,226,116 St,-73.949625,40.802098,904.557549311838
12:46:00,1,227,Central Park North (110 St),-73.951822,40.799075,825.675719578674
12:02:30,1,228,Park Place,-74.008811,40.713051,723.2504656517827
13:58:00,1,229,Fulton St,-74.006571,40.709416,838.1231170087765
13:58:00,1,230,Wall St,-74.0091,40.706821,913.5382113483992
13:58:00,1,231,Clark St,-73.993086,40.697466,1102.751810249498
13:58:00,1,232,Borough Hall,-73.989998,40.693219,1219.4853718933336
13:58:00,1,233,Hoyt St,-73.985065,40.690545,1308.288381469257
13:58:00,1,234,Nevins St,-73.980492,40.688246,1406.8068493215142
13:58:00,1,235,Atlantic Av-Barclays Ctr,-73.977666,40.684359,1490.1356351332468
13:58:00,1,236,Bergen St,-73.975098,40.680829,1567.6914174461722
13:58:00,1,237,Grand Army Plaza,-73.971046,40.675235,1681.7582190656053
13:58:00,1,238,Eastern Pkwy-Brooklyn Museum,-73.964375,40.671987,1785.2121531610996
12:00:00,2,239,Franklin Av-Medgar Evers College,-73.958131,40.670682,1826.4903099045098
12:00:00,2,241,President St-Medgar Evers College,-73.950683,40.667883,2014.6616597494076
12:00:00,2,242,Sterling St,-73.95085,40.662742,2106.654130659743
12:00:00,2,243,Winthrop St,-73.9502,40.656652,2195.707799138004
12:00:00,2,244,Church Av,-73.949575,40.650843,2274.546174934182
12:00:00,2,245,Beverly Rd,-73.948959,40.645098,2353.775439937554
12:00:00,2,246,Newkirk Av-Little Haiti,-73.948411,40.639967,2440.9639534510675
12:00:00,2,247,Flatbush Av-Brooklyn College,-73.947642,40.632836,2591.5835109100253
12:00:00,2,248,Nostrand Av,-73.950466,40.669847,1960.689955125529
12:00:00,2,249,Kingston Av,-73.942161,40.669399,2049.2116942559637
12:02:30,1,250,Crown Hts-Utica Av,-73.932942,40.668897,2075.9468721215762
12:02:30,1,251,Sutter Av-Rutland Rd,-73.92261,40.664717,2219.0718721215762
12:02:30,1,252,Saratoga Av,-73.916327,40.661453,2333.9260387882427
12:02:30,1,253,Rockaway Av,-73.908946,40.662549,2373.9437182953216
12:02:30,1,254,Junius St,-73.902447,40.663515,2289.6840032694145
12:21:00,2,255,Pennsylvania Av,-73.894895,40.664635,2397.319306787514
12:02:30,1,256,Van Siclen Av,-73.889395,40.665449,2476.6020831371284
12:02:30,1,257,New Lots Av,-73.884079,40.666235,2553.6027316959394
12:46:00,1,301,Harlem-148 St,-73.93647,40.82388,1396.3565298903857
12:46:00,1,302,145 St,-73.936245,40.820421,1257.1731368861124
13:55:30,1,401,Woodlawn,-73.878751,40.886037,2545.9699466519073
13:55:30,1,402,Mosholu Pkwy,-73.884655,40.87975,2423.562975384832
13:55:30,1,405,Bedford Park Blvd-Lehman College,-73.890064,40.873412,2300.504642051499
13:55:30,1,406,Kingsbridge Rd,-73.897174,40.86776,2190.7045497153954
13:55:30,1,407,Fordham Rd,-73.901034,40.862803,2102.581727415744
13:55:30,1,408,183 St,-73.903879,40.858407,2018.2862827302774
13:55:30,1,409,Burnside Av,-73.907684,40.853453,1918.9635753066966
13:55:30,1,410,176 St,-73.911794,40.84848,1827.8948663351432
13:55:30,1,411,Mt Eden Av,-73.914685,40.844434,1747.5407088340432
13:55:30,1,412,170 St,-73.917791,40.840075,1665.5371752651386
13:55:30,1,413,167 St,-73.9214,40.835537,1573.696980488689
13:55:30,1,414,161 St-Yankee Stadium,-73.925831,40.827994,1455.075897871866
13:35:30,1,415,149 St-Grand Concourse,-73.927351,40.818375,1277.1617149325032
14:00:00,1,416,138 St-Grand Concourse,-73.929849,40.813224,1128.652140583948
12:02:30,1,418,Fulton St,-74.009509,40.710368,953.6205955347531
13:27:00,1,419,Wall St,-74.011862,40.707557,1032.280008969001
13:27:00,1,420,Bowling Green,-74.014065,40.704817,1111.865603443594
13:27:00,1,423,Borough Hall,-73.990151,40.692404,1385.7554297463237
14:00:00,1,501,Eastchester-Dyre Av,-73.830834,40.8883,2980.626415005976
14:00:00,1,502,Baychester Av,-73.838591,40.878663,2849.952489824513
14:00:00,1,503,Gun Hill Rd,-73.846384,40.869526,2713.1561196105704
14:00:00,1,504,Pelham Pkwy,-73.855359,40.858985,2563.1561196105704
14:00:00,1,505,Morris Park,-73.860495,40.854364,2473.1561196105704
13:37:30,1,601,Pelham Bay Park,-73.828121,40.852462,2767.9347606463953
13:37:30,1,602,Buhre Av,-73.832569,40.84681,2590.671602751658
13:37:30,1,603,Middletown Rd,-73.836322,40.843863,2520.378499303382
13:37:30,1,604,Westchester Sq-E Tremont Av,-73.842952,40.839892,2388.2020287151468
13:37:30,1,606,Zerega Av,-73.847036,40.836488,2301.1520287151466
13:37:30,1,607,Castle Hill Av,-73.851222,40.834255,2231.9061270758025
12:52:00,1,608,Parkchester,-73.860816,40.833226,2046.4923339723541
12:52:00,1,609,St Lawrence Av,-73.867618,40.831509,2290.3526666351527
12:52:00,1,610,Morrison Av-Soundview,-73.874516,40.829521,2189.2016226546993
12:52:00,1,611,Elder Av,-73.879159,40.828584,2116.4762181947076
12:52:00,1,612,Whitlock Av,-73.886283,40.826525,2003.771456289946
12:52:00,1,613,Hunts Point Av,-73.890549,40.820948,1774.092333972354
14:00:00,1,614,Longwood Av,-73.896435,40.816104,1891.3423536738737
14:00:00,1,615,E 149 St,-73.904098,40.812118,1788.5715715784484
14:00:00,1,616,E 143 St-St Mary's St,-73.907657,40.808719,1711.8974754912765
14:00:00,1,617,Cypress Av,-73.914042,40.805368,1608.853824697626
14:00:00,1,618,Brook Av,-73.91924,40.807566,1537.155017540568
12:52:00,1,619,3 Av-138 St,-73.926138,40.810476,1406.446943901432
14:00:00,1,621,125 St,-73.937594,40.804138,972.0489129823899
12:52:00,1,622,116 St,-73.941617,40.798629,1149.9157265795643
12:52:00,1,623,110 St,-73.94425,40.79502,1068.027441350362
12:52:00,1,624,103 St,-73.947478,40.7906,990.3864505122217
12:52:00,1,625,96 St,-73.95107,40.785672,900.0120445380194
12:52:00,1,626,86 St,-73.955589,40.779492,658.1561196105702
12:52:00,1,627,77 St,-73.959874,40.77362,694.574594961947
12:52:00,1,628,68 St-Hunter College,-73.96387,40.768141,601.0374271180183
12:52:00,1,629,59 St,-73.967967,40.762526,425.6561196105702
12:52:00,1,630,51 St,-73.97192,40.757107,391.3832399592125
12:07:30,1,631,Grand Central-42 St,-73.976848,40.751776,275.6561196105702
12:07:30,1,632,33 St,-73.982076,40.746081,391.62678539830915
12:07:30,1,633,28 St,-73.984264,40.74307,461.4482491331303
12:07:30,1,634,23 St,-73.986599,40.739864,528.6860022356777
12:07:30,1,635,14 St-Union Sq,-73.989951,40.734673,540.28052606831
12:05:00,2,636,Astor Pl,-73.99107,40.730054,697.0666699058407
12:00:00,2,637,Bleecker St,-73.994659,40.725915,790.5245646426829
13:21:00,2,638,Spring St,-73.997141,40.722301,861.7811091453007
12:32:30,2,639,Canal St,-74.000193,40.718803,908.0982950366841
12:13:00,1,640,Brooklyn Bridge-City Hall,-74.004131,40.713065,837.3574126368909
12:02:00,1,701,Flushing-Main St,-73.83003,40.7596,1927.1595968364472
12:02:00,1,702,Mets-Willets Point,-73.845625,40.754622,1762.136943114764
12:02:00,1,705,111 St,-73.855334,40.75173,1826.3573785772699
12:02:00,1,706,103 St-Corona Plaza,-73.8627,40.749865,1747.4500087327806
12:02:00,1,707,Junction Blvd,-73.869527,40.749145,1543.2758952787733
12:02:00,1,708,90 St-Elmhurst Av,-73.876613,40.748408,1626.3567567601303
12:02:00,1,709,82 St-Jackson Hts,-73.883697,40.747659,1521.296013333113
12:07:30,1,710,74 St-Broadway,-73.891394,40.746848,1411.244028498151
12:07:30,1,711,69 St,-73.896403,40.746325,1325.0728479746467
12:07:30,1,712,61 St-Woodside,-73.902984,40.74563,1241.6060833767767
14:00:00,1,713,52 St,-73.912549,40.744149,1081.548248618942
14:00:00,1,714,46 St-Bliss St,-73.918435,40.743132,1025.2587749347315
14:00:00,1,715,40 St-Lowery St,-73.924016,40.743781,966.9530918118842
14:00:00,1,716,33 St-Rawson St,-73.930997,40.744587,882.5610799775646
14:00:00,1,718,Queensboro Plaza,-73.940202,40.750582,738.2794473245034
12:13:00,1,719,Court Sq,-73.945264,40.747023,632.0419871911315
12:13:00,1,720,Hunters Point Av,-73.948916,40.742216,532.5673197696766
12:13:00,1,721,Vernon Blvd-Jackson Av,-73.953581,40.742626,489.58982780826193
12:13:00,1,723,Grand Central-42 St,-73.976041,40.751431,275.6561196105702
12:13:00,1,724,5 Av,-73.981963,40.753821,193.7504176411627
12:13:00,1,725,Times Sq-42 St,-73.987691,40.755477,120.0
12:05:00,1,726,34 St-Hudson Yards,-74.00191,40.755882,264.60218978102193
12:13:00,1,901,Grand Central-42 St,-73.979189,40.752769,155.65611961057022
12:13:00,1,902,Times Sq-42 St,-73.986229,40.755983,60.0
13:44:00,0,A02,Inwood-207 St,-73.919899,40.868072,1696.0005909550375
13:06:00,0,A03,Dyckman St,-73.927271,40.865491,1596.2617641393952
13:06:00,0,A05,190 St,-73.93418,40.859022,1465.8817531564189
13:06:00,0,A06,181 St,-73.937969,40.851695,1352.9968412621456
13:06:00,0,A07,175 St,-73.939704,40.847391,1260.2118357494667
12:06:00,0,A09,168 St,-73.939561,40.840719,1125.6178591738949
12:12:00,0,A10,163 St-Amsterdam Av,-73.939892,40.836013,1159.2303343303338
12:12:00,0,A11,155 St,-73.941514,40.830518,1074.3605073927868
12:06:00,0,A12,145 St,-73.944216,40.824783,879.8063611086654
12:33:00,0,A14,135 St,-73.947649,40.817894,790.9373080644414
12:06:00,0,A15,125 St,-73.952343,40.811109,665.5417525088859
12:12:00,0,A16,116 St,-73.954882,40.805085,803.4801731337438
12:06:00,0,A17,Cathedral Pkwy (110 St),-73.958161,40.800603,809.5880512081458
12:06:00,0,A18,103 St,-73.961454,40.796092,725.5265775949081
12:06:00,0,A19,96 St,-73.964696,40.791642,638.3996053935558
12:06:00,0,A20,86 St,-73.968916,40.785868,537.5919130858634
12:06:00,0,A21,81 St-Museum of Natural History,-73.972143,40.781433,439.1173111146731
12:06:00,0,A22,72 St,-73.97641,40.775594,347.2544323267943
12:06:00,0,A24,59 St-Columbus Circle,-73.981736,40.768296,164.53131868131868
12:05:30,0,A25,50 St,-73.985984,40.762456,102.68316831683168
12:05:00,0,A27,42 St-Port Authority Bus Terminal,-73.989735,40.757308,0.0
12:00:00,0,A28,34 St-Penn Station,-73.993391,40.752287,101.79626578802855
12:00:00,0,A30,23 St,-73.998041,40.745906,204.28552946995927
12:02:30,0,A31,14 St,-74.00169,40.740893,250.57104552371135
12:02:30,0,A32,W 4 St-Wash Sq,-74.000495,40.732338,385.29977480547933
12:13:00,0,A33,Spring St,-74.003739,40.726227,551.2101384307718
12:02:30,0,A34,Canal St,-74.005229,40.720824,566.6413079862574
12:02:30,0,A36,Chambers St,-74.008585,40.714111,689.8724292677219
12:02:30,0,A38,Fulton St,-74.007691,40.710197,789.183387385909
12:02:30,0,A40,High St,-73.990531,40.699337,987.321875556711
12:02:30,0,A41,Jay St-MetroTech,-73.987342,40.692338,1132.8901752685267
12:02:30,0,A42,Hoyt-Schermerhorn Sts,-73.985001,40.688484,1245.3133166883144
12:08:30,0,A43,Lafayette Av,-73.973946,40.686113,1418.2821993419163
12:08:30,0,A44,Clinton-Washington Avs,-73.965838,40.683263,1503.2821993419163
13:35:00,0,A45,Franklin Av,-73.956848,40.68138,1609.0011745220606
12:02:30,0,A46,Nostrand Av,-73.950426,40.680438,1529.34646275573
12:08:30,0,A47,Kingston-Throop Avs,-73.940858,40.679921,1634.325874520436
12:02:30,0,A48,Utica Av,-73.930729,40.679364,1704.802144573912
12:08:30,0,A49,Ralph Av,-73.920786,40.678822,1814.4772234382654
12:42:30,0,A50,Rockaway Av,-73.911946,40.67834,1916.1954896921352
12:02:30,0,A51,Broadway Junction,-73.905316,40.678334,1937.8456156901368
13:35:00,0,A52,Liberty Av,-73.896548,40.674542,2062.446034981104
13:35:00,0,A53,Van Siclen Av,-73.890358,40.67271,2149.0496385847073
13:35:00,0,A54,Shepherd Av,-73.88075,40.67413,2257.708392293906
12:02:30,0,A55,Euclid Av,-73.872106,40.675377,2255.1730704089164
12:02:30,0,A57,Grant Av,-73.86505,40.677044,2385.379751923393
12:02:30,0,A59,80 St,-73.858992,40.679371,2482.886395729651
12:02:30,0,A60,88 St,-73.85147,40.679843,2582.07603614061
12:02:30,0,A61,Rockaway Blvd,-73.843853,40.680429,2675.4999538431393
12:13:00,0,A63,104 St,-73.837683,40.681711,2766.547905020123
12:52:30,0,A64,111 St,-73.832163,40.684331,2857.6832840814945
12:52:30,0,A65,Ozone Park-Lefferts Blvd,-73.825798,40.685951,2968.5617437686183
13:52:30,0,B04,21 St-Queensbridge,-73.942836,40.754203,1000.753219903201
13:52:30,0,B06,Roosevelt Island,-73.95326,40.759145,867.5464856941516
13:52:30,0,B08,Lexington Av/63 St,-73.966113,40.764629,502.6532687777552
13:52:30,0,B10,57 St,-73.97745,40.763972,598.7504176411627
12:13:00,1,B12,9 Av,-73.994324,40.646292,2208.637038538465
12:13:00,1,B13,Fort Hamilton Pkwy,-73.994304,40.640914,2325.0242819887544
12:13:00,1,B14,50 St,-73.994791,40.63626,2405.784225170573
12:13:00,1,B15,55 St,-73.995476,40.631435,2508.8126746727066
12:13:00,1,B16,62 St,-73.996895,40.626472,2573.761056799055
12:13:00,1,B17,71 St,-73.998864,40.619589,2676.6583463853603
12:13:00,1,B18,79 St,-74.00061,40.613501,2781.109130978798
12:13:00,1,B19,18 Av,-74.001736,40.607954,2865.59270240737
12:13:00,1,B20,20 Av,-73.998168,40.604556,2950.8042821071554
12:13:00,1,B21,Bay Pkwy,-73.993728,40.601875,3031.9622146268966
13:52:30,0,B22,25 Av,-73.986829,40.597704,3158.768366272104
13:52:30,0,B23,Bay 50 St,-73.983765,40.588841,3369.103680979262
12:56:30,0,D01,Norwood-205 St,-73.878855,40.874811,2179.747328164946
12:56:30,0,D03,Bedford Park Blvd,-73.887138,40.873244,2011.0475738428056
12:56:30,0,D04,Kingsbridge Rd,-73.893509,40.866978,1892.507189227421
12:56:30,0,D05,Fordham Rd,-73.897749,40.861296,1792.3743033213805
12:56:30,0,D06,182-183 Sts,-73.900741,40.856093,1707.2015160411643
13:35:30,0,D07,Tremont Av,-73.905227,40.85041,1623.6011425584377
13:35:30,0,D08,174-175 Sts,-73.910136,40.8459,1596.6828687021898
13:35:30,0,D09,170 St,-73.9134,40.839306,1491.1390591783802
13:35:30,0,D10,167 St,-73.91844,40.833771,1383.9008469777114
13:35:30,0,D11,161 St-Yankee Stadium,-73.925651,40.827905,1235.1221354931174
13:35:30,0,D12,155 St,-73.938209,40.830135,1101.646759296127
12:33:00,0,D13,145 St,-73.944216,40.824783,953.7349424993398
12:02:00,0,D14,7 Av,-73.981637,40.762862,196.209215739731
12:02:00,0,D15,47-50 Sts-Rockefeller Ctr,-73.981329,40.758663,508.7504176411627
12:02:00,0,D16,42 St-Bryant Pk,-73.984569,40.754222,418.7504176411627
12:02:00,0,D17,34 St-Herald Sq,-73.987823,40.749719,443.2327917700228
12:27:00,0,D18,23 St,-73.992821,40.742878,563.2146426386262
12:42:30,1,D19,14 St,-73.996209,40.738228,634.703791772896
12:02:00,0,D20,W 4 St-Wash Sq,-74.000495,40.732338,619.239169756346
13:21:00,1,D21,Broadway-Lafayette St,-73.996204,40.725297,773.4777549379296
13:21:00,1,D22,Grand St,-73.993753,40.718267,911.0081043660695
13:21:00,1,D24,Atlantic Av-Barclays Ctr,-73.97689,40.68446,1398.4734555746413
13:21:00,1,D25,7 Av,-73.972367,40.67705,1547.5891368085743
13:21:00,1,D26,Prospect Park,-73.962246,40.661614,1755.1675362880796
13:27:00,1,D27,Parkside Av,-73.961495,40.655292,1851.0391192505717
13:21:00,1,D28,Church Av,-73.962982,40.650527,1966.3528074634994
13:27:00,1,D29,Beverley Rd,-73.964492,40.644031,2029.758748057559
13:27:00,1,D30,Cortelyou Rd,-73.963891,40.640927,2107.8957780129444
13:21:00,1,D31,Newkirk Plaza,-73.962793,40.635082,2188.787285073134
12:30:00,1,D32,Avenue H,-73.961639,40.62927,2302.112064117048
12:30:00,1,D33,Avenue J,-73.960803,40.625039,2398.9966054897227
12:30:00,1,D34,Avenue M,-73.959399,40.617618,2509.8029546960715
13:21:00,1,D35,Kings Hwy,-73.957734,40.60867,2454.182657306534
13:21:00,1,D37,Avenue U,-73.955929,40.5993,2673.5309004214005
13:21:00,1,D38,Neck Rd,-73.955161,40.595246,2777.6286577532
13:21:00,1,D39,Sheepshead Bay,-73.954155,40.586896,2720.1237592286147
13:21:00,1,D40,Brighton Beach,-73.961376,40.577621,2867.451244608732
13:21:00,1,D41,Ocean Pkwy,-73.968501,40.576312,3013.8171089479492
13:21:00,1,D42,W 8 St-NY Aquarium,-73.975939,40.576127,3128.3667893663105
13:21:00,1,D43,Coney Island-Stillwell Av,-73.981233,40.577422,3217.132746813119
12:02:30,0,E01,World Trade Center,-74.009781,40.712582,750.417546140304
12:27:00,0,F01,Jamaica-179 St,-73.783817,40.712646,2499.19611710171
13:21:30,0,F02,169 St,-73.793604,40.71047,2440.0371056050617
12:27:00,0,F03,Parsons Blvd,-73.803326,40.707564,2295.7675456731386
12:27:00,0,F04,Sutphin Blvd,-73.810708,40.70546,2230.0371056050617
12:27:00,0,F05,Briarwood,-73.820574,40.709179,2100.5578623489578
12:02:00,0,F06,Kew Gardens-Union Tpke,-73.831008,40.714441,1944.823101228694
12:27:00,0,F07,75 Av,-73.837324,40.718331,1853.5493007270131
12:02:00,0,F09,Court Sq-23 St,-73.946,40.747846,627.4069465936989
12:02:00,0,F11,Lexington Av/53 St,-73.969055,40.757552,396.53087003867495
12:02:00,0,F12,5 Av/53 St,-73.975224,40.760167,303.0218051531788
12:18:00,1,F14,2 Av,-73.989938,40.723402,868.8648496262084
12:18:00,1,F15,Delancey St-Essex St,-73.988114,40.718611,967.9793787317456
12:18:00,1,F16,East Broadway,-73.990173,40.713715,1051.3886854743857
13:12:30,0,F18,York St,-73.986751,40.701397,1216.7286759641622
12:22:30,0,F20,Bergen St,-73.990862,40.686145,1424.5003789214006
12:22:30,0,F21,Carroll St,-73.995048,40.680303,1539.5698888531535
12:22:30,0,F22,Smith-9 Sts,-73.995959,40.67358,1690.32928019885
12:22:30,0,F23,4 Av-9 St,-73.989779,40.670272,1773.6959468655166
12:22:30,0,F24,7 Av,-73.980305,40.666271,1687.8901752685267
12:22:30,0,F25,15 St-Prospect Park,-73.979493,40.660365,1850.2596851675726
12:22:30,0,F26,Fort Hamilton Pkwy,-73.975776,40.650782,2023.0321970159139
12:22:30,0,F27,Church Av,-73.979678,40.644041,1927.890175268527
13:58:00,0,F29,Ditmas Av,-73.978172,40.636119,2047.890175268527
13:58:00,0,F30,18 Av,-73.976971,40.629755,2167.890175268527
13:58:00,0,F31,Avenue I,-73.976127,40.625322,2227.890175268527
13:58:00,0,F32,Bay Pkwy,-73.975264,40.620769,2287.890175268527
13:58:00,0,F33,Avenue N,-73.974197,40.61514,2407.890175268527
13:58:00,0,F34,Avenue P,-73.973022,40.608944,2497.890175268527
13:58:00,0,F35,Kings Hwy,-73.972361,40.603217,2713.7124114433436
13:28:00,0,F36,Avenue U,-73.973357,40.596063,2822.741635198694
13:28:00,0,F38,Avenue X,-73.97425,40.58962,2922.4676730979227
12:08:30,1,F39,Neptune Av,-73.974574,40.581011,3045.551159008218
13:52:30,0,G05,Jamaica Center-Parsons/Archer,-73.801109,40.702147,2439.188372541957
12:02:00,0,G06,Sutphin Blvd-Archer Av-JFK Airport,-73.807969,40.700486,2328.482858045084
12:02:00,0,G07,Jamaica-Van Wyck,-73.816859,40.702566,2193.034163175597
12:02:00,0,G08,Forest Hills-71 Av,-73.844521,40.721691,1720.0371056050617
12:37:30,0,G09,67 Av,-73.852719,40.726523,1846.374880655456
13:52:30,0,G10,63 Dr-Rego Park,-73.861604,40.729846,1712.5067487873243
13:52:30,0,G11,Woodhaven Blvd,-73.869229,40.733106,1600.381287532712
13:52:30,0,G12,Grand Av-Newtown,-73.877223,40.737015,1482.2781567776474
13:52:30,0,G13,Elmhurst Av,-73.882017,40.742454,1376.686996556653
12:02:00,0,G14,Jackson Hts-Roosevelt Av,-73.891338,40.746644,1260.2027665009941
12:20:00,0,G15,65 St,-73.898453,40.749669,1377.404972383347
12:27:00,0,G16,Northern Blvd,-73.906006,40.752885,1343.0896732926258
12:27:00,0,G18,46 St,-73.913333,40.756312,1253.0896732926258
12:27:00,0,G19,Steinway St,-73.92074,40.756879,1136.1824567977806
12:27:00,0,G20,36 St,-73.928781,40.752039,1016.1824567977804
12:02:00,0,G21,Queens Plaza,-73.937243,40.748973,784.9101774428757
12:13:30,1,G22,Court Sq,-73.943832,40.746554,687.4069465936989
12:13:30,1,G24,21 St,-73.949724,40.744065,782.1417292023946
12:13:30,1,G26,Greenpoint Av,-73.954449,40.731352,922.7365085684605
12:13:30,1,G28,Nassau Av,-73.951277,40.724635,1033.6862634704212
12:13:30,1,G29,Metropolitan Av,-73.951418,40.712792,1091.0846916028265
12:13:30,1,G30,Broadway,-73.950308,40.706092,1208.1190721600287
12:13:30,1,G31,Flushing Av,-73.950234,40.700377,1298.1386335115403
12:13:30,1,G32,Myrtle-Willoughby Avs,-73.949046,40.694568,1375.1884851435877
12:08:30,0,G33,Bedford-Nostrand Avs,-73.953522,40.689627,1486.6022164868714
12:08:30,0,G34,Classon Av,-73.96007,40.688873,1565.3662550574898
12:08:30,0,G35,Clinton-Washington Avs,-73.966839,40.688089,1653.1227004771276
12:08:30,0,G36,Fulton St,-73.975375,40.687119,1583.6317993650916
12:42:30,0,H01,Aqueduct Racetrack,-73.834058,40.668234,2886.3784585160365
12:02:30,0,H02,Aqueduct-N Conduit Av,-73.834058,40.668234,2900.7491865786506
12:02:30,0,H03,Howard Beach-JFK Airport,-73.830301,40.660476,3051.9403911675604
12:02:30,0,H04,Broad Channel,-73.815925,40.608382,3529.5065262582657
12:02:30,0,H06,Beach 67 St,-73.796924,40.590927,3833.9912026889183
12:42:30,0,H07,Beach 60 St,-73.788522,40.592374,3942.593125765842
12:42:30,0,H08,Beach 44 St,-73.776013,40.592943,4054.0902300129464
12:42:30,0,H09,Beach 36 St,-73.768175,40.595398,4154.271431563334
12:42:30,0,H10,Beach 25 St,-73.761353,40.600066,4264.565491933344
12:42:30,0,H11,Far Rockaway-Mott Av,-73.755405,40.603995,4342.363811261075
12:02:30,0,H12,Beach 90 St,-73.813641,40.588034,3799.563669115409
12:02:30,0,H13,Beach 98 St,-73.820558,40.585307,3899.667442700315
12:02:30,0,H14,Beach 105 St,-73.827559,40.583209,3989.343633176505
12:02:30,0,H15,Rockaway Park-Beach 116 St,-73.835592,40.580903,4092.8930837259554
13:52:30,0,J12,121 St,-73.828294,40.700492,2730.7205629631167
13:52:30,0,J13,111 St,-73.836345,40.697418,2754.135765425036
13:52:30,0,J14,104 St,-73.84433,40.695178,2747.8456156901366
13:52:30,0,J15,Woodhaven Blvd,-73.851576,40.693879,2657.8456156901366
13:52:30,0,J16,85 St-Forest Pkwy,-73.86001,40.692435,2670.229823001618
13:52:30,0,J17,75 St-Elderts Ln,-73.867139,40.691324,2477.8456156901366
13:52:30,0,J19,Cypress Hills,-73.87255,40.689941,2502.608463778317
13:58:00,1,J20,Crescent St,-73.873785,40.683194,2327.8456156901366
13:58:00,1,J21,Norwood Av,-73.880039,40.68141,2237.8456156901366
13:58:00,1,J22,Cleveland St,-73.884639,40.679947,2235.82352146642
13:58:00,1,J23,Van Siclen Av,-73.891688,40.678024,2087.8456156901366
13:58:00,1,J24,Alabama Av,-73.898654,40.676992,2027.8456156901368
13:21:00,1,J27,Broadway Junction,-73.904512,40.679498,1937.8456156901368
13:58:00,1,J28,Chauncey St,-73.910456,40.682893,1997.8456156901368
13:58:00,1,J29,Halsey St,-73.916559,40.68637,2071.645149280563
13:21:00,1,J30,Gates Av,-73.92227,40.68963,1918.633847352016
13:21:00,1,J31,Kosciuszko St,-73.928814,40.693342,1884.3625694933294
13:27:00,1,L01,8 Av,-74.002578,40.739777,310.57104552371135
13:27:00,1,L02,6 Av,-73.996786,40.737335,409.70379177289595
13:27:00,1,L03,14 St-Union Sq,-73.99073,40.734789,501.1757713944389
13:27:00,1,L05,3 Av,-73.986122,40.732849,551.0483137673203
13:27:00,1,L06,1 Av,-73.981628,40.730953,600.7162030637525
13:27:00,1,L08,Bedford Av,-73.956872,40.717304,804.9297121247081
13:27:00,1,L10,Lorimer St,-73.950275,40.714063,877.8704074212316
13:27:00,1,L11,Graham Av,-73.944053,40.714565,918.5321669725811
13:27:00,1,L12,Grand St,-73.94067,40.711926,1007.1244488517757
13:27:00,1,L13,Montrose Av,-73.93985,40.707739,1044.6873291763195
13:27:00,1,L14,Morgan Av,-73.933147,40.706152,1125.7505862422684
13:27:00,1,L15,Jefferson St,-73.922913,40.706607,1232.5272034929424
13:27:00,1,L16,DeKalb Av,-73.918425,40.703811,1297.1301794821206
13:27:00,1,L17,Myrtle-Wyckoff Avs,-73.911586,40.699814,1372.4150155476943
13:27:00,1,L19,Halsey St,-73.904084,40.695602,1443.1566512354266
13:27:00,1,L20,Wilson Av,-73.904046,40.688764,1573.6083829966647
13:27:00,1,L21,Bushwick Av-Aberdeen St,-73.905249,40.682829,1636.5726421180348
13:27:00,1,L22,Broadway Junction,-73.90324,40.678856,1720.2067273310672
13:27:00,1,L24,Atlantic Av,-73.903097,40.675345,1798.753876045193
13:27:00,1,L25,Sutter Av,-73.901975,40.669367,1881.9326609057507
13:27:00,1,L26,Livonia Av,-73.900571,40.664038,1958.2205900308893
13:27:00,1,L27,New Lots Av,-73.899232,40.658733,2048.398646920435
13:27:00,1,L28,East 105 St,-73.899485,40.650573,2207.8339198939098
13:27:00,1,L29,Canarsie-Rockaway Pkwy,-73.90185,40.646654,2262.5819741059754
12:05:00,2,M01,Middle Village-Metropolitan Av,-73.889601,40.711396,1998.4297338542658
12:05:00,2,M04,Fresh Pond Rd,-73.895877,40.706186,1877.847947824204
12:05:00,2,M05,Forest Av,-73.903077,40.704423,1778.872046453747
12:05:00,2,M06,Seneca Av,-73.90774,40.702762,1684.0124095822387
13:21:00,1,M08,Myrtle-Wyckoff Avs,-73.912385,40.69943,1598.8713262967483
13:21:00,1,M09,Knickerbocker Av,-73.919711,40.698664,1699.2677170870406
13:21:00,1,M10,Central Av,-73.927397,40.697857,1814.2883937787701
13:21:00,1,M11,Myrtle Av,-73.935657,40.697207,1733.1218473520157
13:21:00,1,M12,Flushing Av,-73.941126,40.70026,1615.6827916747761
13:21:00,1,M13,Lorimer St,-73.947408,40.703869,1514.3088711220992
13:21:00,1,M14,Hewes St,-73.953431,40.70687,1421.2501491877294
13:21:00,1,M16,Marcy Av,-73.957757,40.708359,1343.5168737750448
13:21:00,1,M18,Delancey St-Essex St,-73.987437,40.718315,969.3112662984092
13:21:00,1,M19,Bowery,-73.993915,40.72028,995.3258196202524
13:58:00,1,M20,Canal St,-73.999892,40.718092,893.8194480575429
13:58:00,1,M21,Chambers St,-74.003401,40.713243,981.0022374231844
13:58:00,1,M22,Fulton St,-74.007582,40.710374,1014.183387385909
12:08:30,1,M23,Broad St,-74.011056,40.706476,1078.3670608552966
12:50:30,1,N02,8 Av,-74.011719,40.635064,2321.9747027695084
12:50:30,1,N03,Fort Hamilton Pkwy,-74.005351,40.631386,2409.755369436175
12:50:30,1,N04,New Utrecht Av,-73.996353,40.624842,2526.8669179926055
12:50:30,1,N05,18 Av,-73.990414,40.620671,2622.8371954034383
12:50:30,1,N06,20 Av,-73.985026,40.61741,2710.2737033399458
12:50:30,1,N07,Bay Pkwy,-73.981848,40.611815,2808.0452265187537
12:50:30,1,N08,Kings Hwy,-73.980353,40.603923,2935.549556965123
12:50:30,1,N09,Avenue U,-73.979137,40.597473,3051.2418133069123
12:50:30,1,N10,86 St,-73.97823,40.592721,3179.8184140660496
12:50:30,1,Q01,Canal St,-74.00046,40.718383,668.0982950366841
12:07:30,0,Q03,72 St,-73.958424,40.768799,633.0911351317998
12:07:30,0,Q04,86 St,-73.951787,40.777891,758.130570093542
12:07:30,0,Q05,96 St,-73.947152,40.784318,851.1290339952317
12:05:00,1,R01,Astoria-Ditmars Blvd,-73.912034,40.775036,1476.1235993813755
12:05:00,1,R03,Astoria Blvd,-73.917843,40.770258,1379.8282527526953
12:05:00,1,R04,30 Av,-73.921479,40.766779,1273.1313129698722
12:05:00,1,R05,Broadway,-73.925508,40.76182,1177.7503605889199
12:05:00,1,R06,36 Av,-73.929575,40.756804,1065.2691352924771
12:05:00,1,R08,39 Av-Dutch Kills,-73.932755,40.752882,947.7242251128365
12:05:00,1,R09,Queensboro Plaza,-73.940202,40.750582,785.2794489934334
12:05:00,1,R11,Lexington Av/59 St,-73.967258,40.76266,591.8802964575412
12:05:00,1,R13,5 Av/59 St,-73.973347,40.764811,483.1994593090783
12:05:00,1,R14,57 St-7 Av,-73.980658,40.764664,303.1338112305854
13:48:30,1,R15,49 St,-73.984139,40.759901,214.00488758553274
12:13:00,1,R16,Times Sq-42 St,-73.986754,40.754672,120.0
12:50:30,1,R17,34 St-Herald Sq,-73.98795,40.749567,222.97974985110184
12:05:00,1,R18,28 St,-73.988691,40.745494,309.357258991394
12:05:00,1,R19,23 St,-73.989344,40.741303,392.25140013653385
12:05:00,1,R20,14 St-Union Sq,-73.990568,40.735736,393.1037069428778
12:05:00,1,R21,8 St-NYU,-73.992629,40.730328,594.9795094136497
12:05:00,1,R22,Prince St,-73.997702,40.724329,718.6864986609615
12:05:00,1,R23,Canal St,-74.001775,40.719527,831.8998680059987
12:52:30,1,R24,City Hall,-74.006978,40.713282,987.5641773193346
12:02:30,1,R25,Cortlandt St,-74.011029,40.710668,845.7006656595266
12:02:30,1,R26,Rector St,-74.013342,40.70722,961.1484887417657
12:02:30,1,R27,Whitehall St-South Ferry,-74.012994,40.703087,1052.2657684086637
12:02:30,1,R28,Court St,-73.991777,40.6941,1256.2345184086637
13:27:00,1,R29,Jay St-MetroTech,-73.985942,40.69218,1267.8901752685267
13:21:00,1,R30,DeKalb Av,-73.981824,40.690635,1228.6823818359608
13:27:00,1,R31,Atlantic Av-Barclays Ctr,-73.97881,40.683666,1390.7600967324688
12:13:00,1,R32,Union St,-73.98311,40.677316,1502.6072469915362
12:13:00,1,R33,4 Av-9 St,-73.988302,40.670847,1614.6625233734455
12:13:00,1,R34,Prospect Av,-73.992872,40.665414,1724.3459404588727
12:13:00,1,R35,25 St,-73.998091,40.660397,1841.5718287837458
12:13:00,1,R36,36 St,-74.003549,40.655144,1831.617835095939
12:13:00,1,R39,45 St,-74.010006,40.648939,1972.342444985485
12:50:30,1,R40,53 St,-74.014034,40.645069,2066.1178073043257
12:50:30,1,R41,59 St,-74.017881,40.641362,2139.1561674487048
12:08:30,1,R42,Bay Ridge Av,-74.023377,40.634967,2303.630416234913
12:08:30,1,R43,77 St,-74.02551,40.629742,2386.2390833393124
12:08:30,1,R44,86 St,-74.028398,40.622687,2570.6910184204608
12:08:30,1,R45,Bay Ridge-95 St,-74.030876,40.616622,2639.2727575508957
13:21:00,1,S01,Franklin Av,-73.955827,40.680596,1669.0011745220606
12:08:30,1,S03,Park Pl,-73.957624,40.674772,1785.3414522998382
13:21:00,1,S04,Botanic Garden,-73.959245,40.670343,1909.9172537814402
