start_time,ntransfers,stop_id,stop_name,stop_lon,stop_lat,duration
13:48:00,1,101,Van Cortlandt Park-242 St,-73.898583,40.889248,2810.0115293233084
13:48:00,1,103,238 St,-73.90087,40.884667,2703.260781140324
13:48:00,1,104,231 St,-73.904834,40.878856,2608.4256747573454
13:48:00,1,106,Marble Hill-225 St,-73.909831,40.874561,2514.953808245898
13:48:00,1,107,215 St,-73.915279,40.869444,2406.8292448000307
13:48:00,1,108,207 St,-73.918822,40.864621,2327.8444494783935
13:48:00,1,109,Dyckman St,-73.925536,40.860531,2229.807822420902
13:48:00,1,110,191 St,-73.929412,40.855225,2139.5887748018545
13:48:00,1,111,181 St,-73.933596,40.849505,2044.344186057266
12:25:30,1,112,168 St-Washington Hts,-73.940133,40.840556,1923.4938606776566
12:25:30,1,113,157 St,-73.94489,40.834041,1930.2416694333967
12:25:30,1,114,145 St,-73.95036,40.826551,1814.5770220945824
12:25:30,1,115,137 St-City College,-73.953676,40.822008,1713.5342390349456
12:25:30,1,116,125 St,-73.958372,40.815581,1614.7731071165101
12:25:30,1,117,116 St-Columbia University,-73.96411,40.807722,1496.6170377523483
12:25:30,1,118,Cathedral Pkwy (110 St),-73.966847,40.803967,1418.5862242765882
12:25:30,1,119,103 St,-73.968379,40.799446,1339.2680424584064
12:55:30,1,120,96 St,-73.972323,40.793919,1039.1910971211323
12:25:30,1,121,86 St,-73.976218,40.788644,1125.1284405848703
12:25:30,1,122,79 St,-73.979917,40.783934,1043.2961525127282
12:25:30,1,123,72 St,-73.98197,40.778453,847.3287960195411
12:25:30,1,124,66 St-Lincoln Center,-73.982209,40.77344,900.672933578353
12:25:30,1,125,59 St-Columbus Circle,-73.981929,40.768247,819.5749632426778
12:18:00,1,126,50 St,-73.983849,40.761728,710.9475122622855
12:18:00,1,127,Times Sq-42 St,-73.987495,40.75529,598.7504176411627
12:18:00,1,128,34 St-Penn Station,-73.991057,40.750373,706.1399281306732
12:18:00,1,129,28 St,-73.993365,40.747215,787.9026378467257
12:25:30,1,130,23 St,-73.995657,40.744081,856.5298682578972
12:25:30,1,131,18 St,-73.997871,40.74104,871.2764572005809
12:24:00,1,132,14 St,-74.000201,40.737826,795.1993534823813
12:11:00,1,133,Christopher St-Sheridan Sq,-74.002906,40.733422,889.3006718696195
12:11:00,1,134,Houston St,-74.005367,40.728251,969.3002653655544
12:11:00,1,135,Canal St,-74.006277,40.722854,1059.0578780330331
12:11:00,1,136,Franklin St,-74.006886,40.719318,1124.2131273236694
12:03:00,1,137,Chambers St,-74.009266,40.715478,1080.4882338076725
12:18:00,1,138,WTC Cortlandt,-74.012188,40.711835,1265.4921980088727
12:18:00,1,139,Rector St,-74.013783,40.707513,1344.7907648878536
12:18:00,1,142,South Ferry,-74.013664,40.702068,1449.5111862816948
12:45:00,1,201,Wakefield-241 St,-73.85062,40.903125,3480.7937199417825
12:45:00,1,204,Nereid Av,-73.854376,40.898379,3252.529671603414
12:45:00,1,205,233 St,-73.857473,40.893193,3120.5296716034136
12:45:00,1,206,225 St,-73.860341,40.888022,3024.5296716034136
12:45:00,1,207,219 St,-73.862633,40.883895,2942.5296716034136
12:45:00,1,208,Gun Hill Rd,-73.866256,40.87785,2834.029671603414
12:45:00,1,209,Burke Av,-73.867164,40.871356,2908.1645068255502
12:45:00,1,210,Allerton Av,-73.867352,40.865462,2817.7392194692284
12:45:00,1,211,Pelham Pkwy,-73.867615,40.857192,2705.8311734922167
12:45:00,1,212,Bronx Park East,-73.868457,40.848828,2578.6811734922167
12:45:00,1,213,E 180 St,-73.873488,40.841894,2362.5
12:45:00,1,214,West Farms Sq-E Tremont Av,-73.880049,40.840295,2290.5423725598857
12:45:00,1,215,174 St,-73.887734,40.837288,2164.5030084417936
12:45:00,1,216,Freeman St,-73.891865,40.829993,2041.995119636384
12:45:00,1,217,Simpson St,-73.893064,40.824073,1928.78243306922
12:45:00,1,218,Intervale Av,-73.896736,40.822181,1854.11799854541
12:45:00,1,219,Prospect Av,-73.90177,40.819585,1770.5526196449644
12:45:00,1,220,Jackson Av,-73.907807,40.81649,1670.826086015992
12:45:00,1,221,3 Av-149 St,-73.917757,40.816109,1531.8546783913584
12:45:00,1,222,149 St-Grand Concourse,-73.926718,40.81841,1400.1952295724607
12:55:30,1,224,135 St,-73.94077,40.814229,1593.21312344796
12:55:30,1,225,125 St,-73.945495,40.807754,1483.165991644359
12:55:30,1,226,116 St,-73.949625,40.802098,1383.307966953001
12:55:30,1,227,Central Park North (110 St),-73.951822,40.799075,1304.4261372198368
12:03:00,1,228,Park Place,-74.008811,40.713051,1171.1657897665352
12:03:00,1,229,Fulton St,-74.006571,40.709416,1288.6542307860964
12:03:00,1,230,Wall St,-74.0091,40.706821,1364.2274525434186
12:03:00,1,231,Clark St,-73.993086,40.697466,1557.2120951896086
12:03:00,1,232,Borough Hall,-73.989998,40.693219,1673.437596960565
12:41:00,1,233,Hoyt St,-73.985065,40.690545,1761.1954916974073
12:41:00,1,234,Nevins St,-73.980492,40.688246,1842.8338240899834
12:41:00,1,235,Atlantic Av-Barclays Ctr,-73.977666,40.684359,1837.8078025039624
12:41:00,1,236,Bergen St,-73.975098,40.680829,1916.830011738328
12:41:00,1,237,Grand Army Plaza,-73.971046,40.675235,2020.8110285514838
12:41:00,1,238,Eastern Pkwy-Brooklyn Museum,-73.964375,40.671987,2123.954967945423
12:41:00,1,239,Franklin Av-Medgar Evers College,-73.958131,40.670682,2085.9717574476417
12:41:00,1,241,President St-Medgar Evers College,-73.950683,40.667883,2285.421489351127
12:41:00,1,242,Sterling St,-73.95085,40.662742,2380.253032975288
12:41:00,1,243,Winthrop St,-73.9502,40.656652,2473.858137071997
12:41:00,1,244,Church Av,-73.949575,40.650843,2557.900733420882
12:41:00,1,245,Beverly Rd,-73.948959,40.645098,2664.076869784518
12:41:00,1,246,Newkirk Av-Little Haiti,-73.948411,40.639967,2785.617997336682
12:41:00,1,247,Flatbush Av-Brooklyn College,-73.947642,40.632836,2936.2375547956403
12:41:00,1,248,Nostrand Av,-73.950466,40.669847,2248.985627537928
12:41:00,1,249,Kingston Av,-73.942161,40.669399,2346.137142689443
12:41:00,1,250,Crown Hts-Utica Av,-73.932942,40.668897,2420.6009160071912
12:11:00,1,251,Sutter Av-Rutland Rd,-73.92261,40.664717,2555.661472573097
12:11:00,1,252,Saratoga Av,-73.916327,40.661453,2661.4017323133567
12:11:00,1,253,Rockaway Av,-73.908946,40.662549,2644.324707922013
12:11:00,1,254,Junius St,-73.902447,40.663515,2563.142015614321
12:11:00,1,255,Pennsylvania Av,-73.894895,40.664635,2672.8262080736254
12:11:00,1,256,Van Siclen Av,-73.889395,40.665449,2752.855512348982
12:11:00,1,257,New Lots Av,-73.884079,40.666235,2837.24644146527
12:03:00,2,301,Harlem-148 St,-73.93647,40.82388,1875.1069475315483
12:03:00,2,302,145 St,-73.936245,40.820421,1735.9235545272754
12:01:30,1,401,Woodlawn,-73.878751,40.886037,2677.078073693427
12:01:30,1,402,Mosholu Pkwy,-73.884655,40.87975,2540.099083302947
12:01:30,1,405,Bedford Park Blvd-Lehman College,-73.890064,40.873412,2424.710227345626
12:01:30,1,406,Kingsbridge Rd,-73.897174,40.86776,2308.3375910831123
12:01:30,1,407,Fordham Rd,-73.901034,40.862803,2211.41536886089
12:01:30,1,408,183 St,-73.903879,40.858407,2126.8185768254916
12:01:30,1,409,Burnside Av,-73.907684,40.853453,2025.5410832193536
12:01:30,1,410,176 St,-73.911794,40.84848,1954.8768743434148
12:01:30,1,411,Mt Eden Av,-73.914685,40.844434,1875.5299355679047
12:01:30,1,412,170 St,-73.917791,40.840075,1795.3235514182072
12:01:30,1,413,167 St,-73.9214,40.835537,1704.8051075302083
12:01:30,1,414,161 St-Yankee Stadium,-73.925831,40.827994,1527.6396161249104
12:01:30,1,415,149 St-Grand Concourse,-73.927351,40.818375,1349.7254331855474
12:01:30,1,416,138 St-Grand Concourse,-73.929849,40.813224,1216.358817962962
12:50:30,1,418,Fulton St,-74.009509,40.710368,1273.2827763341716
12:50:30,1,419,Wall St,-74.011862,40.707557,1351.9421897684194
12:50:30,1,420,Bowling Green,-74.014065,40.704817,1431.5277842430125
12:50:30,1,423,Borough Hall,-73.990151,40.692404,1705.4176105457423
12:45:00,1,501,Eastchester-Dyre Av,-73.830834,40.8883,3098.3389765693814
12:45:00,1,502,Baychester Av,-73.838591,40.878663,2962.5
12:45:00,1,503,Gun Hill Rd,-73.846384,40.869526,2812.5
12:45:00,1,504,Pelham Pkwy,-73.855359,40.858985,2662.5
12:45:00,1,505,Morris Park,-73.860495,40.854364,2572.5
13:45:30,1,601,Pelham Bay Park,-73.828121,40.852462,2800.598556563117
13:45:30,1,602,Buhre Av,-73.832569,40.84681,2623.3353986683805
13:45:30,1,603,Middletown Rd,-73.836322,40.843863,2553.0422952201047
13:45:30,1,604,Westchester Sq-E Tremont Av,-73.842952,40.839892,2420.8658246318696
13:45:30,1,606,Zerega Av,-73.847036,40.836488,2333.8158246318694
13:45:30,1,607,Castle Hill Av,-73.851222,40.834255,2264.569922992525
13:45:30,1,608,Parkchester,-73.860816,40.833226,2079.156129889077
13:45:30,1,609,St Lawrence Av,-73.867618,40.831509,2323.016462551875
13:45:30,1,610,Morrison Av-Soundview,-73.874516,40.829521,2221.8654185714217
13:45:30,1,611,Elder Av,-73.879159,40.828584,2149.1400141114304
13:45:30,1,612,Whitlock Av,-73.886283,40.826525,2036.4352522066688
13:45:30,1,613,Hunts Point Av,-73.890549,40.820948,1806.7561298890769
12:01:30,1,614,Longwood Av,-73.896435,40.816104,1938.574601405613
12:01:30,1,615,E 149 St,-73.904098,40.812118,1835.8038193101877
12:01:30,1,616,E 143 St-St Mary's St,-73.907657,40.808719,1759.1297232230158
12:01:30,1,617,Cypress Av,-73.914042,40.805368,1656.086072429365
12:01:30,1,618,Brook Av,-73.91924,40.807566,1584.3872652723073
12:01:30,1,619,3 Av-138 St,-73.926138,40.810476,1439.1107398181548
12:01:30,1,621,125 St,-73.937594,40.804138,1033.3752437185465
12:45:00,1,622,116 St,-73.941617,40.798629,1138.704882472855
12:50:30,1,623,110 St,-73.94425,40.79502,1058.1545469023852
12:50:30,1,624,103 St,-73.947478,40.7906,979.1148118030474
12:50:30,1,625,96 St,-73.95107,40.785672,889.3450749609422
12:01:30,1,626,86 St,-73.955589,40.779492,725.0546975546976
12:50:30,1,627,77 St,-73.959874,40.77362,687.36875
12:50:30,1,628,68 St-Hunter College,-73.96387,40.768141,593.6180716002283
12:48:00,1,629,59 St,-73.967967,40.762526,495.0
12:50:30,1,630,51 St,-73.97192,40.757107,594.1963190184049
12:48:00,1,631,Grand Central-42 St,-73.976848,40.751776,595.3183004099888
12:48:00,1,632,33 St,-73.982076,40.746081,711.2889661977277
12:48:00,1,633,28 St,-73.984264,40.74307,781.1104299325489
12:48:00,1,634,23 St,-73.986599,40.739864,848.3481830350962
12:50:30,1,635,14 St-Union Sq,-73.989951,40.734673,859.9427068677287
12:55:30,1,636,Astor Pl,-73.99107,40.730054,968.1289116137934
12:25:30,1,637,Bleecker St,-73.994659,40.725915,970.5345151310657
12:25:30,1,638,Spring St,-73.997141,40.722301,1041.7910596336835
12:25:30,1,639,Canal St,-74.000193,40.718803,1120.7496088564815
12:50:30,1,640,Brooklyn Bridge-City Hall,-74.004131,40.713065,1157.0195934363094
12:08:30,1,701,Flushing-Main St,-73.83003,40.7596,1759.879944602573
12:08:30,1,702,Mets-Willets Point,-73.845625,40.754622,1593.7738137421918
12:08:30,1,705,111 St,-73.855334,40.75173,1467.6856054726666
12:08:30,1,706,103 St-Corona Plaza,-73.8627,40.749865,1388.7782356281773
12:08:30,1,707,Junction Blvd,-73.869527,40.749145,1308.0924959305787
12:08:30,1,708,90 St-Elmhurst Av,-73.876613,40.748408,1237.8751175201396
12:08:30,1,709,82 St-Jackson Hts,-73.883697,40.747659,1132.8143740931223
12:50:30,1,710,74 St-Broadway,-73.891394,40.746848,1020.9574484825134
12:50:30,1,711,69 St,-73.896403,40.746325,1089.893934969
12:50:30,1,712,61 St-Woodside,-73.902984,40.74563,1171.8134574949913
12:25:30,1,713,52 St,-73.912549,40.744149,1149.3261511238056
12:25:30,1,714,46 St-Bliss St,-73.918435,40.743132,1093.036677439595
12:25:30,1,715,40 St-Lowery St,-73.924016,40.743781,1034.7309943167477
12:25:30,1,716,33 St-Rawson St,-73.930997,40.744587,950.3389824824282
12:25:30,1,718,Queensboro Plaza,-73.940202,40.750582,806.057349829367
13:53:30,1,719,Court Sq,-73.945264,40.747023,820.7489611837437
13:53:30,1,720,Hunters Point Av,-73.948916,40.742216,725.6620046620046
13:53:30,1,721,Vernon Blvd-Jackson Av,-73.953581,40.742626,690.9491728932103
13:53:30,1,723,Grand Central-42 St,-73.976041,40.751431,475.3183004099888
13:53:30,1,724,5 Av,-73.981963,40.753821,405.0
12:03:00,1,725,Times Sq-42 St,-73.987691,40.755477,462.86486486486484
12:03:00,1,726,34 St-Hudson Yards,-74.00191,40.755882,594.2648648648649
13:18:00,1,901,Grand Central-42 St,-73.979189,40.752769,535.3183004099888
13:38:30,2,902,Times Sq-42 St,-73.986229,40.755983,538.7504176411627
13:48:00,0,A02,Inwood-207 St,-73.919899,40.868072,2268.3874612465656
13:48:00,0,A03,Dyckman St,-73.927271,40.865491,2168.648634430923
13:48:00,0,A05,190 St,-73.93418,40.859022,2038.2686234479463
13:48:00,0,A06,181 St,-73.937969,40.851695,1925.383711553673
13:48:00,0,A07,175 St,-73.939704,40.847391,1832.5987060409936
13:48:00,0,A09,168 St,-73.939561,40.840719,1698.004729465422
13:48:00,0,A10,163 St-Amsterdam Av,-73.939892,40.836013,1641.3014120612838
13:48:00,0,A11,155 St,-73.941514,40.830518,1556.4315851237366
13:48:00,0,A12,145 St,-73.944216,40.824783,1428.021120864341
13:48:00,0,A14,135 St,-73.947649,40.817894,1313.048753425954
12:25:30,0,A15,125 St,-73.952343,40.811109,1147.6128302398358
12:18:00,0,A16,116 St,-73.954882,40.805085,1285.5512508646937
12:18:00,0,A17,Cathedral Pkwy (110 St),-73.958161,40.800603,1253.2192501710338
12:18:00,0,A18,103 St,-73.961454,40.796092,1166.6044886948862
12:18:00,0,A19,96 St,-73.964696,40.791642,1077.4378220282194
12:18:00,0,A20,86 St,-73.968916,40.785868,975.695944771902
12:18:00,0,A21,81 St-Museum of Natural History,-73.972143,40.781433,876.4183679183758
12:18:00,0,A22,72 St,-73.97641,40.775594,784.0953189165609
12:18:00,0,A24,59 St-Columbus Circle,-73.981736,40.768296,646.1044513366523
12:18:00,0,A25,50 St,-73.985984,40.762456,701.4335859579943
13:18:00,0,A27,42 St-Port Authority Bus Terminal,-73.989735,40.757308,598.7504176411627
13:18:00,0,A28,34 St-Penn Station,-73.993391,40.752287,700.5466834291913
12:25:30,0,A30,23 St,-73.998041,40.745906,803.0359471111219
13:18:00,0,A31,14 St,-74.00169,40.740893,849.3214631648741
13:18:00,0,A32,W 4 St-Wash Sq,-74.000495,40.732338,838.392018519056
12:11:00,1,A33,Spring St,-74.003739,40.726227,945.5151321012642
12:25:30,1,A34,Canal St,-74.005229,40.720824,1005.1648467859375
12:11:00,1,A36,Chambers St,-74.008585,40.714111,1120.940190647374
12:11:00,1,A38,Fulton St,-74.007691,40.710197,1230.5822476738506
12:33:00,0,A40,High St,-73.990531,40.699337,1423.668723289738
12:25:30,0,A41,Jay St-MetroTech,-73.987342,40.692338,1350.0
13:18:00,0,A42,Hoyt-Schermerhorn Sts,-73.985001,40.688484,1597.4231414197877
12:03:00,0,A43,Lafayette Av,-73.973946,40.686113,1743.5506414050958
12:03:00,0,A44,Clinton-Washington Avs,-73.965838,40.683263,1828.5506414050958
12:03:00,0,A45,Franklin Av,-73.956848,40.68138,1934.26961658524
13:18:00,0,A46,Nostrand Av,-73.950426,40.680438,1881.4562874872033
13:53:30,0,A47,Kingston-Throop Avs,-73.940858,40.679921,1986.4356992519092
13:18:00,0,A48,Utica Av,-73.930729,40.679364,2056.911969305385
12:03:00,0,A49,Ralph Av,-73.920786,40.678822,2166.5870481697384
12:03:00,0,A50,Rockaway Av,-73.911946,40.67834,2268.3053144236083
13:18:00,0,A51,Broadway Junction,-73.905316,40.678334,2221.489325459467
12:18:00,0,A52,Liberty Av,-73.896548,40.674542,2359.505020526732
12:18:00,0,A53,Van Siclen Av,-73.890358,40.67271,2455.663465967689
13:53:30,0,A54,Shepherd Av,-73.88075,40.67413,2557.161584854069
13:18:00,0,A55,Euclid Av,-73.872106,40.675377,2538.816780178247
13:18:00,0,A57,Grant Av,-73.86505,40.677044,2669.0234616927237
13:18:00,0,A59,80 St,-73.858992,40.679371,2766.530105498982
13:18:00,0,A60,88 St,-73.85147,40.679843,2865.7197459099407
13:18:00,0,A61,Rockaway Blvd,-73.843853,40.680429,2959.14366361247
12:48:00,0,A63,104 St,-73.837683,40.681711,3050.1916147894535
12:48:00,0,A64,111 St,-73.832163,40.684331,3141.326993850825
12:48:00,0,A65,Ozone Park-Lefferts Blvd,-73.825798,40.685951,3252.205453537949
12:01:30,0,B04,21 St-Queensbridge,-73.942836,40.754203,380.722100292631
12:01:30,0,B06,Roosevelt Island,-73.95326,40.759145,261.75123558484347
12:01:30,0,B08,Lexington Av/63 St,-73.966113,40.764629,150.0
12:41:00,0,B10,57 St,-73.97745,40.763972,0.0
12:25:30,0,B12,9 Av,-73.994324,40.646292,2303.708410964864
12:25:30,0,B13,Fort Hamilton Pkwy,-73.994304,40.640914,2474.251268107721
12:25:30,0,B14,50 St,-73.994791,40.63626,2555.5839516684746
12:25:30,0,B15,55 St,-73.995476,40.631435,2645.1834331979626
12:25:30,0,B16,62 St,-73.996895,40.626472,2736.9718718475087
12:25:30,0,B17,71 St,-73.998864,40.619589,2839.869161433814
12:25:30,0,B18,79 St,-74.00061,40.613501,2944.319946027252
12:25:30,0,B19,18 Av,-74.001736,40.607954,3028.8035174558236
12:25:30,0,B20,20 Av,-73.998168,40.604556,3114.015097155609
12:25:30,0,B21,Bay Pkwy,-73.993728,40.601875,3195.173029675351
12:25:30,0,B22,25 Av,-73.986829,40.597704,3321.979181320558
12:25:30,0,B23,Bay 50 St,-73.983765,40.588841,3464.1750534056614
12:25:30,0,D01,Norwood-205 St,-73.878855,40.874811,2571.5026133353185
12:25:30,0,D03,Bedford Park Blvd,-73.887138,40.873244,2402.802859013178
12:25:30,0,D04,Kingsbridge Rd,-73.893509,40.866978,2284.262474397793
12:25:30,0,D05,Fordham Rd,-73.897749,40.861296,2184.129588491753
12:25:30,0,D06,182-183 Sts,-73.900741,40.856093,2098.9568012115365
12:25:30,0,D07,Tremont Av,-73.905227,40.85041,2015.35642772881
12:25:30,0,D08,174-175 Sts,-73.910136,40.8459,1988.4381538725622
12:25:30,0,D09,170 St,-73.9134,40.839306,1882.8943443487526
12:25:30,0,D10,167 St,-73.91844,40.833771,1776.7514872058955
12:25:30,0,D11,161 St-Yankee Stadium,-73.925651,40.827905,1662.560735760809
12:25:30,0,D12,155 St,-73.938209,40.830135,1539.3342482368166
12:25:30,0,D13,145 St,-73.944216,40.824783,1368.740649788708
12:18:00,0,D14,7 Av,-73.981637,40.762862,539.6430542778288
12:03:00,0,D15,47-50 Sts-Rockefeller Ctr,-73.981329,40.758663,90.0
12:03:00,0,D16,42 St-Bryant Pk,-73.984569,40.754222,180.0
12:03:00,0,D17,34 St-Herald Sq,-73.987823,40.749719,269.04199155905445
12:03:00,0,D18,23 St,-73.992821,40.742878,384.2768843465788
12:03:00,0,D19,14 St,-73.996209,40.738228,465.1993534823813
12:25:30,0,D20,W 4 St-Wash Sq,-74.000495,40.732338,598.392018519056
12:25:30,0,D21,Broadway-Lafayette St,-73.996204,40.725297,754.3440375214313
12:25:30,0,D22,Grand St,-73.993753,40.718267,975.7694343319935
12:11:00,0,D24,Atlantic Av-Barclays Ctr,-73.97689,40.68446,1642.3595159301897
12:11:00,0,D25,7 Av,-73.972367,40.67705,1792.1839495871477
12:11:00,0,D26,Prospect Park,-73.962246,40.661614,2017.4432088464068
12:11:00,0,D27,Parkside Av,-73.961495,40.655292,2122.1013609585243
12:11:00,0,D28,Church Av,-73.962982,40.650527,2183.9983206674933
12:56:00,0,D29,Beverley Rd,-73.964492,40.644031,2291.094738871187
12:56:00,0,D30,Cortelyou Rd,-73.963891,40.640927,2369.2317688265725
12:11:00,0,D31,Newkirk Plaza,-73.962793,40.635082,2364.6980481114338
12:11:00,0,D32,Avenue H,-73.961639,40.62927,2478.0228271553474
12:11:00,0,D33,Avenue J,-73.960803,40.625039,2574.9073685280223
12:11:00,0,D34,Avenue M,-73.959399,40.617618,2685.713717734371
12:11:00,0,D35,Kings Hwy,-73.957734,40.60867,2630.093420344834
13:41:00,0,D37,Avenue U,-73.955929,40.5993,2849.4416634597
13:41:00,0,D38,Neck Rd,-73.955161,40.595246,2953.5394207914997
12:11:00,0,D39,Sheepshead Bay,-73.954155,40.586896,2894.078794822974
13:41:00,0,D40,Brighton Beach,-73.961376,40.577621,3041.4062802030912
13:41:00,0,D41,Ocean Pkwy,-73.968501,40.576312,3187.7721445423085
13:41:00,0,D42,W 8 St-NY Aquarium,-73.975939,40.576127,3231.97413762507
13:41:00,0,D43,Coney Island-Stillwell Av,-73.981233,40.577422,3347.854659713423
12:25:30,0,E01,World Trade Center,-74.009781,40.712582,1188.941084939984
12:31:00,0,F01,Jamaica-179 St,-73.783817,40.712646,1980.0
13:26:30,0,F02,169 St,-73.793604,40.71047,1890.0
12:01:30,0,F03,Parsons Blvd,-73.803326,40.707564,1770.0
12:01:30,0,F04,Sutphin Blvd,-73.810708,40.70546,1680.0
12:01:30,0,F05,Briarwood,-73.820574,40.709179,1560.0
12:01:30,0,F06,Kew Gardens-Union Tpke,-73.831008,40.714441,1440.0
12:01:30,0,F07,75 Av,-73.837324,40.718331,1350.0
12:25:30,0,F09,Court Sq-23 St,-73.946,40.747846,889.2857142857142
12:25:30,0,F11,Lexington Av/53 St,-73.969055,40.757552,685.7142857142858
12:25:30,0,F12,5 Av/53 St,-73.975224,40.760167,586.530612244898
12:25:30,0,F14,2 Av,-73.989938,40.723402,841.9570933397853
12:25:30,0,F15,Delancey St-Essex St,-73.988114,40.718611,941.0716224453224
12:25:30,0,F16,East Broadway,-73.990173,40.713715,1024.4809291879626
12:25:30,0,F18,York St,-73.986751,40.701397,1189.820919677739
12:25:30,0,F20,Bergen St,-73.990862,40.686145,1522.4538515458428
12:25:30,0,F21,Carroll St,-73.995048,40.680303,1627.2433252300534
12:25:30,0,F22,Smith-9 Sts,-73.995959,40.67358,1778.0027165757501
12:25:30,0,F23,4 Av-9 St,-73.989779,40.670272,1861.3693832424167
12:25:30,0,F24,7 Av,-73.980305,40.666271,1770.0
12:25:30,0,F25,15 St-Prospect Park,-73.979493,40.660365,1932.3695098990456
12:25:30,0,F26,Fort Hamilton Pkwy,-73.975776,40.650782,2105.142021747387
12:25:30,0,F27,Church Av,-73.979678,40.644041,2010.0
12:33:00,0,F29,Ditmas Av,-73.978172,40.636119,2130.0
12:33:00,0,F30,18 Av,-73.976971,40.629755,2250.0
12:33:00,0,F31,Avenue I,-73.976127,40.625322,2310.0
12:33:00,0,F32,Bay Pkwy,-73.975264,40.620769,2370.0
12:33:00,0,F33,Avenue N,-73.974197,40.61514,2490.0
12:33:00,0,F34,Avenue P,-73.973022,40.608944,2580.0
12:33:00,0,F35,Kings Hwy,-73.972361,40.603217,2795.8222361748167
13:33:00,0,F36,Avenue U,-73.973357,40.596063,2907.6632836778617
12:11:00,0,F38,Avenue X,-73.97425,40.58962,3004.5774978293957
12:11:00,0,F39,Neptune Av,-73.974574,40.581011,3130.957176973781
13:53:00,0,G05,Jamaica Center-Parsons/Archer,-73.801109,40.702147,1994.3652713132628
12:08:30,0,G06,Sutphin Blvd-Archer Av-JFK Airport,-73.807969,40.700486,1883.6597568163895
12:08:30,0,G07,Jamaica-Van Wyck,-73.816859,40.702566,1748.2110619469026
12:01:30,0,G08,Forest Hills-71 Av,-73.844521,40.721691,1230.0
13:15:30,0,G09,67 Av,-73.852719,40.726523,1365.5506276150627
13:26:30,0,G10,63 Dr-Rego Park,-73.861604,40.729846,1470.0
13:26:30,0,G11,Woodhaven Blvd,-73.869229,40.733106,1372.1551455025094
13:26:30,0,G12,Grand Av-Newtown,-73.877223,40.737015,1259.1965752344347
13:26:30,0,G13,Elmhurst Av,-73.882017,40.742454,1158.979183930087
12:01:30,0,G14,Jackson Hts-Roosevelt Av,-73.891338,40.746644,810.0
13:53:00,0,G15,65 St,-73.898453,40.749669,1140.0
12:25:30,0,G16,Northern Blvd,-73.906006,40.752885,1234.3298969072164
12:25:30,0,G18,46 St,-73.913333,40.756312,1286.4332894827241
12:25:30,0,G19,Steinway St,-73.92074,40.756879,1181.4884510272473
12:25:30,0,G20,36 St,-73.928781,40.752039,1060.7364825233103
12:25:30,0,G21,Queens Plaza,-73.937243,40.748973,942.9477943850542
12:25:30,1,G22,Court Sq,-73.943832,40.746554,880.7489611837437
12:25:30,1,G24,21 St,-73.949724,40.744065,975.4837437924393
12:25:30,1,G26,Greenpoint Av,-73.954449,40.731352,1116.0785231585053
12:25:30,1,G28,Nassau Av,-73.951277,40.724635,1227.028278060466
12:25:30,1,G29,Metropolitan Av,-73.951418,40.712792,1374.7284013721567
12:25:30,1,G30,Broadway,-73.950308,40.706092,1468.1028119748275
12:03:00,1,G31,Flushing Av,-73.950234,40.700377,1559.5031809785175
12:03:00,0,G32,Myrtle-Willoughby Avs,-73.949046,40.694568,1645.5804341974017
12:03:00,0,G33,Bedford-Nostrand Avs,-73.953522,40.689627,1750.8683598939963
12:03:00,0,G34,Classon Av,-73.96007,40.688873,1834.4789368170732
12:03:00,0,G35,Clinton-Washington Avs,-73.966839,40.688089,1915.9913002443302
12:03:00,0,G36,Fulton St,-73.975375,40.687119,1884.3919671138785
12:33:00,0,H01,Aqueduct Racetrack,-73.834058,40.668234,3170.022168285367
13:18:00,0,H02,Aqueduct-N Conduit Av,-73.834058,40.668234,3234.502184729457
13:18:00,0,H03,Howard Beach-JFK Airport,-73.830301,40.660476,3347.7686793440093
13:18:00,0,H04,Broad Channel,-73.815925,40.608382,3813.1502360275963
13:18:00,0,H06,Beach 67 St,-73.796924,40.590927,4142.116747655503
13:18:00,0,H07,Beach 60 St,-73.788522,40.592374,4267.973494420753
13:18:00,0,H08,Beach 44 St,-73.776013,40.592943,4377.649720137682
13:18:00,0,H09,Beach 36 St,-73.768175,40.595398,4478.921942359904
13:18:00,0,H10,Beach 25 St,-73.761353,40.600066,4579.3624628060015
13:18:00,0,H11,Far Rockaway-Mott Av,-73.755405,40.603995,4669.662049582861
13:48:00,0,H12,Beach 90 St,-73.813641,40.588034,4083.2073788847397
13:48:00,0,H13,Beach 98 St,-73.820558,40.585307,4183.311152469645
13:48:00,0,H14,Beach 105 St,-73.827559,40.583209,4272.987342945836
13:48:00,0,H15,Rockaway Park-Beach 116 St,-73.835592,40.580903,4376.5367934952865
13:53:00,0,J12,121 St,-73.828294,40.700492,2285.897461734422
13:53:00,0,J13,111 St,-73.836345,40.697418,2309.3126641963418
13:53:00,0,J14,104 St,-73.84433,40.695178,2476.617461734422
13:53:00,0,J15,Woodhaven Blvd,-73.851576,40.693879,2596.3126641963418
13:53:00,0,J16,85 St-Forest Pkwy,-73.86001,40.692435,2878.01829244383
13:53:00,0,J17,75 St-Elderts Ln,-73.867139,40.691324,2761.489325459467
13:53:00,0,J19,Cypress Hills,-73.87255,40.689941,2786.2521735476475
13:53:00,0,J20,Crescent St,-73.873785,40.683194,2611.489325459467
12:03:00,2,J21,Norwood Av,-73.880039,40.68141,2521.489325459467
12:03:00,2,J22,Cleveland St,-73.884639,40.679947,2519.4672312357507
12:03:00,2,J23,Van Siclen Av,-73.891688,40.678024,2371.489325459467
12:03:00,2,J24,Alabama Av,-73.898654,40.676992,2311.489325459467
13:18:00,0,J27,Broadway Junction,-73.904512,40.679498,2211.5114182632838
13:18:00,0,J28,Chauncey St,-73.910456,40.682893,2164.248679878646
13:18:00,0,J29,Halsey St,-73.916559,40.68637,2172.7488931207545
13:18:00,0,J30,Gates Av,-73.92227,40.68963,2011.7526798786457
13:18:00,0,J31,Kosciuszko St,-73.928814,40.693342,1988.1752792140883
12:11:00,1,L01,8 Av,-74.002578,40.739777,792.4802477914109
12:03:00,1,L02,6 Av,-73.996786,40.737335,690.1993534823813
12:03:00,1,L03,14 St-Union Sq,-73.99073,40.734789,780.2030810323643
12:03:00,1,L05,3 Av,-73.986122,40.732849,834.6920235366506
12:03:00,1,L06,1 Av,-73.981628,40.730953,884.3599128330827
12:03:00,1,L08,Bedford Av,-73.956872,40.717304,1088.5734218940383
12:03:00,1,L10,Lorimer St,-73.950275,40.714063,1161.5141171905618
12:03:00,1,L11,Graham Av,-73.944053,40.714565,1202.1758767419112
12:03:00,1,L12,Grand St,-73.94067,40.711926,1290.7681586211058
12:03:00,1,L13,Montrose Av,-73.93985,40.707739,1328.3310389456497
12:03:00,1,L14,Morgan Av,-73.933147,40.706152,1409.3942960115985
12:03:00,1,L15,Jefferson St,-73.922913,40.706607,1516.1709132622725
12:03:00,1,L16,DeKalb Av,-73.918425,40.703811,1580.7738892514508
12:03:00,1,L17,Myrtle-Wyckoff Avs,-73.911586,40.699814,1656.0587253170245
12:03:00,1,L19,Halsey St,-73.904084,40.695602,1713.2444698902366
12:03:00,1,L20,Wilson Av,-73.904046,40.688764,1833.5946243701542
12:03:00,1,L21,Bushwick Av-Aberdeen St,-73.905249,40.682829,1920.216351887365
12:03:00,1,L22,Broadway Junction,-73.90324,40.678856,1986.5114182632838
12:03:00,1,L24,Atlantic Av,-73.903097,40.675345,2082.3975858145236
12:03:00,1,L25,Sutter Av,-73.901975,40.669367,2165.5763706750813
12:03:00,1,L26,Livonia Av,-73.900571,40.664038,2233.142015614321
12:03:00,1,L27,New Lots Av,-73.899232,40.658733,2286.9642300746773
12:03:00,1,L28,East 105 St,-73.899485,40.650573,2397.190651711293
12:03:00,1,L29,Canarsie-Rockaway Pkwy,-73.90185,40.646654,2520.964821177512
12:03:00,2,M01,Middle Village-Metropolitan Av,-73.889601,40.711396,2282.073443623596
12:03:00,2,M04,Fresh Pond Rd,-73.895877,40.706186,2161.491657593534
12:03:00,2,M05,Forest Av,-73.903077,40.704423,2062.515756223077
12:03:00,2,M06,Seneca Av,-73.90774,40.702762,1967.6561193515686
13:18:00,0,M08,Myrtle-Wyckoff Avs,-73.912385,40.69943,1882.5150360660784
12:48:00,0,M09,Knickerbocker Av,-73.919711,40.698664,1982.9114268563708
13:18:00,0,M10,Central Av,-73.927397,40.697857,1990.2691594506132
12:48:00,0,M11,Myrtle Av,-73.935657,40.697207,1826.2406798786456
12:48:00,0,M12,Flushing Av,-73.941126,40.70026,1811.3021956406585
12:48:00,0,M13,Lorimer St,-73.947408,40.703869,1709.9282750879813
12:48:00,0,M14,Hewes St,-73.953431,40.70687,1616.8695531536118
12:48:00,0,M16,Marcy Av,-73.957757,40.708359,1528.937515247196
12:48:00,0,M18,Delancey St-Essex St,-73.987437,40.718315,1144.0494903638366
12:18:00,2,M19,Bowery,-73.993915,40.72028,1261.7084218141295
12:03:00,2,M20,Canal St,-73.999892,40.718092,1164.8816897654956
12:03:00,2,M21,Chambers St,-74.003401,40.713243,1272.331453757404
12:03:00,2,M22,Fulton St,-74.007582,40.710374,1366.2969243058128
12:03:00,2,M23,Broad St,-74.011056,40.706476,1431.2039010499989
13:26:30,0,N02,8 Av,-74.011719,40.635064,2560.8048714435104
13:26:30,0,N03,Fort Hamilton Pkwy,-74.005351,40.631386,2658.0270376003614
13:26:30,0,N04,New Utrecht Av,-73.996353,40.624842,2775.138586156792
13:26:30,0,N05,18 Av,-73.990414,40.620671,2871.1088635676247
13:26:30,0,N06,20 Av,-73.985026,40.61741,2958.545371504132
13:26:30,0,N07,Bay Pkwy,-73.981848,40.611815,3056.31689468294
13:26:30,0,N08,Kings Hwy,-73.980353,40.603923,3183.8212251293094
13:26:30,0,N09,Avenue U,-73.979137,40.597473,3299.5134814710987
13:26:30,0,N10,86 St,-73.97823,40.592721,3439.67999941244
12:11:00,1,Q01,Canal St,-74.00046,40.718383,939.1605367446369
12:45:00,0,Q03,72 St,-73.958424,40.768799,640.4378663540446
12:45:00,0,Q04,86 St,-73.951787,40.777891,765.4773013157868
12:45:00,0,Q05,96 St,-73.947152,40.784318,858.4757652174765
12:08:30,1,R01,Astoria-Ditmars Blvd,-73.912034,40.775036,1504.932062475854
12:08:30,1,R03,Astoria Blvd,-73.917843,40.770258,1408.6367158471742
12:08:30,1,R04,30 Av,-73.921479,40.766779,1301.9397760643508
12:08:30,1,R05,Broadway,-73.925508,40.76182,1196.578461942447
12:08:30,1,R06,36 Av,-73.929575,40.756804,1056.5050564069477
12:08:30,1,R08,39 Av-Dutch Kills,-73.932755,40.752882,969.3902822921735
12:08:30,1,R09,Queensboro Plaza,-73.940202,40.750582,759.057348160437
12:08:30,0,R11,Lexington Av/59 St,-73.967258,40.76266,499.9090898036957
12:08:30,0,R13,5 Av/59 St,-73.973347,40.764811,597.6830272614887
12:08:30,0,R14,57 St-7 Av,-73.980658,40.764664,688.5833333333334
12:08:30,0,R15,49 St,-73.984139,40.759901,692.7553052266954
12:56:00,0,R16,Times Sq-42 St,-73.986754,40.754672,597.0217414101563
12:56:00,0,R17,34 St-Herald Sq,-73.98795,40.749567,494.0419915590545
12:25:30,1,R18,28 St,-73.988691,40.745494,573.3505021973524
12:25:30,1,R19,23 St,-73.989344,40.741303,656.2446433424923
12:11:00,1,R20,14 St-Union Sq,-73.990568,40.735736,664.1659486508305
12:25:30,1,R21,8 St-NYU,-73.992629,40.730328,858.9727526196083
12:25:30,1,R22,Prince St,-73.997702,40.724329,982.67974186692
12:25:30,1,R23,Canal St,-74.001775,40.719527,1095.8931112119571
12:25:30,1,R24,City Hall,-74.006978,40.713282,1261.3465442507063
12:25:30,1,R25,Cortlandt St,-74.011029,40.710668,1252.9834617030854
12:25:30,1,R26,Rector St,-74.013342,40.70722,1368.4312847853246
12:25:30,1,R27,Whitehall St-South Ferry,-74.012994,40.703087,1459.5485644522225
12:48:00,1,R28,Court St,-73.991777,40.6941,1572.0
12:03:00,1,R29,Jay St-MetroTech,-73.985942,40.69218,1485.0
12:11:00,0,R30,DeKalb Av,-73.981824,40.690635,1424.0711780372815
12:25:30,0,R31,Atlantic Av-Barclays Ctr,-73.97881,40.683666,1587.1295756718353
12:25:30,0,R32,Union St,-73.98311,40.677316,1751.7461967254956
12:25:30,0,R33,4 Av-9 St,-73.988302,40.670847,1863.801473107405
12:25:30,0,R34,Prospect Av,-73.992872,40.665414,1973.484890192832
12:25:30,0,R35,25 St,-73.998091,40.660397,2064.052264785462
12:25:30,0,R36,36 St,-74.003549,40.655144,1983.9941252505782
12:25:30,0,R39,45 St,-74.010006,40.648939,2220.6141131496715
12:25:30,0,R40,53 St,-74.014034,40.645069,2314.3894754685116
12:25:30,0,R41,59 St,-74.017881,40.641362,2364.5548714435104
12:25:30,0,R42,Bay Ridge Av,-74.023377,40.634967,2529.0291202297185
12:25:30,0,R43,77 St,-74.02551,40.629742,2611.637787334118
12:25:30,0,R44,86 St,-74.028398,40.622687,2796.0897224152664
12:25:30,0,R45,Bay Ridge-95 St,-74.030876,40.616622,2864.671461545701
12:11:00,0,S01,Franklin Av,-73.955827,40.680596,1994.26961658524
12:11:00,0,S03,Park Pl,-73.957624,40.674772,2110.6098943630177
12:11:00,0,S04,Botanic Garden,-73.959245,40.670343,2235.1856958446197
