start_time,ntransfers,stop_id,stop_name,stop_lon,stop_lat,duration
12:04:30,1,101,Van Cortlandt Park-242 St,-73.898583,40.889248,4446.261697570247
12:04:30,1,103,238 St,-73.90087,40.884667,4339.510949387263
12:04:30,1,104,231 St,-73.904834,40.878856,4244.675843004285
12:04:30,1,106,Marble Hill-225 St,-73.909831,40.874561,4151.203976492837
12:04:30,1,107,215 St,-73.915279,40.869444,4043.0794130469694
12:04:30,1,108,207 St,-73.918822,40.864621,3964.0946177253313
12:04:30,1,109,Dyckman St,-73.925536,40.860531,3866.0579906678404
12:04:30,1,110,191 St,-73.929412,40.855225,3775.8389430487923
12:04:30,1,111,181 St,-73.933596,40.849505,3680.594354304204
12:04:30,1,112,168 St-Washington Hts,-73.940133,40.840556,3559.7440289245947
12:04:30,1,113,157 St,-73.94489,40.834041,3554.700640163967
12:04:30,1,114,145 St,-73.95036,40.826551,3439.035992825153
12:04:30,1,115,137 St-City College,-73.953676,40.822008,3337.993209765516
12:04:30,1,116,125 St,-73.958372,40.815581,3239.2320778470807
12:04:30,1,117,116 St-Columbia University,-73.96411,40.807722,3121.076008482919
12:04:30,1,118,Cathedral Pkwy (110 St),-73.966847,40.803967,3043.045195007159
12:04:30,1,119,103 St,-73.968379,40.799446,2963.727013188977
13:34:30,1,120,96 St,-73.972323,40.793919,2663.650067851703
13:34:30,1,121,86 St,-73.976218,40.788644,2749.587411315441
13:34:30,1,122,79 St,-73.979917,40.783934,2667.755123243299
13:34:30,1,123,72 St,-73.98197,40.778453,2471.7877667501116
13:14:30,1,124,66 St-Lincoln Center,-73.982209,40.77344,2525.131904308924
13:44:30,1,125,59 St-Columbus Circle,-73.981929,40.768247,2444.0339339732486
13:44:30,1,126,50 St,-73.983849,40.761728,2335.4064829928566
12:04:30,1,127,Times Sq-42 St,-73.987495,40.75529,2223.2093883717334
12:04:30,1,128,34 St-Penn Station,-73.991057,40.750373,2254.077157033198
12:04:30,1,129,28 St,-73.993365,40.747215,2412.361608577297
12:04:30,1,130,23 St,-73.995657,40.744081,2386.364149192919
12:04:30,1,131,18 St,-73.997871,40.74104,2317.923635973634
12:04:30,1,132,14 St,-74.000201,40.737826,2076.536323223946
12:44:30,1,133,Christopher St-Sheridan Sq,-74.002906,40.733422,2325.9947036896388
12:44:30,1,134,Houston St,-74.005367,40.728251,2245.995110193704
12:44:30,1,135,Canal St,-74.006277,40.722854,2156.237497526225
12:44:30,1,136,Franklin St,-74.006886,40.719318,2091.082248235589
12:04:30,1,137,Chambers St,-74.009266,40.715478,1809.3955909585002
12:24:30,1,138,WTC Cortlandt,-74.012188,40.711835,1949.8031775503855
12:24:30,1,139,Rector St,-74.013783,40.707513,1870.5046106714046
12:24:30,1,142,South Ferry,-74.013664,40.702068,1765.7841892775634
13:44:30,1,201,Wakefield-241 St,-73.85062,40.903125,5401.770240973363
13:44:30,1,204,Nereid Av,-73.854376,40.898379,5173.5061926349945
13:44:30,1,205,233 St,-73.857473,40.893193,5041.5061926349945
13:44:30,1,206,225 St,-73.860341,40.888022,4945.5061926349945
13:44:30,1,207,219 St,-73.862633,40.883895,4863.506192634995
13:44:30,1,208,Gun Hill Rd,-73.866256,40.87785,4755.0061926349945
13:44:30,1,209,Burke Av,-73.867164,40.871356,4828.715093489353
13:44:30,1,210,Allerton Av,-73.867352,40.865462,4738.289806133032
13:44:30,1,211,Pelham Pkwy,-73.867615,40.857192,4626.38176015602
13:44:30,1,212,Bronx Park East,-73.868457,40.848828,4499.23176015602
13:44:30,1,213,E 180 St,-73.873488,40.841894,4295.634194886039
12:24:30,1,214,West Farms Sq-E Tremont Av,-73.880049,40.840295,4211.518893591466
12:24:30,1,215,174 St,-73.887734,40.837288,4085.4795294733735
12:24:30,1,216,Freeman St,-73.891865,40.829993,3962.9716406679645
12:24:30,1,217,Simpson St,-73.893064,40.824073,3849.7589541008
13:44:30,1,218,Intervale Av,-73.896736,40.822181,3775.094519576991
13:44:30,1,219,Prospect Av,-73.90177,40.819585,3691.5291406765446
12:24:30,1,220,Jackson Av,-73.907807,40.81649,3591.802607047572
13:44:30,1,221,3 Av-149 St,-73.917757,40.816109,3452.831199422939
12:24:30,1,222,149 St-Grand Concourse,-73.926718,40.81841,3321.1717506040413
13:34:30,1,224,135 St,-73.94077,40.814229,3217.672094178531
13:34:30,1,225,125 St,-73.945495,40.807754,3107.624962374929
13:34:30,1,226,116 St,-73.949625,40.802098,3007.766937683571
13:34:30,1,227,Central Park North (110 St),-73.951822,40.799075,2928.8851079504075
12:04:30,1,228,Park Place,-74.008811,40.713051,1718.7180349996374
12:04:30,1,229,Fulton St,-74.006571,40.709416,1601.229593980076
12:04:30,1,230,Wall St,-74.0091,40.706821,1525.656372222754
12:04:30,1,231,Clark St,-73.993086,40.697466,1332.6717295765638
12:04:30,1,232,Borough Hall,-73.989998,40.693219,1216.4462278056076
12:04:30,1,233,Hoyt St,-73.985065,40.690545,1128.6883330687654
12:24:30,1,234,Nevins St,-73.980492,40.688246,1031.655038676242
12:04:30,1,235,Atlantic Av-Barclays Ctr,-73.977666,40.684359,947.8209319477037
12:34:30,1,236,Bergen St,-73.975098,40.680829,1026.8431411820695
12:34:30,1,237,Grand Army Plaza,-73.971046,40.675235,1141.8256075759912
12:34:30,1,238,Eastern Pkwy-Brooklyn Museum,-73.964375,40.671987,1249.572102903094
12:04:30,1,239,Franklin Av-Medgar Evers College,-73.958131,40.670682,1311.004472747084
12:04:30,1,241,President St-Medgar Evers College,-73.950683,40.667883,1510.4542046505692
12:04:30,1,242,Sterling St,-73.95085,40.662742,1605.2857482747302
12:04:30,1,243,Winthrop St,-73.9502,40.656652,1698.8908523714392
12:04:30,1,244,Church Av,-73.949575,40.650843,1782.9334487203237
12:04:30,1,245,Beverly Rd,-73.948959,40.645098,1864.4724010579987
12:04:30,1,246,Newkirk Av-Little Haiti,-73.948411,40.639967,1951.660914571512
12:04:30,1,247,Flatbush Av-Brooklyn College,-73.947642,40.632836,2098.9940318612394
12:04:30,1,248,Nostrand Av,-73.950466,40.669847,1471.3869162459741
12:04:30,1,249,Kingston Av,-73.942161,40.669399,1559.9086553764091
12:24:30,1,250,Crown Hts-Utica Av,-73.932942,40.668897,1586.6438332420216
12:04:30,1,251,Sutter Av-Rutland Rd,-73.92261,40.664717,1729.7688332420216
12:04:30,1,252,Saratoga Av,-73.916327,40.661453,1844.6229999086884
12:04:30,1,253,Rockaway Av,-73.908946,40.662549,1933.227166575355
12:04:30,1,254,Junius St,-73.902447,40.663515,2020.7688332420216
12:04:30,1,255,Pennsylvania Av,-73.894895,40.664635,2126.8104999086886
12:04:30,1,256,Van Siclen Av,-73.889395,40.665449,2206.143833242022
12:04:30,1,257,New Lots Av,-73.884079,40.666235,2277.400976099165
12:24:30,1,301,Harlem-148 St,-73.93647,40.82388,3499.5659182621193
12:24:30,1,302,145 St,-73.936245,40.820421,3360.3825252578454
12:04:30,1,401,Woodlawn,-73.878751,40.886037,4603.75371835851
12:04:30,1,402,Mosholu Pkwy,-73.884655,40.87975,4481.346747091436
12:04:30,1,405,Bedford Park Blvd-Lehman College,-73.890064,40.873412,4358.288413758102
12:04:30,1,406,Kingsbridge Rd,-73.897174,40.86776,4248.488321421999
12:04:30,1,407,Fordham Rd,-73.901034,40.862803,4160.3654991223475
12:04:30,1,408,183 St,-73.903879,40.858407,4076.0700544368815
12:04:30,1,409,Burnside Av,-73.907684,40.853453,3976.747347013301
12:04:30,1,410,176 St,-73.911794,40.84848,3885.678638041747
12:04:30,1,411,Mt Eden Av,-73.914685,40.844434,3805.3244805406475
12:04:30,1,412,170 St,-73.917791,40.840075,3723.320946971743
12:04:30,1,413,167 St,-73.9214,40.835537,3631.480752195293
12:04:30,1,414,161 St-Yankee Stadium,-73.925831,40.827994,3485.1783796050745
12:04:30,1,415,149 St-Grand Concourse,-73.927351,40.818375,3304.906349286371
12:24:30,1,416,138 St-Grand Concourse,-73.929849,40.813224,3137.3353389945423
12:24:30,1,418,Fulton St,-74.009509,40.710368,1639.7544615098832
12:24:30,1,419,Wall St,-74.011862,40.707557,1559.9403022178476
12:24:30,1,420,Bowling Green,-74.014065,40.704817,1480.5793361604065
12:24:30,1,423,Borough Hall,-73.990151,40.692404,1196.8840456819335
13:44:30,1,501,Eastchester-Dyre Av,-73.830834,40.8883,5018.889563233185
13:44:30,1,502,Baychester Av,-73.838591,40.878663,4888.215638051723
13:44:30,1,503,Gun Hill Rd,-73.846384,40.869526,4745.634194886039
13:44:30,1,504,Pelham Pkwy,-73.855359,40.858985,4595.634194886039
13:44:30,1,505,Morris Park,-73.860495,40.854364,4505.634194886039
13:24:30,1,601,Pelham Bay Park,-73.828121,40.852462,4746.778963494088
13:24:30,1,602,Buhre Av,-73.832569,40.84681,4569.515805599352
13:24:30,1,603,Middletown Rd,-73.836322,40.843863,4499.222702151076
13:24:30,1,604,Westchester Sq-E Tremont Av,-73.842952,40.839892,4367.046231562841
13:24:30,1,606,Zerega Av,-73.847036,40.836488,4279.996231562841
13:24:30,1,607,Castle Hill Av,-73.851222,40.834255,4210.750329923496
12:44:30,1,608,Parkchester,-73.860816,40.833226,4025.3365368200484
12:44:30,1,609,St Lawrence Av,-73.867618,40.831509,4269.1968694828465
12:44:30,1,610,Morrison Av-Soundview,-73.874516,40.829521,4168.045825502393
12:44:30,1,611,Elder Av,-73.879159,40.828584,4095.3204210424024
12:44:30,1,612,Whitlock Av,-73.886283,40.826525,3982.6156591376403
12:44:30,1,613,Hunts Point Av,-73.890549,40.820948,3752.936536820048
12:04:30,1,614,Longwood Av,-73.896435,40.816104,3875.4864811335965
12:04:30,1,615,E 149 St,-73.904098,40.812118,3772.7156990381714
12:04:30,1,616,E 143 St-St Mary's St,-73.907657,40.808719,3696.0416029509997
12:04:30,1,617,Cypress Av,-73.914042,40.805368,3584.626652744146
12:04:30,1,618,Brook Av,-73.91924,40.807566,3509.0077036336784
12:04:30,1,619,3 Av-138 St,-73.926138,40.810476,3385.2911467491263
12:24:30,1,621,125 St,-73.937594,40.804138,2954.351764750127
12:24:30,1,622,116 St,-73.941617,40.798629,3084.8852894038264
12:04:30,1,623,110 St,-73.94425,40.79502,3004.3349538333564
12:04:30,1,624,103 St,-73.947478,40.7906,2925.295218734019
12:04:30,1,625,96 St,-73.95107,40.785672,2835.5254818919134
12:24:30,1,626,86 St,-73.955589,40.779492,2646.0312185862776
12:04:30,1,627,77 St,-73.959874,40.77362,2633.3764237922087
12:04:30,1,628,68 St-Hunter College,-73.96387,40.768141,2539.83925594828
12:24:30,1,629,59 St,-73.967967,40.762526,2434.488954541716
12:04:30,1,630,51 St,-73.97192,40.757107,2330.185068789474
12:24:30,1,631,Grand Central-42 St,-73.976848,40.751776,2209.762531026339
12:14:30,1,632,33 St,-73.982076,40.746081,2090.6970548358627
12:14:30,1,633,28 St,-73.984264,40.74307,2022.9946738834817
12:14:30,1,634,23 St,-73.986599,40.739864,1956.6928987355525
12:24:30,1,635,14 St-Union Sq,-73.989951,40.734673,1822.9268168642075
12:14:30,1,636,Astor Pl,-73.99107,40.730054,1742.38328116635
12:04:30,1,637,Bleecker St,-73.994659,40.725915,1646.5440539233898
12:04:30,1,638,Spring St,-73.997141,40.722301,1717.0698271192662
12:04:30,1,639,Canal St,-74.000193,40.718803,1680.479113144397
12:24:30,1,640,Brooklyn Bridge-City Hall,-74.004131,40.713065,1758.4169141015395
12:34:30,1,701,Flushing-Main St,-73.83003,40.7596,3848.5526039386027
12:34:30,1,702,Mets-Willets Point,-73.845625,40.754622,3668.6770946551987
12:34:30,1,705,111 St,-73.855334,40.75173,3701.1273470544297
12:34:30,1,706,103 St-Corona Plaza,-73.8627,40.749865,3622.21997720994
12:34:30,1,707,Junction Blvd,-73.869527,40.749145,3421.534237512342
12:34:30,1,708,90 St-Elmhurst Av,-73.876613,40.748408,3521.294571101091
12:34:30,1,709,82 St-Jackson Hts,-73.883697,40.747659,3433.6270056157296
12:04:30,1,710,74 St-Broadway,-73.891394,40.746848,3272.7895281382516
12:04:30,1,711,69 St,-73.896403,40.746325,3203.853041651765
12:04:30,1,712,61 St-Woodside,-73.902984,40.74563,3121.9335191257733
12:04:30,1,713,52 St,-73.912549,40.744149,3025.7504088967626
12:04:30,1,714,46 St-Bliss St,-73.918435,40.743132,2966.6137636203944
12:04:30,1,715,40 St-Lowery St,-73.924016,40.743781,2898.4995089958024
12:04:30,1,716,33 St-Rawson St,-73.930997,40.744587,2819.755569601863
12:04:30,1,718,Queensboro Plaza,-73.940202,40.750582,2635.4816059333943
12:04:30,1,719,Court Sq,-73.945264,40.747023,2540.3452422970304
12:04:30,1,720,Hunters Point Av,-73.948916,40.742216,2445.2582857752914
12:04:30,1,721,Vernon Blvd-Jackson Av,-73.953581,40.742626,2410.545454006497
12:04:30,1,723,Grand Central-42 St,-73.976041,40.751431,2194.914581523275
12:04:30,1,724,5 Av,-73.981963,40.753821,2124.5962811132868
12:04:30,1,725,Times Sq-42 St,-73.987691,40.755477,2182.4611459781513
12:04:30,1,726,34 St-Hudson Yards,-74.00191,40.755882,2313.8611459781514
13:34:30,1,901,Grand Central-42 St,-73.979189,40.752769,2254.914581523275
13:34:30,1,902,Times Sq-42 St,-73.986229,40.755983,2163.2093883717334
13:14:30,0,A02,Inwood-207 St,-73.919899,40.868072,3904.6376294935026
13:14:30,0,A03,Dyckman St,-73.927271,40.865491,3804.8988026778607
13:14:30,0,A05,190 St,-73.93418,40.859022,3674.518791694884
13:14:30,0,A06,181 St,-73.937969,40.851695,3561.6338798006104
13:14:30,0,A07,175 St,-73.939704,40.847391,3468.8488742879317
13:14:30,0,A09,168 St,-73.939561,40.840719,3334.25489771236
12:04:30,0,A10,163 St-Amsterdam Av,-73.939892,40.836013,3288.2305563342907
12:04:30,0,A11,155 St,-73.941514,40.830518,3203.3607293967434
12:04:30,0,A12,145 St,-73.944216,40.824783,3074.9502651373477
12:04:30,0,A14,135 St,-73.947649,40.817894,2959.977897698961
13:04:30,0,A15,125 St,-73.952343,40.811109,2794.541974512843
12:04:30,0,A16,116 St,-73.954882,40.805085,2932.4803951377007
13:14:30,0,A17,Cathedral Pkwy (110 St),-73.958161,40.800603,3013.5931884760807
13:14:30,0,A18,103 St,-73.961454,40.796092,2934.707677693731
13:14:30,0,A19,96 St,-73.964696,40.791642,2845.541011027064
13:14:30,0,A20,86 St,-73.968916,40.785868,2743.7991337707463
13:14:30,0,A21,81 St-Museum of Natural History,-73.972143,40.781433,2644.52155691722
13:14:30,0,A22,72 St,-73.97641,40.775594,2552.198507915405
13:04:30,0,A24,59 St-Columbus Circle,-73.981736,40.768296,2293.904568953553
13:04:30,0,A25,50 St,-73.985984,40.762456,2325.892556688565
13:04:30,0,A27,42 St-Port Authority Bus Terminal,-73.989735,40.757308,2208.637038538465
12:14:30,1,A28,34 St-Penn Station,-73.993391,40.752287,2106.8407727504364
12:44:30,1,A30,23 St,-73.998041,40.745906,2042.161323735292
13:24:30,1,A31,14 St,-74.00169,40.740893,1943.884313174772
13:24:30,1,A32,W 4 St-Wash Sq,-74.000495,40.732338,1823.3372637329858
13:14:30,1,A33,Spring St,-74.003739,40.726227,1930.460377315194
13:24:30,1,A34,Canal St,-74.005229,40.720824,1870.5225914201105
13:24:30,1,A36,Chambers St,-74.008585,40.714111,1737.2009110769254
13:24:30,1,A38,Fulton St,-74.007691,40.710197,1636.6719595902275
13:24:30,1,A40,High St,-73.990531,40.699337,1452.8505867353133
13:54:30,1,A41,Jay St-MetroTech,-73.987342,40.692338,1309.1937747228228
13:34:30,1,A42,Hoyt-Schermerhorn Sts,-73.985001,40.688484,1270.901942775871
12:24:30,1,A43,Lafayette Av,-73.973946,40.686113,1584.7724578387852
13:34:30,1,A44,Clinton-Washington Avs,-73.965838,40.683263,1669.7724578387852
13:34:30,1,A45,Franklin Av,-73.956848,40.68138,1775.4914330189292
13:34:30,1,A46,Nostrand Av,-73.950426,40.680438,1722.6781039208927
12:24:30,1,A47,Kingston-Throop Avs,-73.940858,40.679921,1827.6575156855986
13:34:30,1,A48,Utica Av,-73.930729,40.679364,1898.1337857390745
12:24:30,1,A49,Ralph Av,-73.920786,40.678822,2007.8088646034278
12:24:30,1,A50,Rockaway Av,-73.911946,40.67834,2109.527130857298
13:34:30,1,A51,Broadway Junction,-73.905316,40.678334,2132.8291912977816
13:34:30,1,A52,Liberty Av,-73.896548,40.674542,2255.7776761462665
13:34:30,1,A53,Van Siclen Av,-73.890358,40.67271,2342.38127974987
13:34:30,1,A54,Shepherd Av,-73.88075,40.67413,2451.0400334590686
13:34:30,1,A55,Euclid Av,-73.872106,40.675377,2487.8020726537134
13:34:30,1,A57,Grant Av,-73.86505,40.677044,2592.575887993235
13:34:30,1,A59,80 St,-73.858992,40.679371,2706.738612685761
13:34:30,1,A60,88 St,-73.85147,40.679843,2799.511101976575
13:34:30,1,A61,Rockaway Blvd,-73.843853,40.680429,2910.51594224763
13:24:30,1,A63,104 St,-73.837683,40.681711,3003.3322687782425
13:24:30,1,A64,111 St,-73.832163,40.684331,3115.3684723007473
13:24:30,1,A65,Ozone Park-Lefferts Blvd,-73.825798,40.685951,3185.4778197434275
12:34:30,0,B04,21 St-Queensbridge,-73.942836,40.754203,2724.5962811132868
12:34:30,0,B06,Roosevelt Island,-73.95326,40.759145,2565.4596465497075
12:34:30,0,B08,Lexington Av/63 St,-73.966113,40.764629,2454.5962811132868
12:34:30,0,B10,57 St,-73.97745,40.763972,2303.708410964864
12:00:00,0,B12,9 Av,-73.994324,40.646292,0.0
12:00:00,0,B13,Fort Hamilton Pkwy,-73.994304,40.640914,101.81489361702128
12:00:00,0,B14,50 St,-73.994791,40.63626,182.57483679883947
12:00:00,0,B15,55 St,-73.995476,40.631435,285.6032863009732
12:00:00,0,B16,62 St,-73.996895,40.626472,350.55166842732143
12:00:00,0,B17,71 St,-73.998864,40.619589,453.44895801362674
12:00:00,0,B18,79 St,-74.00061,40.613501,557.8997426070647
12:00:00,0,B19,18 Av,-74.001736,40.607954,642.3833140356361
12:00:00,0,B20,20 Av,-73.998168,40.604556,727.5948937354217
12:00:00,0,B21,Bay Pkwy,-73.993728,40.601875,808.7528262551633
12:00:00,0,B22,25 Av,-73.986829,40.597704,935.5589779003707
12:00:00,0,B23,Bay 50 St,-73.983765,40.588841,1160.4666424407974
12:04:30,0,D01,Norwood-205 St,-73.878855,40.874811,4218.431757608326
12:04:30,0,D03,Bedford Park Blvd,-73.887138,40.873244,4049.732003286185
12:04:30,0,D04,Kingsbridge Rd,-73.893509,40.866978,3931.191618670801
12:04:30,0,D05,Fordham Rd,-73.897749,40.861296,3831.0587327647604
12:04:30,0,D06,182-183 Sts,-73.900741,40.856093,3745.8859454845438
13:04:30,0,D07,Tremont Av,-73.905227,40.85041,3662.2855720018174
13:04:30,0,D08,174-175 Sts,-73.910136,40.8459,3635.3672981455693
13:04:30,0,D09,170 St,-73.9134,40.839306,3529.8234886217597
13:04:30,0,D10,167 St,-73.91844,40.833771,3423.680631478903
13:04:30,0,D11,161 St-Yankee Stadium,-73.925651,40.827905,3308.7818260438735
13:04:30,0,D12,155 St,-73.938209,40.830135,3175.3064498468834
13:04:30,0,D13,145 St,-73.944216,40.824783,3015.669794061715
13:04:30,0,D14,7 Av,-73.981637,40.762862,2123.965397830558
12:04:30,0,D15,47-50 Sts-Rockefeller Ctr,-73.981329,40.758663,2008.3856780173492
12:04:30,0,D16,42 St-Bryant Pk,-73.984569,40.754222,1896.1240578314262
12:04:30,0,D17,34 St-Herald Sq,-73.987823,40.749719,1809.6664194058092
13:14:30,0,D18,23 St,-73.992821,40.742878,2025.549833421214
13:14:30,0,D19,14 St,-73.996209,40.738228,1922.0535767928632
12:04:30,0,D20,W 4 St-Wash Sq,-74.000495,40.732338,1583.3372637329858
12:04:30,0,D21,Broadway-Lafayette St,-73.996204,40.725297,1434.315481554768
12:04:30,0,D22,Grand St,-73.993753,40.718267,1297.6289341723955
12:44:30,0,D24,Atlantic Av-Barclays Ctr,-73.97689,40.68446,1063.8407385790085
12:24:30,1,D25,7 Av,-73.972367,40.67705,1212.9564198129417
12:44:30,0,D26,Prospect Park,-73.962246,40.661614,1420.534819292447
12:44:30,0,D27,Parkside Av,-73.961495,40.655292,1516.4064022549392
12:44:30,0,D28,Church Av,-73.962982,40.650527,1631.7200904678668
12:44:30,0,D29,Beverley Rd,-73.964492,40.644031,1695.1260310619264
12:44:30,0,D30,Cortelyou Rd,-73.963891,40.640927,1773.2630610173119
12:44:30,0,D31,Newkirk Plaza,-73.962793,40.635082,1854.1545680775014
12:04:30,0,D32,Avenue H,-73.961639,40.62927,1967.4793471214152
12:04:30,0,D33,Avenue J,-73.960803,40.625039,2064.3638884940897
12:04:30,0,D34,Avenue M,-73.959399,40.617618,2175.170237700439
12:04:30,0,D35,Kings Hwy,-73.957734,40.60867,2119.5499403109015
12:24:30,0,D37,Avenue U,-73.955929,40.5993,2099.633010841709
12:00:00,0,D38,Neck Rd,-73.955161,40.595246,1995.5352535099096
12:00:00,0,D39,Sheepshead Bay,-73.954155,40.586896,1860.3034353280914
12:00:00,0,D40,Brighton Beach,-73.961376,40.577621,1718.144203255816
12:00:00,0,D41,Ocean Pkwy,-73.968501,40.576312,1626.6100856087571
12:20:00,0,D42,W 8 St-NY Aquarium,-73.975939,40.576127,1488.1372384412616
12:00:00,0,D43,Coney Island-Stillwell Av,-73.981233,40.577422,1363.2944477435872
13:54:30,1,E01,World Trade Center,-74.009781,40.712582,1862.8261742193524
12:14:30,0,F01,Jamaica-179 St,-73.783817,40.712646,4284.596281113287
12:34:30,0,F02,169 St,-73.793604,40.71047,4194.596281113287
12:34:30,0,F03,Parsons Blvd,-73.803326,40.707564,4074.5962811132868
12:34:30,0,F04,Sutphin Blvd,-73.810708,40.70546,3984.5962811132868
12:34:30,0,F05,Briarwood,-73.820574,40.709179,3864.5962811132868
13:14:30,0,F06,Kew Gardens-Union Tpke,-73.831008,40.714441,3744.5962811132868
12:34:30,0,F07,75 Av,-73.837324,40.718331,3654.5962811132868
12:24:30,0,F09,Court Sq-23 St,-73.946,40.747846,2604.624950157347
12:24:30,0,F11,Lexington Av/53 St,-73.969055,40.757552,2469.6058389060736
12:24:30,0,F12,5 Av/53 St,-73.975224,40.760167,2370.4221654366856
13:54:30,0,F14,2 Av,-73.989938,40.723402,1764.7326244119108
13:54:30,0,F15,Delancey St-Essex St,-73.988114,40.718611,1672.6142677471007
12:34:30,1,F16,East Broadway,-73.990173,40.713715,1581.4837211955937
12:34:30,1,F18,York St,-73.986751,40.701397,1416.2218164336894
12:44:30,1,F20,Bergen St,-73.990862,40.686145,1158.0644024180792
12:44:30,1,F21,Carroll St,-73.995048,40.680303,1046.6037296126246
13:34:30,1,F22,Smith-9 Sts,-73.995959,40.67358,902.515537388172
13:24:30,1,F23,4 Av-9 St,-73.989779,40.670272,819.1488707215053
12:44:30,1,F24,7 Av,-73.980305,40.666271,930.0829495914288
12:44:30,1,F25,15 St-Prospect Park,-73.979493,40.660365,1044.28732053059
12:44:30,1,F26,Fort Hamilton Pkwy,-73.975776,40.650782,1217.0598323789313
12:44:30,1,F27,Church Av,-73.979678,40.644041,1218.2480885513135
13:34:30,1,F29,Ditmas Av,-73.978172,40.636119,1338.2480885513135
13:34:30,1,F30,18 Av,-73.976971,40.629755,1458.2480885513135
13:34:30,1,F31,Avenue I,-73.976127,40.625322,1518.2480885513135
12:04:30,1,F32,Bay Pkwy,-73.975264,40.620769,1578.2480885513135
12:04:30,1,F33,Avenue N,-73.974197,40.61514,1698.2480885513135
12:20:00,0,F34,Avenue P,-73.973022,40.608944,1788.2480885513135
12:20:00,0,F35,Kings Hwy,-73.972361,40.603217,1957.5291570762845
12:20:00,0,F36,Avenue U,-73.973357,40.596063,1863.4858237791486
12:20:00,0,F38,Avenue X,-73.97425,40.58962,1738.2944477435872
12:20:00,0,F39,Neptune Av,-73.974574,40.581011,1603.2944477435872
13:14:30,0,G05,Jamaica Center-Parsons/Archer,-73.801109,40.702147,3709.568321317923
13:14:30,0,G06,Sutphin Blvd-Archer Av-JFK Airport,-73.807969,40.700486,3649.568321317923
13:14:30,0,G07,Jamaica-Van Wyck,-73.816859,40.702566,4015.7225306842834
13:14:30,0,G08,Forest Hills-71 Av,-73.844521,40.721691,3534.5962811132868
13:14:30,0,G09,67 Av,-73.852719,40.726523,3670.1469087283494
13:14:30,0,G10,63 Dr-Rego Park,-73.861604,40.729846,3689.724752350972
13:14:30,0,G11,Woodhaven Blvd,-73.869229,40.733106,3577.5992910963596
13:14:30,0,G12,Grand Av-Newtown,-73.877223,40.737015,3459.4961603412953
13:14:30,0,G13,Elmhurst Av,-73.882017,40.742454,3353.905000120301
13:14:30,0,G14,Jackson Hts-Roosevelt Av,-73.891338,40.746644,3114.5962811132868
13:14:30,0,G15,65 St,-73.898453,40.749669,3294.6375737634908
12:24:30,0,G16,Northern Blvd,-73.906006,40.752885,3200.307676856274
12:24:30,0,G18,46 St,-73.913333,40.756312,3110.307676856274
12:24:30,0,G19,Steinway St,-73.92074,40.756879,2993.400460361429
12:24:30,0,G20,36 St,-73.928781,40.752039,2873.400460361429
12:24:30,0,G21,Queens Plaza,-73.937243,40.748973,2727.9922970961225
12:04:30,1,G22,Court Sq,-73.943832,40.746554,2530.0335795408855
12:04:30,1,G24,21 St,-73.949724,40.744065,2449.8901675486513
12:04:30,1,G26,Greenpoint Av,-73.954449,40.731352,2268.8585908934774
12:04:30,1,G28,Nassau Av,-73.951277,40.724635,2171.3942409833517
12:04:30,1,G29,Metropolitan Av,-73.951418,40.712792,2031.3721514311126
12:04:30,1,G30,Broadway,-73.950308,40.706092,1914.3377708739104
12:04:30,1,G31,Flushing Av,-73.950234,40.700377,1824.3182095223988
12:04:30,1,G32,Myrtle-Willoughby Avs,-73.949046,40.694568,1747.2683578903514
12:04:30,1,G33,Bedford-Nostrand Avs,-73.953522,40.689627,1635.8546265470677
12:04:30,1,G34,Classon Av,-73.96007,40.688873,1557.0905879764493
12:04:30,1,G35,Clinton-Washington Avs,-73.966839,40.688089,1469.3341425568115
12:04:30,1,G36,Fulton St,-73.975375,40.687119,1370.7649790795012
12:34:30,1,H01,Aqueduct Racetrack,-73.834058,40.668234,3146.020910457019
13:34:30,1,H02,Aqueduct-N Conduit Av,-73.834058,40.668234,3094.080827743813
13:34:30,1,H03,Howard Beach-JFK Airport,-73.830301,40.660476,3245.272032332723
13:34:30,1,H04,Broad Channel,-73.815925,40.608382,3730.8645895846316
13:34:30,1,H06,Beach 67 St,-73.796924,40.590927,4027.3228438540814
13:34:30,1,H07,Beach 60 St,-73.788522,40.592374,4135.924766931004
13:34:30,1,H08,Beach 44 St,-73.776013,40.592943,4247.421871178109
13:34:30,1,H09,Beach 36 St,-73.768175,40.595398,4347.603072728496
13:34:30,1,H10,Beach 25 St,-73.761353,40.600066,4457.897133098506
13:34:30,1,H11,Far Rockaway-Mott Av,-73.755405,40.603995,4535.695452426237
13:34:30,1,H12,Beach 90 St,-73.813641,40.588034,4059.2061210563916
13:34:30,1,H13,Beach 98 St,-73.820558,40.585307,4159.309894641297
13:34:30,1,H14,Beach 105 St,-73.827559,40.583209,4248.986085117487
13:34:30,1,H15,Rockaway Park-Beach 116 St,-73.835592,40.580903,4352.535535666938
12:04:30,2,J12,121 St,-73.828294,40.700492,3409.568321317923
13:24:30,2,J13,111 St,-73.836345,40.697418,3570.633421989064
13:24:30,2,J14,104 St,-73.84433,40.695178,3229.568321317923
13:24:30,2,J15,Woodhaven Blvd,-73.851576,40.693879,3139.568321317923
13:24:30,2,J16,85 St-Forest Pkwy,-73.86001,40.692435,3151.9525286294042
13:24:30,2,J17,75 St-Elderts Ln,-73.867139,40.691324,2959.568321317923
13:24:30,2,J19,Cypress Hills,-73.87255,40.689941,2984.331169406103
13:24:30,2,J20,Crescent St,-73.873785,40.683194,2809.568321317923
13:24:30,2,J21,Norwood Av,-73.880039,40.68141,2719.568321317923
13:24:30,2,J22,Cleveland St,-73.884639,40.679947,2717.546227094206
13:24:30,2,J23,Van Siclen Av,-73.891688,40.678024,2569.568321317923
13:24:30,2,J24,Alabama Av,-73.898654,40.676992,2509.568321317923
13:24:30,2,J27,Broadway Junction,-73.904512,40.679498,2419.568321317923
13:24:30,2,J28,Chauncey St,-73.910456,40.682893,2479.568321317923
12:04:30,2,J29,Halsey St,-73.916559,40.68637,2608.923095853732
12:44:30,0,J30,Gates Av,-73.92227,40.68963,2629.568321317923
12:44:30,0,J31,Kosciuszko St,-73.928814,40.693342,2656.7433876010423
12:04:30,1,L01,8 Av,-74.002578,40.739777,2006.3424566067172
12:04:30,1,L02,6 Av,-73.996786,40.737335,2031.8465322554343
12:04:30,1,L03,14 St-Union Sq,-73.99073,40.734789,1941.8428047054513
13:34:30,1,L05,3 Av,-73.986122,40.732849,2016.0026326339753
13:34:30,1,L06,1 Av,-73.981628,40.730953,2053.8373068093574
13:34:30,1,L08,Bedford Av,-73.956872,40.717304,2257.9139025540385
13:34:30,1,L10,Lorimer St,-73.950275,40.714063,2244.5864356127076
13:34:30,1,L11,Graham Av,-73.944053,40.714565,2285.248195164057
13:34:30,1,L12,Grand St,-73.94067,40.711926,2371.7896949544174
13:34:30,1,L13,Montrose Av,-73.93985,40.707739,2411.4033573677953
13:34:30,1,L14,Morgan Av,-73.933147,40.706152,2482.074511174748
13:34:30,1,L15,Jefferson St,-73.922913,40.706607,2567.502760126699
13:34:30,1,L16,DeKalb Av,-73.918425,40.703811,2635.2394114121307
13:34:30,1,L17,Myrtle-Wyckoff Avs,-73.911586,40.699814,2713.9970468801107
12:04:30,2,L19,Halsey St,-73.904084,40.695602,2692.17703208583
13:34:30,2,L20,Wilson Av,-73.904046,40.688764,2561.725300324592
13:34:30,2,L21,Bushwick Av-Aberdeen St,-73.905249,40.682829,2479.81117846078
13:34:30,2,L22,Broadway Junction,-73.90324,40.678856,2415.1269559901893
13:34:30,2,L24,Atlantic Av,-73.903097,40.675345,2493.674104704315
13:34:30,2,L25,Sutter Av,-73.901975,40.669367,2435.806761175067
13:34:30,2,L26,Livonia Av,-73.900571,40.664038,2359.5188320499287
13:34:30,2,L27,New Lots Av,-73.899232,40.658733,2433.8659362917883
13:34:30,2,L28,East 105 St,-73.899485,40.650573,2544.092357928404
13:34:30,2,L29,Canarsie-Rockaway Pkwy,-73.90185,40.646654,2663.880216125015
13:14:30,0,M01,Middle Village-Metropolitan Av,-73.889601,40.711396,3279.844589369598
12:54:30,0,M04,Fresh Pond Rd,-73.895877,40.706186,3169.98499051573
13:14:30,0,M05,Forest Av,-73.903077,40.704423,3052.3087867474114
12:54:30,0,M06,Seneca Av,-73.90774,40.702762,2957.449149875903
12:54:30,0,M08,Myrtle-Wyckoff Avs,-73.912385,40.69943,2884.842140181645
12:24:30,0,M09,Knickerbocker Av,-73.919711,40.698664,2756.5545448940497
12:54:30,0,M10,Central Av,-73.927397,40.697857,2669.531145031696
12:24:30,0,M11,Myrtle Av,-73.935657,40.697207,2505.502665459728
12:24:30,0,M12,Flushing Av,-73.941126,40.70026,2504.77771735574
12:24:30,0,M13,Lorimer St,-73.947408,40.703869,2413.5391988372216
12:24:30,0,M14,Hewes St,-73.953431,40.70687,2317.8774998804406
12:24:30,0,M16,Marcy Av,-73.957757,40.708359,2222.794917297858
12:24:30,0,M18,Delancey St-Essex St,-73.987437,40.718315,1848.9915839645244
12:04:30,1,M19,Bowery,-73.993915,40.72028,1767.7066377279652
12:14:30,1,M20,Canal St,-73.999892,40.718092,1666.2002661652557
12:14:30,1,M21,Chambers St,-74.003401,40.713243,1773.650030157164
12:14:30,1,M22,Fulton St,-74.007582,40.710374,1867.4972025864433
12:14:30,1,M23,Broad St,-74.011056,40.706476,1932.522477449759
12:04:30,0,N02,8 Av,-74.011719,40.635064,781.4868114212485
13:40:00,1,N03,Fort Hamilton Pkwy,-74.005351,40.631386,698.4243114212485
12:04:30,0,N04,New Utrecht Av,-73.996353,40.624842,575.5516684273215
12:00:00,1,N05,18 Av,-73.990414,40.620671,668.0516684273215
12:00:00,1,N06,20 Av,-73.985026,40.61741,739.8016684273214
12:00:00,1,N07,Bay Pkwy,-73.981848,40.611815,847.2368114212486
12:00:00,1,N08,Kings Hwy,-73.980353,40.603923,963.4503692127861
12:00:00,1,N09,Avenue U,-73.979137,40.597473,1056.339258101675
12:00:00,1,N10,86 St,-73.97823,40.592721,1144.305485271181
13:34:30,0,Q01,Canal St,-74.00046,40.718383,1440.479113144397
13:04:30,0,Q03,72 St,-73.958424,40.768799,2677.082419644602
13:04:30,0,Q04,86 St,-73.951787,40.777891,2820.7767393504537
13:04:30,0,Q05,96 St,-73.947152,40.784318,2902.519540216338
13:54:30,0,R01,Astoria-Ditmars Blvd,-73.912034,40.775036,3378.0180645088208
13:54:30,0,R03,Astoria Blvd,-73.917843,40.770258,3281.722717880141
13:54:30,0,R04,30 Av,-73.921479,40.766779,3175.0257780973175
13:54:30,0,R05,Broadway,-73.925508,40.76182,3079.644825716365
13:54:30,0,R06,36 Av,-73.929575,40.756804,2967.1636004199227
13:54:30,0,R08,39 Av-Dutch Kills,-73.932755,40.752882,2849.618690240282
13:54:30,0,R09,Queensboro Plaza,-73.940202,40.750582,2687.173914120879
13:34:30,0,R11,Lexington Av/59 St,-73.967258,40.76266,2599.7550530126596
13:34:30,0,R13,5 Av/59 St,-73.973347,40.764811,2491.0742158641965
13:34:30,0,R14,57 St-7 Av,-73.980658,40.764664,2341.4851297366486
13:44:30,0,R15,49 St,-73.984139,40.759901,2233.49515129196
13:34:30,0,R16,Times Sq-42 St,-73.986754,40.754672,2103.2093883717334
13:34:30,0,R17,34 St-Herald Sq,-73.98795,40.749567,1989.028982159069
13:34:30,0,R18,28 St,-73.988691,40.745494,2134.2036594809765
12:04:30,0,R19,23 St,-73.989344,40.741303,2056.696013447103
13:34:30,0,R20,14 St-Union Sq,-73.990568,40.735736,1727.8817649238808
12:44:30,0,R21,8 St-NYU,-73.992629,40.730328,1923.398229776501
12:44:30,0,R22,Prince St,-73.997702,40.724329,1808.0129179052735
12:44:30,0,R23,Canal St,-74.001775,40.719527,1684.1887870259277
12:44:30,0,R24,City Hall,-74.006978,40.713282,1845.8886863209932
12:44:30,0,R25,Cortlandt St,-74.011029,40.710668,1749.0262019993784
12:44:30,0,R26,Rector St,-74.013342,40.70722,1648.4226185727268
12:44:30,0,R27,Whitehall St-South Ferry,-74.012994,40.703087,1552.8718164336892
12:44:30,0,R28,Court St,-73.991777,40.6941,1278.2218164336891
12:44:30,0,R29,Jay St-MetroTech,-73.985942,40.69218,1191.2218164336894
12:44:30,0,R30,DeKalb Av,-73.981824,40.690635,902.4008691913334
12:04:30,0,R31,Atlantic Av-Barclays Ctr,-73.97881,40.683666,716.5788352930283
12:04:30,0,R32,Union St,-73.98311,40.677316,708.9698314201952
12:34:30,0,R33,4 Av-9 St,-73.988302,40.670847,579.1488707215053
12:34:30,0,R34,Prospect Av,-73.992872,40.665414,484.68566725830186
12:34:30,0,R35,25 St,-73.998091,40.660397,399.7677799686536
12:04:30,0,R36,36 St,-74.003549,40.655144,232.25192982456142
12:04:30,0,R39,45 St,-74.010006,40.648939,507.65079498195547
12:04:30,0,R40,53 St,-74.014034,40.645069,601.426157300796
12:04:30,0,R41,59 St,-74.017881,40.641362,651.5915532757944
12:04:30,0,R42,Bay Ridge Av,-74.023377,40.634967,816.0658020620025
12:04:30,0,R43,77 St,-74.02551,40.629742,898.6744691664018
12:04:30,0,R44,86 St,-74.028398,40.622687,1083.1264042475505
12:04:30,0,R45,Bay Ridge-95 St,-74.030876,40.616622,1151.7081433779852
12:04:30,0,S01,Franklin Av,-73.955827,40.680596,1801.6336676986023
12:04:30,0,S03,Park Pl,-73.957624,40.674772,1706.307537899098
12:04:30,0,S04,Botanic Garden,-73.959245,40.670343,1562.2467378990982
