start_time,ntransfers,stop_id,stop_name,stop_lon,stop_lat,duration
13:49:30,1,101,Van Cortlandt Park-242 St,-73.898583,40.889248,2375.011529323308
13:49:30,1,103,238 St,-73.90087,40.884667,2268.2607811403236
13:49:30,1,104,231 St,-73.904834,40.878856,2173.425674757345
13:49:30,1,106,Marble Hill-225 St,-73.909831,40.874561,2079.9538082458976
13:49:30,1,107,215 St,-73.915279,40.869444,1971.8292448000304
13:49:30,1,108,207 St,-73.918822,40.864621,1892.844449478393
13:49:30,1,109,Dyckman St,-73.925536,40.860531,1794.8078224209025
13:49:30,1,110,191 St,-73.929412,40.855225,1704.588774801855
13:49:30,1,111,181 St,-73.933596,40.849505,1609.3441860572661
12:28:00,1,112,168 St-Washington Hts,-73.940133,40.840556,1488.4938606776566
13:59:30,1,113,157 St,-73.94489,40.834041,1587.7702904870152
12:28:00,1,114,145 St,-73.95036,40.826551,1479.7205840311049
12:28:00,1,115,137 St-City College,-73.953676,40.822008,1382.5920357968357
12:28:00,1,116,125 St,-73.958372,40.815581,1283.8309038784005
12:28:00,1,117,116 St-Columbia University,-73.96411,40.807722,1165.0827042122637
12:28:00,1,118,Cathedral Pkwy (110 St),-73.966847,40.803967,1087.6440210384783
12:28:00,1,119,103 St,-73.968379,40.799446,1008.3258392202966
12:58:00,1,120,96 St,-73.972323,40.793919,828.8303286243487
12:28:00,1,121,86 St,-73.976218,40.788644,790.6102610385259
12:28:00,1,122,79 St,-73.979917,40.783934,705.6699226591849
12:28:00,1,123,72 St,-73.98197,40.778453,612.2167626412556
12:28:00,1,124,66 St-Lincoln Center,-73.982209,40.77344,519.2548061195165
12:28:00,1,125,59 St-Columbus Circle,-73.981929,40.768247,438.1568357838412
12:08:00,1,126,50 St,-73.983849,40.761728,538.5993345285424
12:08:00,1,127,Times Sq-42 St,-73.987495,40.75529,508.7504176411627
12:08:00,1,128,34 St-Penn Station,-73.991057,40.750373,616.1399281306732
12:08:00,1,129,28 St,-73.993365,40.747215,697.9026378467257
12:27:00,1,130,23 St,-73.995657,40.744081,766.5298682578972
12:27:00,1,131,18 St,-73.997871,40.74104,781.0924081208263
12:27:00,1,132,14 St,-74.000201,40.737826,705.0153044026267
12:12:30,1,133,Christopher St-Sheridan Sq,-74.002906,40.733422,795.8567673412532
12:12:30,1,134,Houston St,-74.005367,40.728251,875.8563608371882
12:12:30,1,135,Canal St,-74.006277,40.722854,965.6139735046668
12:12:30,1,136,Franklin St,-74.006886,40.719318,1030.769222795303
12:02:00,1,137,Chambers St,-74.009266,40.715478,967.5548898160961
12:02:00,1,138,WTC Cortlandt,-74.012188,40.711835,1172.0482934805063
12:02:00,1,139,Rector St,-74.013783,40.707513,1251.3468603594874
12:02:00,1,142,South Ferry,-74.013664,40.702068,1356.0672817533284
12:43:00,1,201,Wakefield-241 St,-73.85062,40.903125,3570.7937199417825
12:43:00,1,204,Nereid Av,-73.854376,40.898379,3342.529671603414
12:43:00,1,205,233 St,-73.857473,40.893193,3210.5296716034136
12:43:00,1,206,225 St,-73.860341,40.888022,3114.5296716034136
12:43:00,1,207,219 St,-73.862633,40.883895,3032.5296716034136
12:43:00,1,208,Gun Hill Rd,-73.866256,40.87785,2924.029671603414
12:43:00,1,209,Burke Av,-73.867164,40.871356,2998.1645068255502
12:43:00,1,210,Allerton Av,-73.867352,40.865462,2907.7392194692284
12:43:00,1,211,Pelham Pkwy,-73.867615,40.857192,2795.8311734922167
12:43:00,1,212,Bronx Park East,-73.868457,40.848828,2668.6811734922167
12:43:00,1,213,E 180 St,-73.873488,40.841894,2452.5
12:43:00,1,214,West Farms Sq-E Tremont Av,-73.880049,40.840295,2380.5423725598857
12:43:00,1,215,174 St,-73.887734,40.837288,2254.5030084417936
12:43:00,1,216,Freeman St,-73.891865,40.829993,2131.995119636384
12:43:00,1,217,Simpson St,-73.893064,40.824073,2018.78243306922
12:43:00,1,218,Intervale Av,-73.896736,40.822181,1944.11799854541
12:43:00,1,219,Prospect Av,-73.90177,40.819585,1860.5526196449644
12:43:00,1,220,Jackson Av,-73.907807,40.81649,1760.826086015992
12:43:00,1,221,3 Av-149 St,-73.917757,40.816109,1621.8546783913584
12:43:00,1,222,149 St-Grand Concourse,-73.926718,40.81841,1490.1952295724607
12:58:00,1,224,135 St,-73.94077,40.814229,1366.7382331914928
12:58:00,1,225,125 St,-73.945495,40.807754,1255.7862749669496
12:58:00,1,226,116 St,-73.949625,40.802098,1156.6430402946453
12:58:00,1,227,Central Park North (110 St),-73.951822,40.799075,1087.2614822660285
12:02:00,1,228,Park Place,-74.008811,40.713051,1038.1811591632359
12:02:00,1,229,Fulton St,-74.006571,40.709416,1162.782438480933
12:02:00,1,230,Wall St,-74.0091,40.706821,1244.998408470215
12:02:00,1,231,Clark St,-73.993086,40.697466,1436.262390462487
12:02:00,1,232,Borough Hall,-73.989998,40.693219,1545.5657186244068
12:04:00,1,233,Hoyt St,-73.985065,40.690545,1638.0584252694637
12:04:00,1,234,Nevins St,-73.980492,40.688246,1666.059947254998
12:04:00,1,235,Atlantic Av-Barclays Ctr,-73.977666,40.684359,1582.2258405264597
12:04:00,1,236,Bergen St,-73.975098,40.680829,1661.2480497608256
12:04:00,1,237,Grand Army Plaza,-73.971046,40.675235,1765.2290665739813
12:04:00,1,238,Eastern Pkwy-Brooklyn Museum,-73.964375,40.671987,1868.3730059679208
12:04:00,1,239,Franklin Av-Medgar Evers College,-73.958131,40.670682,1840.1444860832285
12:04:00,1,241,President St-Medgar Evers College,-73.950683,40.667883,2039.5942179867138
12:04:00,1,242,Sterling St,-73.95085,40.662742,2134.425761610875
12:04:00,1,243,Winthrop St,-73.9502,40.656652,2228.0308657075843
12:04:00,1,244,Church Av,-73.949575,40.650843,2312.0734620564685
12:04:00,1,245,Beverly Rd,-73.948959,40.645098,2418.249598420105
12:04:00,1,246,Newkirk Av-Little Haiti,-73.948411,40.639967,2526.8889220028045
12:04:00,1,247,Flatbush Av-Brooklyn College,-73.947642,40.632836,2677.5084794617624
12:04:00,1,248,Nostrand Av,-73.950466,40.669847,2003.1583561735142
12:04:00,1,249,Kingston Av,-73.942161,40.669399,2100.3098713250292
13:59:00,1,250,Crown Hts-Utica Av,-73.932942,40.668897,2161.8718406733133
12:04:00,1,251,Sutter Av-Rutland Rd,-73.92261,40.664717,2304.9968406733133
12:04:00,1,252,Saratoga Av,-73.916327,40.661453,2415.5744609489434
12:04:00,1,253,Rockaway Av,-73.908946,40.662549,2507.5067190134596
12:04:00,1,254,Junius St,-73.902447,40.663515,2472.8462591457996
12:04:00,1,255,Pennsylvania Av,-73.894895,40.664635,2582.530451605104
12:04:00,1,256,Van Siclen Av,-73.889395,40.665449,2662.5597558804607
12:04:00,1,257,New Lots Av,-73.884079,40.666235,2743.8025369369034
13:09:30,1,301,Harlem-148 St,-73.93647,40.82388,1623.4277098454395
13:09:30,1,302,145 St,-73.936245,40.820421,1506.8676881181175
12:28:00,1,401,Woodlawn,-73.878751,40.886037,2557.948017592206
12:28:00,1,402,Mosholu Pkwy,-73.884655,40.87975,2435.5410463251305
12:28:00,1,405,Bedford Park Blvd-Lehman College,-73.890064,40.873412,2312.482712991797
12:28:00,1,406,Kingsbridge Rd,-73.897174,40.86776,2202.682620655694
12:28:00,1,407,Fordham Rd,-73.901034,40.862803,2114.5597983560424
12:28:00,1,408,183 St,-73.903879,40.858407,2030.264353670576
12:28:00,1,409,Burnside Av,-73.907684,40.853453,1930.9416462469953
12:28:00,1,410,176 St,-73.911794,40.84848,1839.8729372754417
12:28:00,1,411,Mt Eden Av,-73.914685,40.844434,1759.518779774342
12:28:00,1,412,170 St,-73.917791,40.840075,1677.5152462054373
12:28:00,1,413,167 St,-73.9214,40.835537,1585.6750514289874
12:28:00,1,414,161 St-Yankee Stadium,-73.925831,40.827994,1472.1002064334161
13:43:30,1,415,149 St-Grand Concourse,-73.927351,40.818375,1439.7254331855474
12:43:00,1,416,138 St-Grand Concourse,-73.929849,40.813224,1306.358817962962
12:04:00,2,418,Fulton St,-74.009509,40.710368,1151.9552125043822
12:04:00,2,419,Wall St,-74.011862,40.707557,1231.7693717964178
12:04:00,2,420,Bowling Green,-74.014065,40.704817,1311.130337853859
12:14:00,1,423,Borough Hall,-73.990151,40.692404,1575.5842719493533
12:43:00,1,501,Eastchester-Dyre Av,-73.830834,40.8883,3188.3389765693814
12:43:00,1,502,Baychester Av,-73.838591,40.878663,3052.5
12:43:00,1,503,Gun Hill Rd,-73.846384,40.869526,2902.5
12:43:00,1,504,Pelham Pkwy,-73.855359,40.858985,2752.5
12:43:00,1,505,Morris Park,-73.860495,40.854364,2662.5
13:43:30,1,601,Pelham Bay Park,-73.828121,40.852462,2890.598556563117
13:43:30,1,602,Buhre Av,-73.832569,40.84681,2713.3353986683805
13:43:30,1,603,Middletown Rd,-73.836322,40.843863,2643.0422952201047
13:43:30,1,604,Westchester Sq-E Tremont Av,-73.842952,40.839892,2510.8658246318696
13:43:30,1,606,Zerega Av,-73.847036,40.836488,2423.8158246318694
13:43:30,1,607,Castle Hill Av,-73.851222,40.834255,2354.569922992525
13:43:30,1,608,Parkchester,-73.860816,40.833226,2169.156129889077
13:43:30,1,609,St Lawrence Av,-73.867618,40.831509,2413.0164625518746
13:43:30,1,610,Morrison Av-Soundview,-73.874516,40.829521,2311.8654185714213
13:43:30,1,611,Elder Av,-73.879159,40.828584,2239.14001411143
13:43:30,1,612,Whitlock Av,-73.886283,40.826525,2126.4352522066683
13:43:30,1,613,Hunts Point Av,-73.890549,40.820948,1896.7561298890769
12:15:00,1,614,Longwood Av,-73.896435,40.816104,2028.574601405613
12:15:00,1,615,E 149 St,-73.904098,40.812118,1925.8038193101877
12:15:00,1,616,E 143 St-St Mary's St,-73.907657,40.808719,1849.1297232230158
12:15:00,1,617,Cypress Av,-73.914042,40.805368,1746.086072429365
12:15:00,1,618,Brook Av,-73.91924,40.807566,1674.3872652723073
13:43:30,1,619,3 Av-138 St,-73.926138,40.810476,1529.1107398181548
12:43:00,1,621,125 St,-73.937594,40.804138,1123.3752437185465
12:50:00,1,622,116 St,-73.941617,40.798629,1228.704882472855
12:50:00,1,623,110 St,-73.94425,40.79502,1148.1545469023852
12:50:00,1,624,103 St,-73.947478,40.7906,1069.1148118030474
12:50:00,1,625,96 St,-73.95107,40.785672,979.3450749609422
12:43:00,1,626,86 St,-73.955589,40.779492,815.0546975546976
12:50:00,1,627,77 St,-73.959874,40.77362,777.36875
12:50:00,1,628,68 St-Hunter College,-73.96387,40.768141,683.6180716002283
12:50:00,1,629,59 St,-73.967967,40.762526,585.0
12:50:00,1,630,51 St,-73.97192,40.757107,486.1904755660466
12:50:00,1,631,Grand Central-42 St,-73.976848,40.751776,505.3183004099888
12:50:00,1,632,33 St,-73.982076,40.746081,621.2889661977277
12:50:00,1,633,28 St,-73.984264,40.74307,691.1104299325489
12:50:00,1,634,23 St,-73.986599,40.739864,758.3481830350962
12:50:00,1,635,14 St-Union Sq,-73.989951,40.734673,769.9427068677287
13:59:00,1,636,Astor Pl,-73.99107,40.730054,831.8087770141534
13:28:30,1,637,Bleecker St,-73.994659,40.725915,735.9695497711933
13:28:30,1,638,Spring St,-73.997141,40.722301,806.4953229670697
13:28:30,1,639,Canal St,-74.000193,40.718803,880.578284039182
13:49:30,2,640,Brooklyn Bridge-City Hall,-74.004131,40.713065,973.2927599127261
12:28:00,1,701,Flushing-Main St,-73.83003,40.7596,1818.2133680669701
12:28:00,1,702,Mets-Willets Point,-73.845625,40.754622,1653.1907143452872
12:28:00,1,705,111 St,-73.855334,40.75173,1557.6856054726666
12:28:00,1,706,103 St-Corona Plaza,-73.8627,40.749865,1478.7782356281773
12:28:00,1,707,Junction Blvd,-73.869527,40.749145,1398.0924959305787
12:28:00,1,708,90 St-Elmhurst Av,-73.876613,40.748408,1327.8751175201396
12:28:00,1,709,82 St-Jackson Hts,-73.883697,40.747659,1222.8143740931223
12:09:30,1,710,74 St-Broadway,-73.891394,40.746848,1110.9574484825134
12:09:30,1,711,69 St,-73.896403,40.746325,1179.893934969
12:09:30,1,712,61 St-Woodside,-73.902984,40.74563,1111.578608238678
13:27:30,1,713,52 St,-73.912549,40.744149,1016.988521407998
13:27:30,1,714,46 St-Bliss St,-73.918435,40.743132,956.2588527332991
13:27:30,1,715,40 St-Lowery St,-73.924016,40.743781,888.1445981087072
13:27:30,1,716,33 St-Rawson St,-73.930997,40.744587,809.4006587147678
13:27:30,1,718,Queensboro Plaza,-73.940202,40.750582,669.422077922078
12:10:30,1,719,Court Sq,-73.945264,40.747023,574.2857142857142
12:10:30,1,720,Hunters Point Av,-73.948916,40.742216,635.6620046620046
12:10:30,1,721,Vernon Blvd-Jackson Av,-73.953581,40.742626,600.9491728932103
12:10:30,1,723,Grand Central-42 St,-73.976041,40.751431,385.3183004099888
12:10:30,1,724,5 Av,-73.981963,40.753821,315.0
12:04:30,1,725,Times Sq-42 St,-73.987691,40.755477,372.86486486486484
12:04:30,1,726,34 St-Hudson Yards,-74.00191,40.755882,504.2648648648649
13:19:30,1,901,Grand Central-42 St,-73.979189,40.752769,445.3183004099888
12:10:30,2,902,Times Sq-42 St,-73.986229,40.755983,448.7504176411627
13:49:30,0,A02,Inwood-207 St,-73.919899,40.868072,1833.3874612465647
13:49:30,0,A03,Dyckman St,-73.927271,40.865491,1733.6486344309224
13:49:30,0,A05,190 St,-73.93418,40.859022,1603.2686234479459
13:49:30,0,A06,181 St,-73.937969,40.851695,1490.3837115536728
13:49:30,0,A07,175 St,-73.939704,40.847391,1397.5987060409936
13:49:30,0,A09,168 St,-73.939561,40.840719,1263.004729465422
12:09:30,0,A10,163 St-Amsterdam Av,-73.939892,40.836013,1206.3014120612838
12:09:30,0,A11,155 St,-73.941514,40.830518,1121.4315851237366
12:08:00,0,A12,145 St,-73.944216,40.824783,993.0211208643409
12:08:00,0,A14,135 St,-73.947649,40.817894,878.048753425954
12:08:00,0,A15,125 St,-73.952343,40.811109,712.6128302398357
12:08:00,0,A16,116 St,-73.954882,40.805085,850.5512508646937
12:09:30,0,A17,Cathedral Pkwy (110 St),-73.958161,40.800603,818.2192501710342
12:09:30,0,A18,103 St,-73.961454,40.796092,731.6044886948865
12:09:30,0,A19,96 St,-73.964696,40.791642,642.4378220282199
12:09:30,0,A20,86 St,-73.968916,40.785868,540.6959447719022
12:09:30,0,A21,81 St-Museum of Natural History,-73.972143,40.781433,441.4183679183759
12:09:30,0,A22,72 St,-73.97641,40.775594,349.09531891656104
12:08:00,0,A24,59 St-Columbus Circle,-73.981736,40.768296,211.1044513366524
13:36:00,0,A25,50 St,-73.985984,40.762456,431.06465136730515
13:19:30,0,A27,42 St-Port Authority Bus Terminal,-73.989735,40.757308,508.7504176411627
13:59:30,0,A28,34 St-Penn Station,-73.993391,40.752287,610.5466834291913
13:36:00,0,A30,23 St,-73.998041,40.745906,713.0359471111219
13:59:30,0,A31,14 St,-74.00169,40.740893,744.1367654209927
13:59:30,0,A32,W 4 St-Wash Sq,-74.000495,40.732338,619.7084155308557
12:48:00,1,A33,Spring St,-74.003739,40.726227,730.7128295614145
13:18:00,1,A34,Canal St,-74.005229,40.720824,790.362544246088
12:18:00,1,A36,Chambers St,-74.008585,40.714111,906.1378881075245
12:18:00,1,A38,Fulton St,-74.007691,40.710197,1015.7799451340011
12:18:00,1,A40,High St,-73.990531,40.699337,1208.8664207498884
12:44:00,0,A41,Jay St-MetroTech,-73.987342,40.692338,1260.0
13:19:30,0,A42,Hoyt-Schermerhorn Sts,-73.985001,40.688484,1467.459794511614
12:04:30,0,A43,Lafayette Av,-73.973946,40.686113,1619.7000542518738
12:04:30,0,A44,Clinton-Washington Avs,-73.965838,40.683263,1699.9935696102357
12:04:30,0,A45,Franklin Av,-73.956848,40.68138,1832.722410781891
13:19:30,0,A46,Nostrand Av,-73.950426,40.680438,1786.1250485303924
13:55:00,0,A47,Kingston-Throop Avs,-73.940858,40.679921,1891.1044602950983
13:19:30,0,A48,Utica Av,-73.930729,40.679364,1961.5807303485742
12:04:30,0,A49,Ralph Av,-73.920786,40.678822,2071.2558092129275
12:04:30,0,A50,Rockaway Av,-73.911946,40.67834,2172.9740754667973
13:19:30,0,A51,Broadway Junction,-73.905316,40.678334,2128.045420931101
12:19:30,0,A52,Liberty Av,-73.896548,40.674542,2266.0611159983655
12:19:30,0,A53,Van Siclen Av,-73.890358,40.67271,2362.219561439322
13:55:00,0,A54,Shepherd Av,-73.88075,40.67413,2463.7176803257025
13:19:30,0,A55,Euclid Av,-73.872106,40.675377,2445.3728756498804
13:19:30,0,A57,Grant Av,-73.86505,40.677044,2575.579557164357
13:19:30,0,A59,80 St,-73.858992,40.679371,2673.086200970615
13:19:30,0,A60,88 St,-73.85147,40.679843,2772.275841381574
13:19:30,0,A61,Rockaway Blvd,-73.843853,40.680429,2865.6997590841033
12:49:30,0,A63,104 St,-73.837683,40.681711,2956.747710261087
12:49:30,0,A64,111 St,-73.832163,40.684331,3047.8830893224585
12:49:30,0,A65,Ozone Park-Lefferts Blvd,-73.825798,40.685951,3158.7615490095823
12:06:30,0,B04,21 St-Queensbridge,-73.942836,40.754203,510.0
12:06:30,0,B06,Roosevelt Island,-73.95326,40.759145,351.93528466459816
12:06:30,0,B08,Lexington Av/63 St,-73.966113,40.764629,240.0
12:06:30,0,B10,57 St,-73.97745,40.763972,90.0
13:59:00,0,B12,9 Av,-73.994324,40.646292,2008.3856780173492
13:59:00,0,B13,Fort Hamilton Pkwy,-73.994304,40.640914,2178.928535160206
13:59:00,0,B14,50 St,-73.994791,40.63626,2260.2612187209597
13:59:00,0,B15,55 St,-73.995476,40.631435,2349.8607002504477
13:59:00,0,B16,62 St,-73.996895,40.626472,2432.480812700329
13:59:00,0,B17,71 St,-73.998864,40.619589,2535.378102286634
13:59:00,0,B18,79 St,-74.00061,40.613501,2639.828886880072
13:59:00,0,B19,18 Av,-74.001736,40.607954,2724.3124583086437
13:59:00,0,B20,20 Av,-73.998168,40.604556,2809.524038008429
13:59:00,0,B21,Bay Pkwy,-73.993728,40.601875,2890.6819705281705
13:59:00,0,B22,25 Av,-73.986829,40.597704,3017.4881221733776
13:59:00,0,B23,Bay 50 St,-73.983765,40.588841,3168.8523204581466
12:08:00,0,D01,Norwood-205 St,-73.878855,40.874811,2136.5026133353185
12:08:00,0,D03,Bedford Park Blvd,-73.887138,40.873244,1967.8028590131776
12:08:00,0,D04,Kingsbridge Rd,-73.893509,40.866978,1849.262474397793
12:08:00,0,D05,Fordham Rd,-73.897749,40.861296,1749.1295884917527
12:08:00,0,D06,182-183 Sts,-73.900741,40.856093,1663.9568012115365
12:08:00,0,D07,Tremont Av,-73.905227,40.85041,1580.35642772881
12:08:00,0,D08,174-175 Sts,-73.910136,40.8459,1553.438153872562
12:08:00,0,D09,170 St,-73.9134,40.839306,1447.8943443487524
12:08:00,0,D10,167 St,-73.91844,40.833771,1341.7514872058953
12:08:00,0,D11,161 St-Yankee Stadium,-73.925651,40.827905,1227.5607357608087
12:08:00,0,D12,155 St,-73.938209,40.830135,1104.3342482368164
12:08:00,0,D13,145 St,-73.944216,40.824783,933.7406497887079
12:08:00,0,D14,7 Av,-73.981637,40.762862,104.64305427782888
13:56:00,0,D15,47-50 Sts-Rockefeller Ctr,-73.981329,40.758663,0.0
12:02:00,0,D16,42 St-Bryant Pk,-73.984569,40.754222,90.0
12:02:00,0,D17,34 St-Herald Sq,-73.987823,40.749719,174.21814674984228
12:02:00,0,D18,23 St,-73.992821,40.742878,294.09283526682424
12:02:00,0,D19,14 St,-73.996209,40.738228,371.72177829018136
12:04:00,0,D20,W 4 St-Wash Sq,-74.000495,40.732338,372.07836058014163
12:04:00,0,D21,Broadway-Lafayette St,-73.996204,40.725297,523.7409774025715
12:04:00,0,D22,Grand St,-73.993753,40.718267,669.5935595621959
12:04:00,0,D24,Atlantic Av-Barclays Ctr,-73.97689,40.68446,1357.2258405264597
12:04:00,0,D25,7 Av,-73.972367,40.67705,1507.0502741834177
12:04:00,0,D26,Prospect Park,-73.962246,40.661614,1729.9167575888944
12:14:00,0,D27,Parkside Av,-73.961495,40.655292,2021.1051825043778
12:04:00,0,D28,Church Av,-73.962982,40.650527,1879.7781733416361
13:54:00,0,D29,Beverley Rd,-73.964492,40.644031,1986.87459154533
12:04:00,0,D30,Cortelyou Rd,-73.963891,40.640927,2065.0116215007156
12:04:00,0,D31,Newkirk Plaza,-73.962793,40.635082,2058.522173341636
12:34:00,0,D32,Avenue H,-73.961639,40.62927,2171.8469523855497
12:34:00,0,D33,Avenue J,-73.960803,40.625039,2268.7314937582246
12:34:00,0,D34,Avenue M,-73.959399,40.617618,2379.537842964574
12:04:00,0,D35,Kings Hwy,-73.957734,40.60867,2323.9175455750365
12:24:00,0,D37,Avenue U,-73.955929,40.5993,2543.2657886899024
12:24:00,0,D38,Neck Rd,-73.955161,40.595246,2647.3635460217024
12:04:00,0,D39,Sheepshead Bay,-73.954155,40.586896,2593.077951666407
12:24:00,0,D40,Brighton Beach,-73.961376,40.577621,2754.3848517693937
12:24:00,0,D41,Ocean Pkwy,-73.968501,40.576312,2902.6384691385783
12:24:00,0,D42,W 8 St-NY Aquarium,-73.975939,40.576127,3017.1881495569396
12:24:00,0,D43,Coney Island-Stillwell Av,-73.981233,40.577422,3105.9541070037485
12:18:00,1,E01,World Trade Center,-74.009781,40.712582,974.1387824001343
12:29:00,0,F01,Jamaica-179 St,-73.783817,40.712646,2070.0
13:24:30,0,F02,169 St,-73.793604,40.71047,1980.0
12:09:30,0,F03,Parsons Blvd,-73.803326,40.707564,1860.0
12:09:30,0,F04,Sutphin Blvd,-73.810708,40.70546,1770.0
12:09:30,0,F05,Briarwood,-73.820574,40.709179,1650.0
12:39:30,0,F06,Kew Gardens-Union Tpke,-73.831008,40.714441,1530.0
12:06:30,0,F07,75 Av,-73.837324,40.718331,1440.0
12:08:30,0,F09,Court Sq-23 St,-73.946,40.747846,454.2857142857143
12:08:30,0,F11,Lexington Av/53 St,-73.969055,40.757552,250.71428571428572
12:08:30,0,F12,5 Av/53 St,-73.975224,40.760167,151.53061224489795
12:44:00,0,F14,2 Av,-73.989938,40.723402,751.7730442600307
12:44:00,0,F15,Delancey St-Essex St,-73.988114,40.718611,850.8875733655678
12:44:00,0,F16,East Broadway,-73.990173,40.713715,934.2968801082079
12:44:00,0,F18,York St,-73.986751,40.701397,1099.6368705979844
12:44:00,0,F20,Bergen St,-73.990862,40.686145,1432.269802466088
12:44:00,0,F21,Carroll St,-73.995048,40.680303,1537.0592761502987
12:44:00,0,F22,Smith-9 Sts,-73.995959,40.67358,1687.8186674959952
12:44:00,0,F23,4 Av-9 St,-73.989779,40.670272,1771.1853341626618
12:44:00,0,F24,7 Av,-73.980305,40.666271,1680.0
12:44:00,0,F25,15 St-Prospect Park,-73.979493,40.660365,1842.3695098990459
12:44:00,0,F26,Fort Hamilton Pkwy,-73.975776,40.650782,2015.142021747387
12:44:00,0,F27,Church Av,-73.979678,40.644041,1920.0
12:44:00,0,F29,Ditmas Av,-73.978172,40.636119,2040.0
12:44:00,0,F30,18 Av,-73.976971,40.629755,2160.0
12:44:00,0,F31,Avenue I,-73.976127,40.625322,2220.0
12:44:00,0,F32,Bay Pkwy,-73.975264,40.620769,2280.0
12:44:00,0,F33,Avenue N,-73.974197,40.61514,2400.0
12:44:00,0,F34,Avenue P,-73.973022,40.608944,2490.0
12:44:00,0,F35,Kings Hwy,-73.972361,40.603217,2705.8222361748167
13:28:30,0,F36,Avenue U,-73.973357,40.596063,2817.6632836778617
12:14:00,0,F38,Avenue X,-73.97425,40.58962,2914.5774978293957
12:14:00,0,F39,Neptune Av,-73.974574,40.581011,3040.957176973781
12:09:30,0,G05,Jamaica Center-Parsons/Archer,-73.801109,40.702147,2084.365271313263
12:09:30,0,G06,Sutphin Blvd-Archer Av-JFK Airport,-73.807969,40.700486,1973.6597568163897
12:09:30,0,G07,Jamaica-Van Wyck,-73.816859,40.702566,1838.2110619469026
12:39:30,0,G08,Forest Hills-71 Av,-73.844521,40.721691,1320.0
12:39:30,0,G09,67 Av,-73.852719,40.726523,1455.5506276150627
13:46:00,0,G10,63 Dr-Rego Park,-73.861604,40.729846,1560.0
13:46:00,0,G11,Woodhaven Blvd,-73.869229,40.733106,1462.1551455025094
13:46:00,0,G12,Grand Av-Newtown,-73.877223,40.737015,1349.1965752344347
13:46:00,0,G13,Elmhurst Av,-73.882017,40.742454,1248.979183930087
12:39:30,0,G14,Jackson Hts-Roosevelt Av,-73.891338,40.746644,900.0
13:46:00,0,G15,65 St,-73.898453,40.749669,1131.5484848484848
12:08:30,0,G16,Northern Blvd,-73.906006,40.752885,1029.2484848484848
12:08:30,0,G18,46 St,-73.913333,40.756312,939.2484848484848
12:08:30,0,G19,Steinway St,-73.92074,40.756879,819.2484848484848
12:08:30,0,G20,36 St,-73.928781,40.752039,699.2484848484848
12:08:30,0,G21,Queens Plaza,-73.937243,40.748973,577.6530612244898
12:27:00,1,G22,Court Sq,-73.943832,40.746554,514.2857142857142
12:27:00,1,G24,21 St,-73.949724,40.744065,609.0204968944099
12:27:00,1,G26,Greenpoint Av,-73.954449,40.731352,749.6152762604759
12:27:00,1,G28,Nassau Av,-73.951277,40.724635,860.5650311624366
12:27:00,1,G29,Metropolitan Av,-73.951418,40.712792,1012.6826419998749
12:27:00,1,G30,Broadway,-73.950308,40.706092,1101.6395650767981
12:27:00,1,G31,Flushing Av,-73.950234,40.700377,1193.0399340804884
12:27:00,1,G32,Myrtle-Willoughby Avs,-73.949046,40.694568,1279.1171872993725
12:04:30,0,G33,Bedford-Nostrand Avs,-73.953522,40.689627,1384.4051129959669
12:04:30,0,G34,Classon Av,-73.96007,40.688873,1468.0156899190438
12:04:30,0,G35,Clinton-Washington Avs,-73.966839,40.688089,1549.5280533463008
12:04:30,0,G36,Fulton St,-73.975375,40.687119,1640.3338952706995
12:34:30,0,H01,Aqueduct Racetrack,-73.834058,40.668234,3076.5782637570005
13:19:30,0,H02,Aqueduct-N Conduit Av,-73.834058,40.668234,3144.206428260936
13:19:30,0,H03,Howard Beach-JFK Airport,-73.830301,40.660476,3254.324774815643
13:19:30,0,H04,Broad Channel,-73.815925,40.608382,3719.70633149923
13:19:30,0,H06,Beach 67 St,-73.796924,40.590927,4048.6728431271367
13:19:30,0,H07,Beach 60 St,-73.788522,40.592374,4174.529589892387
13:19:30,0,H08,Beach 44 St,-73.776013,40.592943,4284.205815609315
13:19:30,0,H09,Beach 36 St,-73.768175,40.595398,4385.478037831538
13:19:30,0,H10,Beach 25 St,-73.761353,40.600066,4485.918558277635
13:19:30,0,H11,Far Rockaway-Mott Av,-73.755405,40.603995,4576.218145054495
13:49:30,0,H12,Beach 90 St,-73.813641,40.588034,3989.763474356373
13:49:30,0,H13,Beach 98 St,-73.820558,40.585307,4089.867247941279
13:49:30,0,H14,Beach 105 St,-73.827559,40.583209,4179.54343841747
13:49:30,0,H15,Rockaway Park-Beach 116 St,-73.835592,40.580903,4283.092888966919
13:51:00,0,J12,121 St,-73.828294,40.700492,2375.8974617344224
13:51:00,0,J13,111 St,-73.836345,40.697418,2399.3126641963418
13:51:00,0,J14,104 St,-73.84433,40.695178,2566.6174617344222
13:51:00,0,J15,Woodhaven Blvd,-73.851576,40.693879,2686.3126641963418
13:51:00,0,J16,85 St-Forest Pkwy,-73.86001,40.692435,2860.429628242582
13:51:00,0,J17,75 St-Elderts Ln,-73.867139,40.691324,2643.4315498194287
13:51:00,0,J19,Cypress Hills,-73.87255,40.689941,2692.808269019281
13:04:00,0,J20,Crescent St,-73.873785,40.683194,2493.4315498194287
13:04:00,0,J21,Norwood Av,-73.880039,40.68141,2403.4315498194287
13:04:00,0,J22,Cleveland St,-73.884639,40.679947,2426.023326707384
13:04:00,0,J23,Van Siclen Av,-73.891688,40.678024,2253.4315498194287
13:04:00,0,J24,Alabama Av,-73.898654,40.676992,2193.4315498194287
13:04:00,0,J27,Broadway Junction,-73.904512,40.679498,2103.4315498194287
13:04:00,0,J28,Chauncey St,-73.910456,40.682893,2036.4219020422247
13:04:00,0,J29,Halsey St,-73.916559,40.68637,1997.0094937862254
13:04:00,0,J30,Gates Av,-73.92227,40.68963,1883.9259020422248
13:04:00,0,J31,Kosciuszko St,-73.928814,40.693342,1815.6642340475369
12:12:30,1,L01,8 Av,-74.002578,40.739777,699.0363432630446
12:04:30,1,L02,6 Av,-73.996786,40.737335,599.90359701386
12:04:30,1,L03,14 St-Union Sq,-73.99073,40.734789,689.907324563843
12:04:30,1,L05,3 Av,-73.986122,40.732849,741.2481190082843
12:04:30,1,L06,1 Av,-73.981628,40.730953,790.9160083047165
12:04:30,1,L08,Bedford Av,-73.956872,40.717304,995.129517365672
12:04:30,1,L10,Lorimer St,-73.950275,40.714063,1068.0702126621954
12:04:30,1,L11,Graham Av,-73.944053,40.714565,1108.7319722135449
12:04:30,1,L12,Grand St,-73.94067,40.711926,1197.3242540927397
12:04:30,1,L13,Montrose Av,-73.93985,40.707739,1234.8871344172833
12:04:30,1,L14,Morgan Av,-73.933147,40.706152,1315.9503914832321
12:04:30,1,L15,Jefferson St,-73.922913,40.706607,1422.7270087339061
12:04:30,1,L16,DeKalb Av,-73.918425,40.703811,1487.3299847230844
12:04:30,1,L17,Myrtle-Wyckoff Avs,-73.911586,40.699814,1562.614820788658
12:04:30,1,L19,Halsey St,-73.904084,40.695602,1622.9487134217154
12:04:30,1,L20,Wilson Av,-73.904046,40.688764,1743.298867901633
12:04:30,1,L21,Bushwick Av-Aberdeen St,-73.905249,40.682829,1826.7724473589985
12:04:30,1,L22,Broadway Junction,-73.90324,40.678856,1896.2156617947628
12:04:30,1,L24,Atlantic Av,-73.903097,40.675345,1988.9536812861572
12:04:30,1,L25,Sutter Av,-73.901975,40.669367,2072.132466146715
12:04:30,1,L26,Livonia Av,-73.900571,40.664038,2142.8462591457996
12:04:30,1,L27,New Lots Av,-73.899232,40.658733,2196.668473606156
12:04:30,1,L28,East 105 St,-73.899485,40.650573,2306.894895242772
12:04:30,1,L29,Canarsie-Rockaway Pkwy,-73.90185,40.646654,2430.669064708991
13:34:00,0,M01,Middle Village-Metropolitan Av,-73.889601,40.711396,2188.62953909523
13:24:00,0,M04,Fresh Pond Rd,-73.895877,40.706186,2068.0477530651683
13:34:00,0,M05,Forest Av,-73.903077,40.704423,1969.0718516947109
13:24:00,0,M06,Seneca Av,-73.90774,40.702762,1874.2122148232024
13:24:00,0,M08,Myrtle-Wyckoff Avs,-73.912385,40.69943,1789.071131537712
12:54:00,0,M09,Knickerbocker Av,-73.919711,40.698664,1853.64053848033
13:24:00,0,M10,Central Av,-73.927397,40.697857,1766.6171386179763
12:54:00,0,M11,Myrtle Av,-73.935657,40.697207,1650.5012805441168
12:54:00,0,M12,Flushing Av,-73.941126,40.70026,1500.59746771916
12:54:00,0,M13,Lorimer St,-73.947408,40.703869,1399.2235471664828
12:54:00,0,M14,Hewes St,-73.953431,40.70687,1306.1648252321133
12:54:00,0,M16,Marcy Av,-73.957757,40.708359,1228.4315498194287
12:54:00,0,M18,Delancey St-Essex St,-73.987437,40.718315,854.2259423427931
12:04:00,0,M19,Bowery,-73.993915,40.72028,1171.5243727343748
12:04:00,0,M20,Canal St,-73.999892,40.718092,1070.653084357147
13:55:00,2,M21,Chambers St,-74.003401,40.713243,1033.292759912726
12:04:30,2,M22,Fulton St,-74.007582,40.710374,1127.2582304611349
12:04:30,2,M23,Broad St,-74.011056,40.706476,1192.165207205321
12:04:00,1,N02,8 Av,-74.011719,40.635064,2265.482138495996
12:04:00,1,N03,Fort Hamilton Pkwy,-74.005351,40.631386,2362.704304652847
12:04:00,1,N04,New Utrecht Av,-73.996353,40.624842,2479.8158532092775
12:04:00,1,N05,18 Av,-73.990414,40.620671,2575.78613062011
12:04:00,1,N06,20 Av,-73.985026,40.61741,2663.2226385566178
12:04:00,1,N07,Bay Pkwy,-73.981848,40.611815,2760.9941617354257
12:04:00,1,N08,Kings Hwy,-73.980353,40.603923,2888.4984921817945
12:04:00,1,N09,Avenue U,-73.979137,40.597473,3004.190748523584
12:04:00,1,N10,86 St,-73.97823,40.592721,3147.1974509364522
12:04:00,1,Q01,Canal St,-74.00046,40.718383,844.9319313362882
12:43:00,0,Q03,72 St,-73.958424,40.768799,730.4378663540446
12:43:00,0,Q04,86 St,-73.951787,40.777891,855.4773013157868
12:43:00,0,Q05,96 St,-73.947152,40.784318,948.4757652174765
12:06:30,1,R01,Astoria-Ditmars Blvd,-73.912034,40.775036,1411.9585364975046
12:06:30,1,R03,Astoria Blvd,-73.917843,40.770258,1315.6631898688245
12:06:30,1,R04,30 Av,-73.921479,40.766779,1208.9662500860013
12:06:30,1,R05,Broadway,-73.925508,40.76182,1113.585297705049
12:06:30,1,R06,36 Av,-73.929575,40.756804,1001.1040724086063
12:06:30,1,R08,39 Av-Dutch Kills,-73.932755,40.752882,883.5591622289656
12:06:30,1,R09,Queensboro Plaza,-73.940202,40.750582,721.1143861095627
12:06:30,0,R11,Lexington Av/59 St,-73.967258,40.76266,589.9090898036957
12:06:30,0,R13,5 Av/59 St,-73.973347,40.764811,687.6830272614887
12:06:30,0,R14,57 St-7 Av,-73.980658,40.764664,685.9269472323931
12:06:30,0,R15,49 St,-73.984139,40.759901,602.7553052266954
12:27:00,1,R16,Times Sq-42 St,-73.986754,40.754672,497.45093851986513
12:04:30,1,R17,34 St-Herald Sq,-73.98795,40.749567,384.72376460682165
12:27:00,1,R18,28 St,-73.988691,40.745494,478.5266573881401
12:27:00,1,R19,23 St,-73.989344,40.741303,561.42079853328
12:04:00,1,R20,14 St-Union Sq,-73.990568,40.735736,569.9373432424818
13:49:30,1,R21,8 St-NYU,-73.992629,40.730328,764.1489078103959
13:49:30,1,R22,Prince St,-73.997702,40.724329,887.8558970577078
13:49:30,1,R23,Canal St,-74.001775,40.719527,1001.0692664027449
12:27:00,1,R24,City Hall,-74.006978,40.713282,1166.522699441494
12:27:00,1,R25,Cortlandt St,-74.011029,40.710668,1038.1811591632359
12:27:00,1,R26,Rector St,-74.013342,40.70722,1153.628982245475
12:27:00,1,R27,Whitehall St-South Ferry,-74.012994,40.703087,1244.746261912373
12:49:30,1,R28,Court St,-73.991777,40.6941,1448.715011912373
12:34:00,0,R29,Jay St-MetroTech,-73.985942,40.69218,1395.0
12:04:00,0,R30,DeKalb Av,-73.981824,40.690635,1128.7484450897668
13:59:00,0,R31,Atlantic Av-Barclays Ctr,-73.97881,40.683666,1291.8068427243206
13:59:00,0,R32,Union St,-73.98311,40.677316,1460.6147029863296
13:59:00,0,R33,4 Av-9 St,-73.988302,40.670847,1590.4356636850193
13:59:00,0,R34,Prospect Av,-73.992872,40.665414,1684.8988671482227
13:59:00,0,R35,25 St,-73.998091,40.660397,1768.7295318379472
13:59:00,0,R36,36 St,-74.003549,40.655144,1688.6713923030634
13:59:00,0,R39,45 St,-74.010006,40.648939,1925.2913802021567
13:59:00,0,R40,53 St,-74.014034,40.645069,2019.0667425209972
12:04:00,1,R41,59 St,-74.017881,40.641362,2069.232138495996
13:59:00,0,R42,Bay Ridge Av,-74.023377,40.634967,2233.7063872822037
13:59:00,0,R43,77 St,-74.02551,40.629742,2316.315054386603
13:59:00,0,R44,86 St,-74.028398,40.622687,2500.766989467752
13:59:00,0,R45,Bay Ridge-95 St,-74.030876,40.616622,2569.3487285981864
12:04:00,0,S01,Franklin Av,-73.955827,40.680596,1892.722410781891
12:04:00,0,S03,Park Pl,-73.957624,40.674772,2009.062688559669
12:04:00,0,S04,Botanic Garden,-73.959245,40.670343,1932.6495399580406
