start_time,ntransfers,stop_id,stop_name,stop_lon,stop_lat,duration
12:50:30,1,101,Van Cortlandt Park-242 St,-73.898583,40.889248,4636.621264521505
12:50:30,1,103,238 St,-73.90087,40.884667,4529.87051633852
12:50:30,1,104,231 St,-73.904834,40.878856,4435.035409955542
12:50:30,1,106,Marble Hill-225 St,-73.909831,40.874561,4341.563543444094
12:50:30,1,107,215 St,-73.915279,40.869444,4233.438979998226
12:50:30,1,108,207 St,-73.918822,40.864621,4154.454184676589
12:50:30,1,109,Dyckman St,-73.925536,40.860531,4056.4175576190983
12:50:30,1,110,191 St,-73.929412,40.855225,3966.198510000051
12:50:30,1,111,181 St,-73.933596,40.849505,3870.953921255462
12:50:30,1,112,168 St-Washington Hts,-73.940133,40.840556,3750.1035958758525
12:50:30,1,113,157 St,-73.94489,40.834041,3730.487857281956
12:50:30,1,114,145 St,-73.95036,40.826551,3614.823209943142
12:50:30,1,115,137 St-City College,-73.953676,40.822008,3513.7804268835052
12:50:30,1,116,125 St,-73.958372,40.815581,3415.01929496507
12:50:30,1,117,116 St-Columbia University,-73.96411,40.807722,3296.863225600908
12:50:30,1,118,Cathedral Pkwy (110 St),-73.966847,40.803967,3218.832412125148
12:50:30,1,119,103 St,-73.968379,40.799446,3139.5142303069665
12:06:30,1,120,96 St,-73.972323,40.793919,2839.4372849696924
12:06:30,1,121,86 St,-73.976218,40.788644,2925.37462843343
12:06:30,1,122,79 St,-73.979917,40.783934,2843.5423403612886
12:06:30,1,123,72 St,-73.98197,40.778453,2647.5749838681013
12:10:30,1,124,66 St-Lincoln Center,-73.982209,40.77344,2700.919121426913
12:10:30,1,125,59 St-Columbus Circle,-73.981929,40.768247,2619.821151091238
12:10:30,1,126,50 St,-73.983849,40.761728,2511.193700110846
12:50:30,1,127,Times Sq-42 St,-73.987495,40.75529,2398.996605489723
12:10:30,1,128,34 St-Penn Station,-73.991057,40.750373,2394.701166413566
12:20:30,1,129,28 St,-73.993365,40.747215,2588.148825695286
12:10:30,1,130,23 St,-73.995657,40.744081,2590.2152770396897
12:10:30,1,131,18 St,-73.997871,40.74104,2521.774763820405
12:06:30,1,132,14 St,-74.000201,40.737826,2235.697660102205
12:50:30,1,133,Christopher St-Sheridan Sq,-74.002906,40.733422,2492.26161507127
12:50:30,1,134,Houston St,-74.005367,40.728251,2412.2620215753354
12:50:30,1,135,Canal St,-74.006277,40.722854,2322.5044089078565
12:50:30,1,136,Franklin St,-74.006886,40.719318,2257.3491596172203
12:06:30,1,137,Chambers St,-74.009266,40.715478,1988.046367299969
12:06:30,1,138,WTC Cortlandt,-74.012188,40.711835,2116.070088932017
12:06:30,1,139,Rector St,-74.013783,40.707513,2036.771522053036
12:06:30,1,142,South Ferry,-74.013664,40.702068,1932.0511006591948
13:40:30,1,201,Wakefield-241 St,-73.85062,40.903125,5583.302311219912
13:40:30,1,204,Nereid Av,-73.854376,40.898379,5355.038262881543
13:40:30,1,205,233 St,-73.857473,40.893193,5223.038262881543
13:40:30,1,206,225 St,-73.860341,40.888022,5127.038262881543
13:40:30,1,207,219 St,-73.862633,40.883895,5045.038262881544
13:40:30,1,208,Gun Hill Rd,-73.866256,40.87785,4936.538262881543
13:40:30,1,209,Burke Av,-73.867164,40.871356,5014.038262881544
13:40:30,1,210,Allerton Av,-73.867352,40.865462,4972.4676353575205
13:40:30,1,211,Pelham Pkwy,-73.867615,40.857192,4860.559589380509
13:40:30,1,212,Bronx Park East,-73.868457,40.848828,4733.40958938051
13:40:30,1,213,E 180 St,-73.873488,40.841894,4524.745159433267
12:20:30,1,214,West Farms Sq-E Tremont Av,-73.880049,40.840295,4393.0509638380145
12:20:30,1,215,174 St,-73.887734,40.837288,4267.011599719922
12:20:30,1,216,Freeman St,-73.891865,40.829993,4144.503710914513
12:20:30,1,217,Simpson St,-73.893064,40.824073,4031.291024347349
13:40:30,1,218,Intervale Av,-73.896736,40.822181,3956.6265898235397
13:40:30,1,219,Prospect Av,-73.90177,40.819585,3873.0612109230933
12:20:30,1,220,Jackson Av,-73.907807,40.81649,3773.334677294121
13:40:30,1,221,3 Av-149 St,-73.917757,40.816109,3634.3632696694876
12:20:30,1,222,149 St-Grand Concourse,-73.926718,40.81841,3502.70382085059
12:06:30,1,224,135 St,-73.94077,40.814229,3393.4593112965204
12:06:30,1,225,125 St,-73.945495,40.807754,3283.4121794929188
12:06:30,1,226,116 St,-73.949625,40.802098,3183.554154801561
12:06:30,1,227,Central Park North (110 St),-73.951822,40.799075,3104.6723250683967
12:06:30,1,228,Park Place,-74.008811,40.713051,1898.8402112512933
12:06:30,1,229,Fulton St,-74.006571,40.709416,1782.7616642266248
12:06:30,1,230,Wall St,-74.0091,40.706821,1707.1884424693028
12:06:30,1,231,Clark St,-73.993086,40.697466,1504.220424356632
12:06:30,1,232,Borough Hall,-73.989998,40.693219,1397.9782980521563
12:06:30,1,233,Hoyt St,-73.985065,40.690545,1310.2204033153141
12:10:30,1,234,Nevins St,-73.980492,40.688246,1213.1871089227907
12:20:30,1,235,Atlantic Av-Barclays Ctr,-73.977666,40.684359,1129.3530021942524
12:20:30,1,236,Bergen St,-73.975098,40.680829,1208.3752114286183
12:10:30,1,237,Grand Army Plaza,-73.971046,40.675235,1194.8687142559966
12:10:30,1,238,Eastern Pkwy-Brooklyn Museum,-73.964375,40.671987,1091.724774862057
12:10:30,1,239,Franklin Av-Medgar Evers College,-73.958131,40.670682,982.6450784673704
12:20:30,1,241,President St-Medgar Evers College,-73.950683,40.667883,1149.054818754436
12:20:30,1,242,Sterling St,-73.95085,40.662742,1245.0644504824813
12:20:30,1,243,Winthrop St,-73.9502,40.656652,1333.7366002272345
12:20:30,1,244,Church Av,-73.949575,40.650843,1413.067162887081
12:20:30,1,245,Beverly Rd,-73.948959,40.645098,1493.4300842353955
12:20:30,1,246,Newkirk Av-Little Haiti,-73.948411,40.639967,1579.6850082646583
12:20:30,1,247,Flatbush Av-Brooklyn College,-73.947642,40.632836,1714.8342353752412
12:20:30,1,248,Nostrand Av,-73.950466,40.669847,1105.9177575400008
12:20:30,1,249,Kingston Av,-73.942161,40.669399,1194.4394966704358
12:10:30,1,250,Crown Hts-Utica Av,-73.932942,40.668897,1210.6977911648917
12:20:30,1,251,Sutter Av-Rutland Rd,-73.92261,40.664717,1359.3240798246854
12:20:30,1,252,Saratoga Av,-73.916327,40.661453,1463.550300904377
12:20:30,1,253,Rockaway Av,-73.908946,40.662549,1551.4269075881818
12:20:30,1,254,Junius St,-73.902447,40.663515,1634.9204808529632
12:20:30,1,255,Pennsylvania Av,-73.894895,40.664635,1735.2691988016813
12:20:30,1,256,Van Siclen Av,-73.889395,40.665449,1814.5519751512957
12:20:30,1,257,New Lots Av,-73.884079,40.666235,1902.8006090310769
12:06:30,1,301,Harlem-148 St,-73.93647,40.82388,3675.353135380109
12:06:30,1,302,145 St,-73.936245,40.820421,3536.169742375835
12:06:30,1,401,Woodlawn,-73.878751,40.886037,4848.84501318682
12:06:30,1,402,Mosholu Pkwy,-73.884655,40.87975,4695.033194774041
12:06:30,1,405,Bedford Park Blvd-Lehman College,-73.890064,40.873412,4579.644338816719
12:06:30,1,406,Kingsbridge Rd,-73.897174,40.86776,4463.271702554205
12:06:30,1,407,Fordham Rd,-73.901034,40.862803,4366.349480331984
12:06:30,1,408,183 St,-73.903879,40.858407,4281.752688296585
12:06:30,1,409,Burnside Av,-73.907684,40.853453,4180.475194690447
12:06:30,1,410,176 St,-73.911794,40.84848,4109.810985814508
12:06:30,1,411,Mt Eden Av,-73.914685,40.844434,4030.4640470389973
12:06:30,1,412,170 St,-73.917791,40.840075,3950.2576628893
12:06:30,1,413,167 St,-73.9214,40.835537,3861.129115310001
12:06:30,1,414,161 St-Yankee Stadium,-73.925831,40.827994,3682.5737275960037
12:06:30,1,415,149 St-Grand Concourse,-73.927351,40.818375,3504.6595446566407
12:20:30,1,416,138 St-Grand Concourse,-73.929849,40.813224,3318.867409241091
12:10:30,1,418,Fulton St,-74.009509,40.710368,1821.286531756432
12:10:30,1,419,Wall St,-74.011862,40.707557,1741.4723724643964
12:10:30,1,420,Bowling Green,-74.014065,40.704817,1656.1959984380953
12:10:30,1,423,Borough Hall,-73.990151,40.692404,1375.6384256547133
13:40:30,1,501,Eastchester-Dyre Av,-73.830834,40.8883,5252.446248599388
13:40:30,1,502,Baychester Av,-73.838591,40.878663,5104.814241366114
13:40:30,1,503,Gun Hill Rd,-73.846384,40.869526,4992.1527251002935
13:40:30,1,504,Pelham Pkwy,-73.855359,40.858985,4842.1527251002935
13:40:30,1,505,Morris Park,-73.860495,40.854364,4752.1527251002935
13:26:30,1,601,Pelham Bay Park,-73.828121,40.852462,4931.769682660681
13:26:30,1,602,Buhre Av,-73.832569,40.84681,4754.506524765944
13:26:30,1,603,Middletown Rd,-73.836322,40.843863,4684.213421317669
13:26:30,1,604,Westchester Sq-E Tremont Av,-73.842952,40.839892,4552.036950729433
13:26:30,1,606,Zerega Av,-73.847036,40.836488,4464.986950729433
13:26:30,1,607,Castle Hill Av,-73.851222,40.834255,4395.741049090088
12:06:30,1,608,Parkchester,-73.860816,40.833226,4210.327255986641
12:06:30,1,609,St Lawrence Av,-73.867618,40.831509,4454.187588649439
12:06:30,1,610,Morrison Av-Soundview,-73.874516,40.829521,4353.036544668986
12:06:30,1,611,Elder Av,-73.879159,40.828584,4280.311140208994
12:06:30,1,612,Whitlock Av,-73.886283,40.826525,4167.606378304233
12:06:30,1,613,Hunts Point Av,-73.890549,40.820948,3937.9272559866404
12:20:30,1,614,Longwood Av,-73.896435,40.816104,4057.018551380146
12:20:30,1,615,E 149 St,-73.904098,40.812118,3954.247769284721
12:20:30,1,616,E 143 St-St Mary's St,-73.907657,40.808719,3877.573673197549
12:20:30,1,617,Cypress Av,-73.914042,40.805368,3766.158722990695
12:20:30,1,618,Brook Av,-73.91924,40.807566,3690.539773880227
12:20:30,1,619,3 Av-138 St,-73.926138,40.810476,3570.281865915718
12:20:30,1,621,125 St,-73.937594,40.804138,3135.883834996676
12:20:30,1,622,116 St,-73.941617,40.798629,3387.406886706099
12:10:30,1,623,110 St,-73.94425,40.79502,3306.8565511356296
12:10:30,1,624,103 St,-73.947478,40.7906,3227.8168160362916
12:10:30,1,625,96 St,-73.95107,40.785672,3138.0470791941866
12:20:30,1,626,86 St,-73.955589,40.779492,2827.5632888328264
12:10:30,1,627,77 St,-73.959874,40.77362,2935.898021094482
12:10:30,1,628,68 St-Hunter College,-73.96387,40.768141,2842.360853250553
12:20:30,1,629,59 St,-73.967967,40.762526,2627.5085912781287
12:20:30,1,630,51 St,-73.97192,40.757107,2632.7066660917476
12:20:30,1,631,Grand Central-42 St,-73.976848,40.751776,2460.6616982608325
12:06:30,1,632,33 St,-73.982076,40.746081,2393.2186521381354
12:06:30,1,633,28 St,-73.984264,40.74307,2325.5162711857547
12:06:30,1,634,23 St,-73.986599,40.739864,2259.2144960378255
12:10:30,1,635,14 St-Union Sq,-73.989951,40.734673,2125.4484141664807
12:06:30,1,636,Astor Pl,-73.99107,40.730054,2044.9048784686233
12:20:30,1,637,Bleecker St,-73.994659,40.725915,1949.0656512256633
12:20:30,1,638,Spring St,-73.997141,40.722301,2019.5914244215398
12:06:30,1,639,Canal St,-74.000193,40.718803,1970.8983104530384
12:10:30,1,640,Brooklyn Bridge-City Hall,-74.004131,40.713065,1939.9489843480883
12:28:30,1,701,Flushing-Main St,-73.83003,40.7596,4130.007780718959
12:28:30,1,702,Mets-Willets Point,-73.845625,40.754622,3938.9881820699343
12:28:30,1,705,111 St,-73.855334,40.75173,3971.438434469165
12:28:30,1,706,103 St-Corona Plaza,-73.8627,40.749865,3892.5310646246758
12:28:30,1,707,Junction Blvd,-73.869527,40.749145,3691.8453249270774
12:28:30,1,708,90 St-Elmhurst Av,-73.876613,40.748408,3791.6056585158267
12:28:30,1,709,82 St-Jackson Hts,-73.883697,40.747659,3703.938093030465
12:06:30,1,710,74 St-Broadway,-73.891394,40.746848,3543.100615552987
12:06:30,1,711,69 St,-73.896403,40.746325,3474.1641290665007
12:06:30,1,712,61 St-Woodside,-73.902984,40.74563,3392.244606540509
12:06:30,1,713,52 St,-73.912549,40.744149,3296.061496311498
12:06:30,1,714,46 St-Bliss St,-73.918435,40.743132,3236.92485103513
12:06:30,1,715,40 St-Lowery St,-73.924016,40.743781,3168.810596410538
12:06:30,1,716,33 St-Rawson St,-73.930997,40.744587,3090.066657016599
12:28:30,1,718,Queensboro Plaza,-73.940202,40.750582,2905.79269334813
12:28:30,1,719,Court Sq,-73.945264,40.747023,2810.656329711766
12:28:30,1,720,Hunters Point Av,-73.948916,40.742216,2715.569373190027
12:20:30,2,721,Vernon Blvd-Jackson Av,-73.953581,40.742626,2680.8565414212326
12:28:30,1,723,Grand Central-42 St,-73.976041,40.751431,2465.225668938011
12:28:30,1,724,5 Av,-73.981963,40.753821,2394.9073685280223
12:10:30,1,725,Times Sq-42 St,-73.987691,40.755477,2398.996605489723
12:06:30,1,726,34 St-Hudson Yards,-74.00191,40.755882,2543.5987952707446
12:06:30,1,901,Grand Central-42 St,-73.979189,40.752769,2434.652725100293
12:06:30,1,902,Times Sq-42 St,-73.986229,40.755983,2338.996605489723
13:40:30,0,A02,Inwood-207 St,-73.919899,40.868072,4094.997196444761
13:40:30,0,A03,Dyckman St,-73.927271,40.865491,3995.2583696291185
13:40:30,0,A05,190 St,-73.93418,40.859022,3864.878358646142
13:40:30,0,A06,181 St,-73.937969,40.851695,3751.9934467518688
13:40:30,0,A07,175 St,-73.939704,40.847391,3659.2084412391896
13:40:30,0,A09,168 St,-73.939561,40.840719,3524.614464663618
13:40:30,0,A10,163 St-Amsterdam Av,-73.939892,40.836013,3558.226939820057
13:40:30,0,A11,155 St,-73.941514,40.830518,3473.3571128825097
13:40:30,0,A12,145 St,-73.944216,40.824783,3278.8029665983886
12:10:30,0,A14,135 St,-73.947649,40.817894,3189.9339135541645
13:40:30,0,A15,125 St,-73.952343,40.811109,3064.5383579986087
12:10:30,0,A16,116 St,-73.954882,40.805085,3168.7610420322408
12:10:30,0,A17,Cathedral Pkwy (110 St),-73.958161,40.800603,3086.9507439292597
12:10:30,0,A18,103 St,-73.961454,40.796092,3000.335982453112
12:10:30,0,A19,96 St,-73.964696,40.791642,2911.169315786445
12:10:30,0,A20,86 St,-73.968916,40.785868,2809.4274385301273
12:10:30,0,A21,81 St-Museum of Natural History,-73.972143,40.781433,2710.149861676601
12:10:30,0,A22,72 St,-73.97641,40.775594,2617.826812674786
12:10:30,0,A24,59 St-Columbus Circle,-73.981736,40.768296,2479.8359450948774
13:30:30,0,A25,50 St,-73.985984,40.762456,2501.6797738065547
12:10:30,1,A27,42 St-Port Authority Bus Terminal,-73.989735,40.757308,2398.996605489723
12:10:30,1,A28,34 St-Penn Station,-73.993391,40.752287,2408.5185680069426
13:00:30,1,A30,23 St,-73.998041,40.745906,2343.593899335853
13:48:30,1,A31,14 St,-74.00169,40.740893,2244.095021360141
13:48:30,1,A32,W 4 St-Wash Sq,-74.000495,40.732338,2125.0150589894915
13:08:30,1,A33,Spring St,-74.003739,40.726227,2169.7122301102577
13:48:30,1,A34,Canal St,-74.005229,40.720824,2036.0339893695168
13:48:30,1,A36,Chambers St,-74.008585,40.714111,1918.375074640835
13:48:30,1,A38,Fulton St,-74.007691,40.710197,1818.578676833474
13:48:30,1,A40,High St,-73.990531,40.699337,1626.4203696234426
13:48:30,1,A41,Jay St-MetroTech,-73.987342,40.692338,1491.7332143830959
13:00:30,1,A42,Hoyt-Schermerhorn Sts,-73.985001,40.688484,1369.6385024651795
13:00:30,1,A43,Lafayette Av,-73.973946,40.686113,1233.182572978
13:00:30,1,A44,Clinton-Washington Avs,-73.965838,40.683263,1143.7137926536627
12:10:30,1,A45,Franklin Av,-73.956848,40.68138,1042.4635977978558
13:00:30,1,A46,Nostrand Av,-73.950426,40.680438,1123.910011979967
13:00:30,1,A47,Kingston-Throop Avs,-73.940858,40.679921,1222.0856096716407
13:00:30,1,A48,Utica Av,-73.930729,40.679364,1321.9577218828617
13:00:30,1,A49,Ralph Av,-73.920786,40.678822,1431.3650066510736
13:00:30,1,A50,Rockaway Av,-73.911946,40.67834,1526.7189298564158
12:20:30,1,A51,Broadway Junction,-73.905316,40.678334,1606.3583003020397
12:10:30,1,A52,Liberty Av,-73.896548,40.674542,1742.58386093411
12:10:30,1,A53,Van Siclen Av,-73.890358,40.67271,1831.8826057039844
12:10:30,1,A54,Shepherd Av,-73.88075,40.67413,1942.9665687602399
12:20:30,1,A55,Euclid Av,-73.872106,40.675377,1923.6857550208194
12:20:30,1,A57,Grant Av,-73.86505,40.677044,2053.892436535296
12:20:30,1,A59,80 St,-73.858992,40.679371,2151.399080341554
12:20:30,1,A60,88 St,-73.85147,40.679843,2250.588720752513
12:20:30,1,A61,Rockaway Blvd,-73.843853,40.680429,2344.012638455042
12:50:30,1,A63,104 St,-73.837683,40.681711,2435.0605896320258
12:50:30,1,A64,111 St,-73.832163,40.684331,2526.1959686933974
12:50:30,1,A65,Ozone Park-Lefferts Blvd,-73.825798,40.685951,2637.074428380521
12:06:30,0,B04,21 St-Queensbridge,-73.942836,40.754203,2994.9073685280223
12:06:30,0,B06,Roosevelt Island,-73.95326,40.759145,2843.7034365810114
12:06:30,0,B08,Lexington Av/63 St,-73.966113,40.764629,2661.6498742674785
12:20:30,0,B10,57 St,-73.97745,40.763972,2574.9073685280223
12:06:30,1,B12,9 Av,-73.994324,40.646292,2064.36388849409
12:06:30,1,B13,Fort Hamilton Pkwy,-73.994304,40.640914,2172.4208787657867
12:06:30,1,B14,50 St,-73.994791,40.63626,2188.148527099841
12:06:30,1,B15,55 St,-73.995476,40.631435,2098.549045570353
12:19:00,0,B16,62 St,-73.996895,40.626472,1986.8885715152599
12:19:00,0,B17,71 St,-73.998864,40.619589,1884.6136354538785
12:19:00,0,B18,79 St,-74.00061,40.613501,1794.4150448068574
12:19:00,0,B19,18 Av,-74.001736,40.607954,1699.9265097750103
12:19:00,0,B20,20 Av,-73.998168,40.604556,1615.7976010321897
12:19:00,0,B21,Bay Pkwy,-73.993728,40.601875,1521.8223944206193
12:19:00,0,B22,25 Av,-73.986829,40.597704,1421.5695427095927
12:19:00,0,B23,Bay 50 St,-73.983765,40.588841,1279.5574253626542
12:10:30,0,D01,Norwood-205 St,-73.878855,40.874811,4578.743933654669
12:10:30,0,D03,Bedford Park Blvd,-73.887138,40.873244,4410.044179332528
12:10:30,0,D04,Kingsbridge Rd,-73.893509,40.866978,4291.503794717143
12:10:30,0,D05,Fordham Rd,-73.897749,40.861296,4191.370908811104
12:10:30,0,D06,182-183 Sts,-73.900741,40.856093,4106.198121530887
12:50:30,0,D07,Tremont Av,-73.905227,40.85041,4022.597748048161
12:50:30,0,D08,174-175 Sts,-73.910136,40.8459,3995.679474191912
12:50:30,0,D09,170 St,-73.9134,40.839306,3890.135664668103
12:50:30,0,D10,167 St,-73.91844,40.833771,3782.897452467434
12:50:30,0,D11,161 St-Yankee Stadium,-73.925651,40.827905,3634.118740982841
12:50:30,0,D12,155 St,-73.938209,40.830135,3500.6433647858503
12:10:30,0,D13,145 St,-73.944216,40.824783,3352.7315479890626
12:10:30,0,D14,7 Av,-73.981637,40.762862,2373.374548036054
12:10:30,0,D15,47-50 Sts-Rockefeller Ctr,-73.981329,40.758663,2268.731493758225
12:10:30,0,D16,42 St-Bryant Pk,-73.984569,40.754222,2169.9073685280223
12:10:30,0,D17,34 St-Herald Sq,-73.987823,40.749719,2084.850172956066
13:00:30,0,D18,23 St,-73.992821,40.742878,2325.20478189901
13:00:30,0,D19,14 St,-73.996209,40.738228,2223.4517577074403
12:10:30,0,D20,W 4 St-Wash Sq,-74.000495,40.732338,1885.0150589894915
12:10:30,0,D21,Broadway-Lafayette St,-73.996204,40.725297,1736.8370788570412
12:10:30,0,D22,Grand St,-73.993753,40.718267,1597.3531547020536
12:06:30,0,D24,Atlantic Av-Barclays Ctr,-73.97689,40.68446,904.3530021942524
12:06:30,0,D25,7 Av,-73.972367,40.67705,751.739785478995
12:06:30,0,D26,Prospect Park,-73.962246,40.661614,538.8147361693302
12:06:30,0,D27,Parkside Av,-73.961495,40.655292,547.9574862391506
12:06:30,0,D28,Church Av,-73.962982,40.650527,388.9533204165885
12:06:30,0,D29,Beverley Rd,-73.964492,40.644031,329.0161079072571
12:06:30,0,D30,Cortelyou Rd,-73.963891,40.640927,270.8759001921236
12:06:30,0,D31,Newkirk Plaza,-73.962793,40.635082,163.88931952967135
12:06:30,0,D32,Avenue H,-73.961639,40.62927,70.43520942408377
12:06:30,0,D33,Avenue J,-73.960803,40.625039,0.0
12:06:30,0,D34,Avenue M,-73.959399,40.617618,110.80634920634921
12:06:30,0,D35,Kings Hwy,-73.957734,40.60867,208.55190758198373
12:06:30,0,D37,Avenue U,-73.955929,40.5993,329.21202465769414
12:06:30,0,D38,Neck Rd,-73.955161,40.595246,433.309781989494
12:06:30,0,D39,Sheepshead Bay,-73.954155,40.586896,532.3621343203346
12:06:30,0,D40,Brighton Beach,-73.961376,40.577621,703.5606315025514
12:36:30,0,D41,Ocean Pkwy,-73.968501,40.576312,802.2349498906465
12:36:30,0,D42,W 8 St-NY Aquarium,-73.975939,40.576127,916.784630309008
12:36:30,0,D43,Coney Island-Stillwell Av,-73.981233,40.577422,1005.5505877558164
12:50:30,1,E01,World Trade Center,-74.009781,40.712582,1981.9402213392584
12:10:30,0,F01,Jamaica-179 St,-73.783817,40.712646,4157.868834314571
12:06:30,0,F02,169 St,-73.793604,40.71047,4067.868834314572
12:06:30,0,F03,Parsons Blvd,-73.803326,40.707564,3904.13360991606
12:06:30,0,F04,Sutphin Blvd,-73.810708,40.70546,3814.13360991606
12:06:30,0,F05,Briarwood,-73.820574,40.709179,3572.868834314572
12:06:30,0,F06,Kew Gardens-Union Tpke,-73.831008,40.714441,3683.4143672512355
12:06:30,0,F07,75 Av,-73.837324,40.718331,3824.0631477390402
12:10:30,0,F09,Court Sq-23 St,-73.946,40.747846,2893.2096086280094
12:10:30,0,F11,Lexington Av/53 St,-73.969055,40.757552,2739.6805658446174
13:00:30,0,F12,5 Av/53 St,-73.975224,40.760167,2640.4968923752294
12:10:30,1,F14,2 Av,-73.989938,40.723402,2039.9796720877662
13:00:30,1,F15,Delancey St-Essex St,-73.988114,40.718611,1919.9796720877664
13:00:30,1,F16,East Broadway,-73.990173,40.713715,1829.9796720877664
13:00:30,1,F18,York St,-73.986751,40.701397,1649.9796720877664
12:10:30,1,F20,Bergen St,-73.990862,40.686145,1713.1421500927745
12:10:30,1,F21,Carroll St,-73.995048,40.680303,1826.0837025554804
12:10:30,1,F22,Smith-9 Sts,-73.995959,40.67358,1789.6976355986662
12:10:30,1,F23,4 Av-9 St,-73.989779,40.670272,1698.3104487217336
13:48:30,1,F24,7 Av,-73.980305,40.666271,1816.9583890571112
12:10:30,1,F25,15 St-Prospect Park,-73.979493,40.660365,1931.1627599962726
12:46:30,0,F26,Fort Hamilton Pkwy,-73.975776,40.650782,2097.7660419967747
12:46:30,0,F27,Church Av,-73.979678,40.644041,2105.123528016996
12:46:30,0,F29,Ditmas Av,-73.978172,40.636119,2155.3972373289344
12:46:30,0,F30,18 Av,-73.976971,40.629755,2029.8967092869404
12:46:30,0,F31,Avenue I,-73.976127,40.625322,1948.5871854774168
12:46:30,0,F32,Bay Pkwy,-73.975264,40.620769,1861.6088884355304
12:46:30,0,F33,Avenue N,-73.974197,40.61514,1757.8923618248864
12:46:30,0,F34,Avenue P,-73.973022,40.608944,1674.2538008355664
12:46:30,0,F35,Kings Hwy,-73.972361,40.603217,1577.936531759261
12:46:30,0,F36,Avenue U,-73.973357,40.596063,1466.0954842562162
12:46:30,0,F38,Avenue X,-73.97425,40.58962,1366.784630309008
12:46:30,0,F39,Neptune Av,-73.974574,40.581011,1231.784630309008
12:10:30,2,G05,Jamaica Center-Parsons/Archer,-73.801109,40.702147,3129.0490959379727
13:40:30,2,G06,Sutphin Blvd-Archer Av-JFK Airport,-73.807969,40.700486,3069.0490959379727
13:00:30,0,G07,Jamaica-Van Wyck,-73.816859,40.702566,3435.203305304333
12:06:30,0,G08,Forest Hills-71 Av,-73.844521,40.721691,3804.9073685280223
12:06:30,0,G09,67 Av,-73.852719,40.726523,3940.457996143084
13:56:30,0,G10,63 Dr-Rego Park,-73.861604,40.729846,3978.309410821635
13:56:30,0,G11,Woodhaven Blvd,-73.869229,40.733106,3866.1839495670224
13:56:30,0,G12,Grand Av-Newtown,-73.877223,40.737015,3748.0808188119577
13:56:30,0,G13,Elmhurst Av,-73.882017,40.742454,3642.4896585909632
12:06:30,0,G14,Jackson Hts-Roosevelt Av,-73.891338,40.746644,3384.9073685280223
12:06:30,0,G15,65 St,-73.898453,40.749669,3583.222232234153
12:10:30,0,G16,Northern Blvd,-73.906006,40.752885,3488.8923353269365
12:10:30,0,G18,46 St,-73.913333,40.756312,3398.8923353269365
12:10:30,0,G19,Steinway St,-73.92074,40.756879,3281.9851188320913
12:10:30,0,G20,36 St,-73.928781,40.752039,3161.9851188320913
12:10:30,0,G21,Queens Plaza,-73.937243,40.748973,3016.576955566785
13:40:30,1,G22,Court Sq,-73.943832,40.746554,2833.2096086280094
13:40:30,1,G24,21 St,-73.949724,40.744065,2738.4748260193137
13:40:30,1,G26,Greenpoint Av,-73.954449,40.731352,2597.8800466532484
13:40:30,1,G28,Nassau Av,-73.951277,40.724635,2486.9302917512873
13:40:30,1,G29,Metropolitan Av,-73.951418,40.712792,2334.812680913849
13:40:30,1,G30,Broadway,-73.950308,40.706092,2245.855757836926
13:40:30,1,G31,Flushing Av,-73.950234,40.700377,2154.4553888332357
13:40:30,1,G32,Myrtle-Willoughby Avs,-73.949046,40.694568,2068.378135614352
13:40:30,1,G33,Bedford-Nostrand Avs,-73.953522,40.689627,1963.0902099177574
13:40:30,1,G34,Classon Av,-73.96007,40.688873,1879.4796329946805
13:40:30,1,G35,Clinton-Washington Avs,-73.966839,40.688089,1797.9672695674235
13:40:30,1,G36,Fulton St,-73.975375,40.687119,1707.161427643025
12:36:30,1,H01,Aqueduct Racetrack,-73.834058,40.668234,2554.8911431279394
12:20:30,1,H02,Aqueduct-N Conduit Av,-73.834058,40.668234,2590.4227478010216
12:20:30,1,H03,Howard Beach-JFK Airport,-73.830301,40.660476,2732.637654186582
12:20:30,1,H04,Broad Channel,-73.815925,40.608382,3198.019210870169
12:20:30,1,H06,Beach 67 St,-73.796924,40.590927,3523.66476391129
13:00:30,1,H07,Beach 60 St,-73.788522,40.592374,3632.2666869882128
13:00:30,1,H08,Beach 44 St,-73.776013,40.592943,3743.763791235317
13:00:30,1,H09,Beach 36 St,-73.768175,40.595398,3843.9449927857054
13:00:30,1,H10,Beach 25 St,-73.761353,40.600066,3954.239053155715
13:00:30,1,H11,Far Rockaway-Mott Av,-73.755405,40.603995,4032.0373724834462
13:00:30,1,H12,Beach 90 St,-73.813641,40.588034,3468.076353727312
13:00:30,1,H13,Beach 98 St,-73.820558,40.585307,3568.180127312218
13:00:30,1,H14,Beach 105 St,-73.827559,40.583209,3657.8563177884084
13:00:30,1,H15,Rockaway Park-Beach 116 St,-73.835592,40.580903,3761.405768337859
13:40:30,2,J12,121 St,-73.828294,40.700492,2829.0490959379727
13:40:30,2,J13,111 St,-73.836345,40.697418,2990.1141966091136
13:40:30,2,J14,104 St,-73.84433,40.695178,2649.0490959379727
13:40:30,2,J15,Woodhaven Blvd,-73.851576,40.693879,2559.0490959379727
13:40:30,2,J16,85 St-Forest Pkwy,-73.86001,40.692435,2600.642508185725
13:40:30,2,J17,75 St-Elderts Ln,-73.867139,40.691324,2379.0490959379727
13:40:30,2,J19,Cypress Hills,-73.87255,40.689941,2433.0211489624244
13:40:30,2,J20,Crescent St,-73.873785,40.683194,2229.0490959379727
13:40:30,2,J21,Norwood Av,-73.880039,40.68141,2139.0490959379727
13:40:30,2,J22,Cleveland St,-73.884639,40.679947,2154.5303813217006
13:40:30,2,J23,Van Siclen Av,-73.891688,40.678024,1989.0490959379727
13:40:30,2,J24,Alabama Av,-73.898654,40.676992,1929.0490959379727
12:10:30,2,J27,Broadway Junction,-73.904512,40.679498,1831.3583003020397
12:20:30,2,J28,Chauncey St,-73.910456,40.682893,1899.0490959379729
12:20:30,2,J29,Halsey St,-73.916559,40.68637,2057.613075410053
12:20:30,2,J30,Gates Av,-73.92227,40.68963,2049.0490959379727
12:20:30,2,J31,Kosciuszko St,-73.928814,40.693342,2244.895655197287
12:06:30,1,L01,8 Av,-74.002578,40.739777,2304.095021360141
12:06:30,1,L02,6 Av,-73.996786,40.737335,2293.493891341871
12:06:30,1,L03,14 St-Union Sq,-73.99073,40.734789,2203.4901637918874
12:06:30,1,L05,3 Av,-73.986122,40.732849,2275.032101134709
12:06:30,1,L06,1 Av,-73.981628,40.730953,2315.4846658957936
12:06:30,1,L08,Bedford Av,-73.956872,40.717304,2519.5612616404746
12:06:30,1,L10,Lorimer St,-73.950275,40.714063,2590.4212075441424
12:06:30,1,L11,Graham Av,-73.944053,40.714565,2593.5323759450453
12:06:30,1,L12,Grand St,-73.94067,40.711926,2508.4346242343904
12:06:30,1,L13,Montrose Av,-73.93985,40.707739,2461.9564270925803
12:06:30,1,L14,Morgan Av,-73.933147,40.706152,2398.1498080140595
12:06:30,1,L15,Jefferson St,-73.922913,40.706607,2311.676712499234
12:10:30,2,L16,DeKalb Av,-73.918425,40.703811,2244.9849077766767
12:10:30,2,L17,Myrtle-Wyckoff Avs,-73.911586,40.699814,2166.2272723086967
12:10:30,2,L19,Halsey St,-73.904084,40.695602,2101.04726475675
12:10:30,2,L20,Wilson Av,-73.904046,40.688764,1970.595532995512
12:10:30,2,L21,Bushwick Av-Aberdeen St,-73.905249,40.682829,1904.9195447148704
12:10:30,2,L22,Broadway Junction,-73.90324,40.678856,1823.9971886611095
12:10:30,2,L24,Atlantic Av,-73.903097,40.675345,1902.5443373752353
12:10:30,2,L25,Sutter Av,-73.901975,40.669367,1985.7231222357932
12:10:30,2,L26,Livonia Av,-73.900571,40.664038,1973.6704796608703
12:28:30,2,L27,New Lots Av,-73.899232,40.658733,2038.7426941212268
12:28:30,2,L28,East 105 St,-73.899485,40.650573,2148.9691157578427
12:28:30,2,L29,Canarsie-Rockaway Pkwy,-73.90185,40.646654,2272.7432852240613
13:30:30,0,M01,Middle Village-Metropolitan Av,-73.889601,40.711396,2790.785679866214
13:00:30,0,M04,Fresh Pond Rd,-73.895877,40.706186,2670.2038938361525
13:30:30,0,M05,Forest Av,-73.903077,40.704423,2572.6843032147494
13:00:30,0,M06,Seneca Av,-73.90774,40.702762,2477.824666343241
13:00:30,0,M08,Myrtle-Wyckoff Avs,-73.912385,40.69943,2391.2272723086967
13:00:30,0,M09,Knickerbocker Av,-73.919711,40.698664,2491.623663098989
13:00:30,0,M10,Central Av,-73.927397,40.697857,2433.018779874007
13:00:30,0,M11,Myrtle Av,-73.935657,40.697207,2229.0490959379727
13:00:30,0,M12,Flushing Av,-73.941126,40.70026,2428.55198976914
13:00:30,0,M13,Lorimer St,-73.947408,40.703869,2532.2779970951474
13:00:30,0,M14,Hewes St,-73.953431,40.70687,2605.9602595933834
13:00:30,0,M16,Marcy Av,-73.957757,40.708359,2489.0490959379727
13:00:30,0,M18,Delancey St-Essex St,-73.987437,40.718315,2139.4107812731663
12:06:30,1,M19,Bowery,-73.993915,40.72028,2058.125835036607
12:10:30,1,M20,Canal St,-73.999892,40.718092,1956.6194634738972
12:10:30,1,M21,Chambers St,-74.003401,40.713243,2059.9489843480883
12:10:30,1,M22,Fulton St,-74.007582,40.710374,2058.578676833474
12:10:30,1,M23,Broad St,-74.011056,40.706476,2122.7623503028617
13:07:30,0,N02,8 Av,-74.011719,40.635064,2140.774786185396
13:07:30,0,N03,Fort Hamilton Pkwy,-74.005351,40.631386,1993.303955307376
13:07:30,0,N04,New Utrecht Av,-73.996353,40.624842,1853.293367072082
13:07:30,0,N05,18 Av,-73.990414,40.620671,1758.2992563535895
13:07:30,0,N06,20 Av,-73.985026,40.61741,1676.3086958816132
13:07:30,0,N07,Bay Pkwy,-73.981848,40.611815,1576.5232755406373
13:07:30,0,N08,Kings Hwy,-73.980353,40.603923,1462.9695468266034
13:07:30,0,N09,Avenue U,-73.979137,40.597473,1365.058383764067
13:07:30,0,N10,86 St,-73.97823,40.592721,1284.5395502282227
12:06:30,0,Q01,Canal St,-74.00046,40.718383,1704.5172192484124
12:06:30,0,Q03,72 St,-73.958424,40.768799,2792.087740621523
12:06:30,0,Q04,86 St,-73.951787,40.777891,2917.1271755832654
12:06:30,0,Q05,96 St,-73.947152,40.784318,3010.125639484955
12:06:30,0,R01,Astoria-Ditmars Blvd,-73.912034,40.775036,3648.3291519235563
12:06:30,0,R03,Astoria Blvd,-73.917843,40.770258,3552.0338052948764
12:06:30,0,R04,30 Av,-73.921479,40.766779,3445.336865512053
12:06:30,0,R05,Broadway,-73.925508,40.76182,3349.9559131311007
12:06:30,0,R06,36 Av,-73.929575,40.756804,3237.474687834658
12:06:30,0,R08,39 Av-Dutch Kills,-73.932755,40.752882,3119.9297776550175
12:06:30,0,R09,Queensboro Plaza,-73.940202,40.750582,2957.4850015356146
12:06:30,0,R11,Lexington Av/59 St,-73.967258,40.76266,2857.0231531696845
12:06:30,0,R13,5 Av/59 St,-73.973347,40.764811,2762.1960647988008
12:06:30,0,R14,57 St-7 Av,-73.980658,40.764664,2462.1304167203084
12:10:30,0,R15,49 St,-73.984139,40.759901,2493.0014930752554
12:06:30,0,R16,Times Sq-42 St,-73.986754,40.754672,2278.996605489723
12:06:30,0,R17,34 St-Herald Sq,-73.98795,40.749567,2176.016855638621
12:28:30,0,R18,28 St,-73.988691,40.745494,2394.056644018787
12:28:30,0,R19,23 St,-73.989344,40.741303,2318.3433725335394
12:06:30,0,R20,14 St-Union Sq,-73.990568,40.735736,1989.529124010317
12:06:30,0,R21,8 St-NYU,-73.992629,40.730328,2192.6934755564407
12:28:30,1,R22,Prince St,-73.997702,40.724329,2079.692035919139
12:10:30,0,R23,Canal St,-74.001775,40.719527,1966.4786665741017
12:10:30,0,R24,City Hall,-74.006978,40.713282,2118.572439135567
12:10:30,0,R25,Cortlandt St,-74.011029,40.710668,1978.471530962005
12:10:30,0,R26,Rector St,-74.013342,40.70722,1818.5202082106825
12:10:30,0,R27,Whitehall St-South Ferry,-74.012994,40.703087,1752.051100659195
12:10:30,0,R28,Court St,-73.991777,40.6941,1538.4796720877664
12:10:30,0,R29,Jay St-MetroTech,-73.985942,40.69218,1424.9796720877664
12:06:30,0,R30,DeKalb Av,-73.981824,40.690635,1075.0296720877666
12:28:30,0,R31,Atlantic Av-Barclays Ctr,-73.97881,40.683666,1167.7850532010616
12:28:30,0,R32,Union St,-73.98311,40.677316,1352.3050417698291
12:28:30,0,R33,4 Av-9 St,-73.988302,40.670847,1457.9050417698293
12:28:30,0,R34,Prospect Av,-73.992872,40.665414,1570.4839891382503
12:28:30,0,R35,25 St,-73.998091,40.660397,1677.858265352147
12:06:30,1,R36,36 St,-74.003549,40.655144,1744.6496027798046
12:28:30,0,R39,45 St,-74.010006,40.648939,1929.367401454078
12:28:30,0,R40,53 St,-74.014034,40.645069,2023.1427637729184
12:10:30,1,R41,59 St,-74.017881,40.641362,2020.4517198677283
12:10:30,1,R42,Bay Ridge Av,-74.023377,40.634967,2184.9259686539367
12:10:30,1,R43,77 St,-74.02551,40.629742,2267.5346357583358
12:10:30,1,R44,86 St,-74.028398,40.622687,2451.9865708394846
12:10:30,1,R45,Bay Ridge-95 St,-74.030876,40.616622,2520.568309969919
12:10:30,0,S01,Franklin Av,-73.955827,40.680596,922.4635977978559
12:10:30,0,S03,Park Pl,-73.957624,40.674772,827.4742360957282
12:10:30,0,S04,Botanic Garden,-73.959245,40.670343,741.5475185384763
