start_time,ntransfers,stop_id,stop_name,stop_lon,stop_lat,duration
13:31:30,1,101,Van Cortlandt Park-242 St,-73.898583,40.889248,5454.757405844901
13:31:30,1,103,238 St,-73.90087,40.884667,5348.006657661917
13:31:30,1,104,231 St,-73.904834,40.878856,5253.171551278939
13:31:30,1,106,Marble Hill-225 St,-73.909831,40.874561,5159.699684767491
13:31:30,1,107,215 St,-73.915279,40.869444,5051.575121321624
13:31:30,1,108,207 St,-73.918822,40.864621,4972.590325999986
13:31:30,1,109,Dyckman St,-73.925536,40.860531,4874.553698942495
13:31:30,1,110,191 St,-73.929412,40.855225,4784.334651323448
13:31:30,1,111,181 St,-73.933596,40.849505,4689.090062578859
12:11:30,1,112,168 St-Washington Hts,-73.940133,40.840556,4568.239737199249
12:11:30,1,113,157 St,-73.94489,40.834041,4548.623998605354
12:11:30,1,114,145 St,-73.95036,40.826551,4432.95935126654
12:11:30,1,115,137 St-City College,-73.953676,40.822008,4331.916568206902
12:11:30,1,116,125 St,-73.958372,40.815581,4233.155436288467
12:11:30,1,117,116 St-Columbia University,-73.96411,40.807722,4114.999366924306
12:11:30,1,118,Cathedral Pkwy (110 St),-73.966847,40.803967,4036.9685534485457
12:11:30,1,119,103 St,-73.968379,40.799446,3957.650371630363
12:11:30,1,120,96 St,-73.972323,40.793919,3657.573426293089
12:11:30,1,121,86 St,-73.976218,40.788644,3743.510769756827
12:11:30,1,122,79 St,-73.979917,40.783934,3661.678481684685
12:11:30,1,123,72 St,-73.98197,40.778453,3465.7111251914976
12:11:30,1,124,66 St-Lincoln Center,-73.982209,40.77344,3519.05526275031
12:11:30,1,125,59 St-Columbus Circle,-73.981929,40.768247,3437.9572924146346
12:11:30,1,126,50 St,-73.983849,40.761728,3329.3298414342426
12:11:30,1,127,Times Sq-42 St,-73.987495,40.75529,3217.1327468131194
12:11:30,1,128,34 St-Penn Station,-73.991057,40.750373,3260.5050026360705
12:11:30,1,129,28 St,-73.993365,40.747215,3374.7747834694446
12:11:30,1,130,23 St,-73.995657,40.744081,3306.147553058273
12:11:30,1,131,18 St,-73.997871,40.74104,3237.7070398389883
12:11:30,1,132,14 St,-74.000201,40.737826,3101.50149632471
12:51:30,1,133,Christopher St-Sheridan Sq,-74.002906,40.733422,3200.1366026969276
12:51:30,1,134,Houston St,-74.005367,40.728251,3120.137009200993
12:51:30,1,135,Canal St,-74.006277,40.722854,3030.379396533514
12:51:30,1,136,Franklin St,-74.006886,40.719318,2965.2241472428777
12:11:30,1,137,Chambers St,-74.009266,40.715478,2835.3029254880853
13:31:30,1,138,WTC Cortlandt,-74.012188,40.711835,2823.9450765576744
13:31:30,1,139,Rector St,-74.013783,40.707513,2744.6465096786933
13:31:30,1,142,South Ferry,-74.013664,40.702068,2639.926088284852
12:11:30,1,201,Wakefield-241 St,-73.85062,40.903125,6418.730759969212
12:11:30,1,204,Nereid Av,-73.854376,40.898379,6190.466711630844
12:11:30,1,205,233 St,-73.857473,40.893193,6058.466711630843
12:11:30,1,206,225 St,-73.860341,40.888022,5962.466711630844
12:11:30,1,207,219 St,-73.862633,40.883895,5880.466711630844
12:11:30,1,208,Gun Hill Rd,-73.866256,40.87785,5771.966711630844
12:11:30,1,209,Burke Av,-73.867164,40.871356,5849.466711630844
12:11:30,1,210,Allerton Av,-73.867352,40.865462,5790.9465567873995
12:11:30,1,211,Pelham Pkwy,-73.867615,40.857192,5679.038510810388
12:11:30,1,212,Bronx Park East,-73.868457,40.848828,5551.888510810388
12:11:30,1,213,E 180 St,-73.873488,40.841894,5355.623126195003
12:11:30,1,214,West Farms Sq-E Tremont Av,-73.880049,40.840295,5228.479412587315
12:11:30,1,215,174 St,-73.887734,40.837288,5102.440048469222
12:11:30,1,216,Freeman St,-73.891865,40.829993,4979.932159663813
12:11:30,1,217,Simpson St,-73.893064,40.824073,4866.7194730966485
12:11:30,1,218,Intervale Av,-73.896736,40.822181,4792.055038572839
12:11:30,1,219,Prospect Av,-73.90177,40.819585,4708.489659672394
12:11:30,1,220,Jackson Av,-73.907807,40.81649,4608.763126043421
12:11:30,1,221,3 Av-149 St,-73.917757,40.816109,4469.791718418788
12:11:30,1,222,149 St-Grand Concourse,-73.926718,40.81841,4338.13226959989
12:11:30,1,224,135 St,-73.94077,40.814229,4211.595452619916
12:11:30,1,225,125 St,-73.945495,40.807754,4101.548320816316
12:11:30,1,226,116 St,-73.949625,40.802098,4001.6902961249575
12:11:30,1,227,Central Park North (110 St),-73.951822,40.799075,3922.8084663917934
12:11:30,1,228,Park Place,-74.008811,40.713051,2744.6253695292226
12:11:30,1,229,Fulton St,-74.006571,40.709416,2627.136928509661
12:11:30,1,230,Wall St,-74.0091,40.706821,2551.563706752339
12:11:30,1,231,Clark St,-73.993086,40.697466,2348.595688639669
12:11:30,1,232,Borough Hall,-73.989998,40.693219,2242.3535623351922
12:11:30,1,233,Hoyt St,-73.985065,40.690545,2154.5956675983502
12:11:30,1,234,Nevins St,-73.980492,40.688246,2057.562373205827
12:11:30,1,235,Atlantic Av-Barclays Ctr,-73.977666,40.684359,1973.7282664772888
12:11:30,1,236,Bergen St,-73.975098,40.680829,2052.750475711655
12:11:30,1,237,Grand Army Plaza,-73.971046,40.675235,2072.582637257534
12:33:30,1,238,Eastern Pkwy-Brooklyn Museum,-73.964375,40.671987,1969.4386978635946
12:11:30,1,239,Franklin Av-Medgar Evers College,-73.958131,40.670682,1860.3590014689075
12:03:30,1,241,President St-Medgar Evers College,-73.950683,40.667883,2026.7687417559737
12:03:30,1,242,Sterling St,-73.95085,40.662742,2122.778373484019
12:03:30,1,243,Winthrop St,-73.9502,40.656652,2211.450523228772
12:03:30,1,244,Church Av,-73.949575,40.650843,2290.7810858886187
12:03:30,1,245,Beverly Rd,-73.948959,40.645098,2371.1440072369332
12:03:30,1,246,Newkirk Av-Little Haiti,-73.948411,40.639967,2457.398931266196
12:03:30,1,247,Flatbush Av-Brooklyn College,-73.947642,40.632836,2592.5481583767787
12:03:30,1,248,Nostrand Av,-73.950466,40.669847,1983.6316805415383
12:03:30,1,249,Kingston Av,-73.942161,40.669399,2072.153419671973
12:33:30,1,250,Crown Hts-Utica Av,-73.932942,40.668897,2088.411714166429
12:03:30,1,251,Sutter Av-Rutland Rd,-73.92261,40.664717,2237.038002826223
12:03:30,1,252,Saratoga Av,-73.916327,40.661453,2341.2642239059146
12:03:30,1,253,Rockaway Av,-73.908946,40.662549,2429.1408305897194
12:03:30,1,254,Junius St,-73.902447,40.663515,2512.6344038545003
12:03:30,1,255,Pennsylvania Av,-73.894895,40.664635,2612.983121803218
12:03:30,1,256,Van Siclen Av,-73.889395,40.665449,2692.2658981528325
12:03:30,1,257,New Lots Av,-73.884079,40.666235,2780.514532032614
12:11:30,1,301,Harlem-148 St,-73.93647,40.82388,4493.489276703505
12:11:30,1,302,145 St,-73.936245,40.820421,4354.305883699231
13:31:30,1,401,Woodlawn,-73.878751,40.886037,5684.003672089835
13:31:30,1,402,Mosholu Pkwy,-73.884655,40.87975,5526.555300828218
12:11:30,1,405,Bedford Park Blvd-Lehman College,-73.890064,40.873412,5411.166444870897
12:11:30,1,406,Kingsbridge Rd,-73.897174,40.86776,5294.793808608383
12:11:30,1,407,Fordham Rd,-73.901034,40.862803,5197.871586386161
12:11:30,1,408,183 St,-73.903879,40.858407,5113.274794350763
12:11:30,1,409,Burnside Av,-73.907684,40.853453,5011.997300744624
12:11:30,1,410,176 St,-73.911794,40.84848,4941.333091868685
12:11:30,1,411,Mt Eden Av,-73.914685,40.844434,4861.986153093175
12:11:30,1,412,170 St,-73.917791,40.840075,4781.779768943477
12:11:30,1,413,167 St,-73.9214,40.835537,4692.651221364179
12:11:30,1,414,161 St-Yankee Stadium,-73.925831,40.827994,4514.095833650181
12:11:30,1,415,149 St-Grand Concourse,-73.927351,40.818375,4336.181650710818
12:11:30,1,416,138 St-Grand Concourse,-73.929849,40.813224,4154.295857990392
12:11:30,1,418,Fulton St,-74.009509,40.710368,2656.711579464702
12:11:30,1,419,Wall St,-74.011862,40.707557,2585.8476367474327
12:11:30,1,420,Bowling Green,-74.014065,40.704817,2506.486670689991
12:11:30,1,423,Borough Hall,-73.990151,40.692404,2220.0136899377494
12:11:30,1,501,Eastchester-Dyre Av,-73.830834,40.8883,6071.546313887553
12:11:30,1,502,Baychester Av,-73.838591,40.878663,5940.242690115414
12:11:30,1,503,Gun Hill Rd,-73.846384,40.869526,5810.288866423689
12:11:30,1,504,Pelham Pkwy,-73.855359,40.858985,5660.288866423689
12:11:30,1,505,Morris Park,-73.860495,40.854364,5570.288866423689
13:31:30,1,601,Pelham Bay Park,-73.828121,40.852462,5767.198131409981
13:31:30,1,602,Buhre Av,-73.832569,40.84681,5589.934973515245
13:31:30,1,603,Middletown Rd,-73.836322,40.843863,5519.641870066969
13:31:30,1,604,Westchester Sq-E Tremont Av,-73.842952,40.839892,5387.465399478734
13:31:30,1,606,Zerega Av,-73.847036,40.836488,5300.415399478734
13:31:30,1,607,Castle Hill Av,-73.851222,40.834255,5231.16949783939
12:11:30,1,608,Parkchester,-73.860816,40.833226,5045.755704735941
12:11:30,1,609,St Lawrence Av,-73.867618,40.831509,5289.61603739874
12:11:30,1,610,Morrison Av-Soundview,-73.874516,40.829521,5188.464993418287
12:11:30,1,611,Elder Av,-73.879159,40.828584,5115.739588958296
12:11:30,1,612,Whitlock Av,-73.886283,40.826525,5003.034827053533
12:11:30,1,613,Hunts Point Av,-73.890549,40.820948,4773.355704735941
12:11:30,1,614,Longwood Av,-73.896435,40.816104,4892.447000129447
12:11:30,1,615,E 149 St,-73.904098,40.812118,4789.676218034021
12:11:30,1,616,E 143 St-St Mary's St,-73.907657,40.808719,4713.002121946849
12:11:30,1,617,Cypress Av,-73.914042,40.805368,4601.587171739995
12:11:30,1,618,Brook Av,-73.91924,40.807566,4525.968222629527
12:11:30,1,619,3 Av-138 St,-73.926138,40.810476,4405.710314665019
12:11:30,1,621,125 St,-73.937594,40.804138,3971.3122837459764
12:11:30,1,622,116 St,-73.941617,40.798629,4172.480807933802
12:11:30,1,623,110 St,-73.94425,40.79502,4091.9304723633322
12:11:30,1,624,103 St,-73.947478,40.7906,4012.8907372639947
12:11:30,1,625,96 St,-73.95107,40.785672,3923.121000421889
12:11:30,1,626,86 St,-73.955589,40.779492,3662.991737582128
12:11:30,1,627,77 St,-73.959874,40.77362,3720.971942322184
12:11:30,1,628,68 St-Hunter College,-73.96387,40.768141,3627.434774478256
12:11:30,1,629,59 St,-73.967967,40.762526,3462.9370400274297
12:11:30,1,630,51 St,-73.97192,40.757107,3417.78058731945
12:11:30,1,631,Grand Central-42 St,-73.976848,40.751776,3296.0901470101335
12:11:30,1,632,33 St,-73.982076,40.746081,3178.2925733658385
12:11:30,1,633,28 St,-73.984264,40.74307,3110.5901924134578
12:11:30,1,634,23 St,-73.986599,40.739864,3044.2884172655286
12:11:30,1,635,14 St-Union Sq,-73.989951,40.734673,2910.5223353941838
12:11:30,1,636,Astor Pl,-73.99107,40.730054,2829.978799696326
12:11:30,1,637,Bleecker St,-73.994659,40.725915,2734.139572453366
12:11:30,1,638,Spring St,-73.997141,40.722301,2804.665345649242
12:11:30,1,639,Canal St,-74.000193,40.718803,2789.034451776435
12:11:30,1,640,Brooklyn Bridge-City Hall,-74.004131,40.713065,2772.9747623625644
13:56:30,1,701,Flushing-Main St,-73.83003,40.7596,4722.3471728819795
13:49:30,1,702,Mets-Willets Point,-73.845625,40.754622,4557.324519160296
13:49:30,1,705,111 St,-73.855334,40.75173,4621.544954622803
13:49:30,1,706,103 St-Corona Plaza,-73.8627,40.749865,4542.637584778314
13:49:30,1,707,Junction Blvd,-73.869527,40.749145,4338.463471324306
13:49:30,1,708,90 St-Elmhurst Av,-73.876613,40.748408,4415.073465029005
13:49:30,1,709,82 St-Jackson Hts,-73.883697,40.747659,4327.405899543643
12:51:30,1,710,74 St-Broadway,-73.891394,40.746848,4166.568422066165
12:51:30,1,711,69 St,-73.896403,40.746325,4097.631935579679
12:05:00,1,712,61 St-Woodside,-73.902984,40.74563,4015.7124130536877
12:05:00,1,713,52 St,-73.912549,40.744149,3921.1223262230073
12:05:00,1,714,46 St-Bliss St,-73.918435,40.743132,3860.3926575483088
12:05:00,1,715,40 St-Lowery St,-73.924016,40.743781,3792.278402923717
12:05:00,1,716,33 St-Rawson St,-73.930997,40.744587,3713.5344635297774
12:05:00,1,718,Queensboro Plaza,-73.940202,40.750582,3573.555882737088
12:11:30,1,719,Court Sq,-73.945264,40.747023,3478.419519100724
12:11:30,2,720,Hunters Point Av,-73.948916,40.742216,3536.259088254382
12:11:30,2,721,Vernon Blvd-Jackson Av,-73.953581,40.742626,3501.546256485587
12:11:30,1,723,Grand Central-42 St,-73.976041,40.751431,3285.9153840023655
12:11:30,2,724,5 Av,-73.981963,40.753821,3215.5970835923767
12:11:30,1,725,Times Sq-42 St,-73.987691,40.755477,3217.1327468131194
12:11:30,1,726,34 St-Hudson Yards,-74.00191,40.755882,3361.7349365941413
12:11:30,1,901,Grand Central-42 St,-73.979189,40.752769,3252.78886642369
12:11:30,1,902,Times Sq-42 St,-73.986229,40.755983,3157.1327468131194
13:31:30,0,A02,Inwood-207 St,-73.919899,40.868072,4913.133337768158
13:31:30,0,A03,Dyckman St,-73.927271,40.865491,4813.394510952516
13:31:30,0,A05,190 St,-73.93418,40.859022,4683.0144999695385
13:31:30,0,A06,181 St,-73.937969,40.851695,4570.129588075266
13:31:30,0,A07,175 St,-73.939704,40.847391,4477.344582562587
13:31:30,0,A09,168 St,-73.939561,40.840719,4342.750605987015
13:31:30,0,A10,163 St-Amsterdam Av,-73.939892,40.836013,4376.363081143453
13:31:30,0,A11,155 St,-73.941514,40.830518,4291.493254205907
13:31:30,0,A12,145 St,-73.944216,40.824783,4096.939107921786
12:11:30,0,A14,135 St,-73.947649,40.817894,4008.0700548775612
13:31:30,0,A15,125 St,-73.952343,40.811109,3882.674499322006
12:11:30,0,A16,116 St,-73.954882,40.805085,4020.6129199468637
12:11:30,0,A17,Cathedral Pkwy (110 St),-73.958161,40.800603,3962.5510404822658
12:11:30,0,A18,103 St,-73.961454,40.796092,3878.049905454649
12:11:30,0,A19,96 St,-73.964696,40.791642,3788.8832387879825
12:11:30,0,A20,86 St,-73.968916,40.785868,3687.1413615316646
12:11:30,0,A21,81 St-Museum of Natural History,-73.972143,40.781433,3587.8637846781385
12:11:30,0,A22,72 St,-73.97641,40.775594,3495.5407356763235
12:11:30,0,A24,59 St-Columbus Circle,-73.981736,40.768296,3357.5498680964147
13:31:30,0,A25,50 St,-73.985984,40.762456,3319.815915129951
13:09:00,0,A27,42 St-Port Authority Bus Terminal,-73.989735,40.757308,3217.1327468131194
13:09:00,0,A28,34 St-Penn Station,-73.993391,40.752287,3160.8286309525915
12:11:30,1,A30,23 St,-73.998041,40.745906,3052.590087860936
13:09:00,0,A31,14 St,-74.00169,40.740893,2954.605591736905
13:09:00,0,A32,W 4 St-Wash Sq,-74.000495,40.732338,2834.0112475145747
12:11:00,0,A33,Spring St,-74.003739,40.726227,2785.433532234007
12:11:00,0,A34,Canal St,-74.005229,40.720824,2677.1554346998446
12:11:00,0,A36,Chambers St,-74.008585,40.714111,2534.3128986195516
12:11:00,0,A38,Fulton St,-74.007691,40.710197,2433.783947132854
12:11:00,0,A40,High St,-73.990531,40.699337,2249.96257427794
12:05:00,0,A41,Jay St-MetroTech,-73.987342,40.692338,1985.6775551684084
12:05:00,0,A42,Hoyt-Schermerhorn Sts,-73.985001,40.688484,2181.444159216657
13:02:00,0,A43,Lafayette Av,-73.973946,40.686113,2110.896495979537
13:02:00,0,A44,Clinton-Washington Avs,-73.965838,40.683263,2021.4277156552
13:02:00,0,A45,Franklin Av,-73.956848,40.68138,1920.1775207993933
12:43:30,1,A46,Nostrand Av,-73.950426,40.680438,2001.6239349815044
12:05:00,0,A47,Kingston-Throop Avs,-73.940858,40.679921,2099.799532673178
12:05:00,0,A48,Utica Av,-73.930729,40.679364,2199.671644884399
12:05:00,0,A49,Ralph Av,-73.920786,40.678822,2309.078929652611
12:05:00,0,A50,Rockaway Av,-73.911946,40.67834,2404.432852857953
12:05:00,0,A51,Broadway Junction,-73.905316,40.678334,2484.0722233035767
13:17:00,0,A52,Liberty Av,-73.896548,40.674542,2620.2977839356477
13:17:00,0,A53,Van Siclen Av,-73.890358,40.67271,2709.5965287055224
13:17:00,0,A54,Shepherd Av,-73.88075,40.67413,2820.6804917617774
12:05:00,0,A55,Euclid Av,-73.872106,40.675377,2801.399678022356
12:05:00,0,A57,Grant Av,-73.86505,40.677044,2931.6063595368328
12:05:00,0,A59,80 St,-73.858992,40.679371,3029.113003343091
12:05:00,0,A60,88 St,-73.85147,40.679843,3128.3026437540498
12:05:00,0,A61,Rockaway Blvd,-73.843853,40.680429,3221.726561456579
12:35:00,0,A63,104 St,-73.837683,40.681711,3312.7745126335626
12:35:00,0,A64,111 St,-73.832163,40.684331,3403.9098916949342
12:35:00,0,A65,Ozone Park-Lefferts Blvd,-73.825798,40.685951,3514.788351382058
12:11:30,0,B04,21 St-Queensbridge,-73.942836,40.754203,3767.8546597134236
12:11:30,0,B06,Roosevelt Island,-73.95326,40.759145,3647.8546597134236
12:11:30,0,B08,Lexington Av/63 St,-73.966113,40.764629,3479.786015590875
12:11:30,0,B10,57 St,-73.97745,40.763972,3347.8546597134236
12:02:00,0,B12,9 Av,-73.994324,40.646292,1363.2944477435872
12:02:00,0,B13,Fort Hamilton Pkwy,-73.994304,40.640914,1203.9306229047777
12:02:00,0,B14,50 St,-73.994791,40.63626,1122.5979393440239
12:02:00,0,B15,55 St,-73.995476,40.631435,1032.9984578145359
12:02:00,0,B16,62 St,-73.996895,40.626472,921.3379837594432
12:02:00,0,B17,71 St,-73.998864,40.619589,819.0630476980621
12:02:00,0,B18,79 St,-74.00061,40.613501,728.864457051041
12:02:00,0,B19,18 Av,-74.001736,40.607954,634.3759220191939
12:02:00,0,B20,20 Av,-73.998168,40.604556,550.2470132763732
12:02:00,0,B21,Bay Pkwy,-73.993728,40.601875,456.27180666480297
12:02:00,0,B22,25 Av,-73.986829,40.597704,356.01895495377636
12:02:00,0,B23,Bay 50 St,-73.983765,40.588841,214.0068376068376
13:54:00,0,D01,Norwood-205 St,-73.878855,40.874811,5396.880074978066
13:54:00,0,D03,Bedford Park Blvd,-73.887138,40.873244,5228.180320655924
13:54:00,0,D04,Kingsbridge Rd,-73.893509,40.866978,5109.63993604054
13:54:00,0,D05,Fordham Rd,-73.897749,40.861296,5009.5070501345
13:54:00,0,D06,182-183 Sts,-73.900741,40.856093,4924.334262854284
13:54:00,0,D07,Tremont Av,-73.905227,40.85041,4840.733889371558
13:54:00,0,D08,174-175 Sts,-73.910136,40.8459,4813.815615515309
13:54:00,0,D09,170 St,-73.9134,40.839306,4708.2718059915
13:54:00,0,D10,167 St,-73.91844,40.833771,4601.033593790831
13:54:00,0,D11,161 St-Yankee Stadium,-73.925651,40.827905,4452.254882306237
13:54:00,0,D12,155 St,-73.938209,40.830135,4318.7795061092465
12:11:30,0,D13,145 St,-73.944216,40.824783,4170.867689312459
12:11:30,0,D14,7 Av,-73.981637,40.762862,3229.2267580104594
12:11:30,0,D15,47-50 Sts-Rockefeller Ctr,-73.981329,40.758663,3105.9541070037485
12:11:30,0,D16,42 St-Bryant Pk,-73.984569,40.754222,2990.5970835923767
12:11:30,0,D17,34 St-Herald Sq,-73.987823,40.749719,2897.0457908484236
12:51:30,0,D18,23 St,-73.992821,40.742878,2946.415650406503
12:51:30,0,D19,14 St,-73.996209,40.738228,2831.629936120789
12:11:30,0,D20,W 4 St-Wash Sq,-74.000495,40.732338,2670.0889802171946
12:11:30,0,D21,Broadway-Lafayette St,-73.996204,40.725297,2521.911000084744
12:11:30,0,D22,Grand St,-73.993753,40.718267,2382.4270759297565
12:11:30,0,D24,Atlantic Av-Barclays Ctr,-73.97689,40.68446,1748.7282664772888
12:11:30,0,D25,7 Av,-73.972367,40.67705,1598.9038328203308
12:11:30,0,D26,Prospect Park,-73.962246,40.661614,1373.6445735610714
12:03:30,0,D27,Parkside Av,-73.961495,40.655292,1366.0936275625475
12:11:30,0,D28,Church Av,-73.962982,40.650527,1207.0894617399854
12:03:30,0,D29,Beverley Rd,-73.964492,40.644031,1172.8798063797624
12:03:30,0,D30,Cortelyou Rd,-73.963891,40.640927,1114.7395986646288
12:11:30,0,D31,Newkirk Plaza,-73.962793,40.635082,995.2832416442915
12:03:30,0,D32,Avenue H,-73.961639,40.62927,1075.9857971799004
12:03:30,0,D33,Avenue J,-73.960803,40.625039,1005.5505877558164
12:03:30,0,D34,Avenue M,-73.959399,40.617618,892.2434324329544
12:03:30,0,D35,Kings Hwy,-73.957734,40.60867,735.6533455611581
12:03:30,0,D37,Avenue U,-73.955929,40.5993,676.3385630981223
12:03:30,0,D38,Neck Rd,-73.955161,40.595246,572.2408057663224
12:03:30,0,D39,Sheepshead Bay,-73.954155,40.586896,437.0089875845043
12:03:30,0,D40,Brighton Beach,-73.961376,40.577621,294.84975551222874
12:03:30,0,D41,Ocean Pkwy,-73.968501,40.576312,203.31563786516995
12:03:30,0,D42,W 8 St-NY Aquarium,-73.975939,40.576127,64.84279069767442
13:02:00,0,D43,Coney Island-Stillwell Av,-73.981233,40.577422,0.0
13:09:00,0,E01,World Trade Center,-74.009781,40.712582,2729.1003768693404
13:09:30,0,F01,Jamaica-179 St,-73.783817,40.712646,5035.58275731611
13:31:30,0,F02,169 St,-73.793604,40.71047,4945.58275731611
13:31:30,0,F03,Parsons Blvd,-73.803326,40.707564,4781.847532917598
13:31:30,0,F04,Sutphin Blvd,-73.810708,40.70546,4691.847532917598
13:31:30,0,F05,Briarwood,-73.820574,40.709179,4450.58275731611
12:51:30,0,F06,Kew Gardens-Union Tpke,-73.831008,40.714441,4561.128290252773
13:31:30,0,F07,75 Av,-73.837324,40.718331,4670.868786011432
12:51:30,0,F09,Court Sq-23 St,-73.946,40.747846,3478.419519100724
12:51:30,0,F11,Lexington Av/53 St,-73.969055,40.757552,3564.2801090212724
12:51:30,0,F12,5 Av/53 St,-73.975224,40.760167,3465.0964355518845
12:05:00,0,F14,2 Av,-73.989938,40.723402,2463.2966027874554
12:05:00,0,F15,Delancey St-Essex St,-73.988114,40.718611,2335.9632694541224
12:05:00,0,F16,East Broadway,-73.990173,40.713715,2240.939459930313
12:05:00,0,F18,York St,-73.986751,40.701397,2087.8546597134236
12:05:00,0,F20,Bergen St,-73.990862,40.686145,2034.0029997963672
12:05:00,0,F21,Carroll St,-73.995048,40.680303,1932.6490278337506
12:05:00,0,F22,Smith-9 Sts,-73.995959,40.67358,1780.647274473143
12:05:00,0,F23,4 Av-9 St,-73.989779,40.670272,1692.9434396648835
12:05:00,0,F24,7 Av,-73.980305,40.666271,1533.8442218350751
12:05:00,0,F25,15 St-Prospect Park,-73.979493,40.660365,1550.1256885145112
12:05:00,0,F26,Fort Hamilton Pkwy,-73.975776,40.650782,1387.4521653077602
12:05:00,0,F27,Church Av,-73.979678,40.644041,1277.7603174816732
12:05:00,0,F29,Ditmas Av,-73.978172,40.636119,1129.4931291082803
12:05:00,0,F30,18 Av,-73.976971,40.629755,1003.9870789779325
12:05:00,0,F31,Avenue I,-73.976127,40.625322,922.6775551684087
12:05:00,0,F32,Bay Pkwy,-73.975264,40.620769,835.7047802148761
12:05:00,0,F33,Avenue N,-73.974197,40.61514,731.9882536042318
12:05:00,0,F34,Avenue P,-73.973022,40.608944,648.3496926149119
12:05:00,0,F35,Kings Hwy,-73.972361,40.603217,552.0324235386067
12:05:00,0,F36,Avenue U,-73.973357,40.596063,440.1913760355616
12:05:00,0,F38,Avenue X,-73.97425,40.58962,315.0
12:05:00,0,F39,Neptune Av,-73.974574,40.581011,180.0
12:51:30,0,G05,Jamaica Center-Parsons/Archer,-73.801109,40.702147,4006.7630189395104
12:51:30,0,G06,Sutphin Blvd-Archer Av-JFK Airport,-73.807969,40.700486,3946.7630189395104
12:51:30,0,G07,Jamaica-Van Wyck,-73.816859,40.702566,4312.917228305871
12:51:30,0,G08,Forest Hills-71 Av,-73.844521,40.721691,4537.356590889482
12:12:00,0,G09,67 Av,-73.852719,40.726523,4686.346523333187
12:12:00,0,G10,63 Dr-Rego Park,-73.861604,40.729846,4563.51932129435
12:12:00,0,G11,Woodhaven Blvd,-73.869229,40.733106,4451.393860039738
12:12:00,0,G12,Grand Av-Newtown,-73.877223,40.737015,4333.290729284674
12:12:00,0,G13,Elmhurst Av,-73.882017,40.742454,4227.699569063679
12:51:30,0,G14,Jackson Hts-Roosevelt Av,-73.891338,40.746644,4081.3164851160122
12:11:30,0,G15,65 St,-73.898453,40.749669,4168.432142706867
12:11:30,0,G16,Northern Blvd,-73.906006,40.752885,4074.102245799651
12:11:30,0,G18,46 St,-73.913333,40.756312,3984.102245799651
12:11:30,0,G19,Steinway St,-73.92074,40.756879,3867.1950293048058
12:11:30,0,G20,36 St,-73.928781,40.752039,3747.1950293048058
12:51:30,0,G21,Queens Plaza,-73.937243,40.748973,3601.7868660394997
12:05:00,0,G22,Court Sq,-73.943832,40.746554,3418.419519100724
12:05:00,0,G24,21 St,-73.949724,40.744065,3323.6847364920286
12:05:00,0,G26,Greenpoint Av,-73.954449,40.731352,3183.089957125963
12:05:00,0,G28,Nassau Av,-73.951277,40.724635,3072.1402022240018
12:05:00,0,G29,Metropolitan Av,-73.951418,40.712792,2920.0225913865634
12:05:00,0,G30,Broadway,-73.950308,40.706092,2831.0656683096404
12:05:00,0,G31,Flushing Av,-73.950234,40.700377,2739.66529930595
12:05:00,0,G32,Myrtle-Willoughby Avs,-73.949046,40.694568,2653.5880460870662
12:05:00,0,G33,Bedford-Nostrand Avs,-73.953522,40.689627,2548.300120390472
12:05:00,0,G34,Classon Av,-73.96007,40.688873,2464.689543467395
12:05:00,0,G35,Clinton-Washington Avs,-73.966839,40.688089,2383.177180040138
12:05:00,0,G36,Fulton St,-73.975375,40.687119,2292.3713381157395
12:23:00,0,H01,Aqueduct Racetrack,-73.834058,40.668234,3432.605066129476
12:05:00,0,H02,Aqueduct-N Conduit Av,-73.834058,40.668234,3468.136670802559
12:05:00,0,H03,Howard Beach-JFK Airport,-73.830301,40.660476,3610.351577188119
12:05:00,0,H04,Broad Channel,-73.815925,40.608382,4075.733133871706
12:05:00,0,H06,Beach 67 St,-73.796924,40.590927,4401.378686912827
13:17:00,0,H07,Beach 60 St,-73.788522,40.592374,4509.9806099897505
13:17:00,0,H08,Beach 44 St,-73.776013,40.592943,4621.477714236855
13:17:00,0,H09,Beach 36 St,-73.768175,40.595398,4721.658915787242
13:17:00,0,H10,Beach 25 St,-73.761353,40.600066,4831.952976157252
13:17:00,0,H11,Far Rockaway-Mott Av,-73.755405,40.603995,4909.751295484983
12:05:00,0,H12,Beach 90 St,-73.813641,40.588034,4345.790276728849
12:05:00,0,H13,Beach 98 St,-73.820558,40.585307,4445.894050313755
12:05:00,0,H14,Beach 105 St,-73.827559,40.583209,4535.570240789945
12:05:00,0,H15,Rockaway Park-Beach 116 St,-73.835592,40.580903,4639.119691339395
12:05:00,1,J12,121 St,-73.828294,40.700492,3706.7630189395104
13:09:00,1,J13,111 St,-73.836345,40.697418,3867.8281196106514
13:09:00,1,J14,104 St,-73.84433,40.695178,3526.7630189395104
13:09:00,1,J15,Woodhaven Blvd,-73.851576,40.693879,3436.7630189395104
13:09:00,1,J16,85 St-Forest Pkwy,-73.86001,40.692435,3478.3564311872624
13:09:00,1,J17,75 St-Elderts Ln,-73.867139,40.691324,3256.7630189395104
13:09:00,1,J19,Cypress Hills,-73.87255,40.689941,3310.735071963961
13:09:00,1,J20,Crescent St,-73.873785,40.683194,3106.7630189395104
13:09:00,1,J21,Norwood Av,-73.880039,40.68141,3016.7630189395104
13:09:00,1,J22,Cleveland St,-73.884639,40.679947,3032.2443043232374
13:09:00,1,J23,Van Siclen Av,-73.891688,40.678024,2866.7630189395104
13:09:00,1,J24,Alabama Av,-73.898654,40.676992,2806.7630189395104
13:09:00,1,J27,Broadway Junction,-73.904512,40.679498,2709.0722233035767
13:09:00,1,J28,Chauncey St,-73.910456,40.682893,2776.7630189395104
13:09:00,1,J29,Halsey St,-73.916559,40.68637,2935.32699841159
13:09:00,1,J30,Gates Av,-73.92227,40.68963,2926.7630189395104
13:09:00,1,J31,Kosciuszko St,-73.928814,40.693342,3122.609578198824
12:11:30,1,L01,8 Av,-74.002578,40.739777,3014.605591736905
12:11:30,1,L02,6 Av,-73.996786,40.737335,3056.629936120789
12:11:30,1,L03,14 St-Union Sq,-73.99073,40.734789,3037.9900796518123
12:11:30,1,L05,3 Av,-73.986122,40.732849,3109.5320169946335
12:11:30,1,L06,1 Av,-73.981628,40.730953,3149.9845817557184
12:11:30,1,L08,Bedford Av,-73.956872,40.717304,3254.974986442365
12:11:30,1,L10,Lorimer St,-73.950275,40.714063,3182.0342911458415
12:11:30,1,L11,Graham Av,-73.944053,40.714565,3222.6960506971914
12:11:30,1,L12,Grand St,-73.94067,40.711926,3309.2375504875517
12:11:30,1,L13,Montrose Av,-73.93985,40.707739,3339.6703500941167
12:11:30,1,L14,Morgan Av,-73.933147,40.706152,3275.8637310155964
12:11:30,1,L15,Jefferson St,-73.922913,40.706607,3189.390635500771
12:11:30,1,L16,DeKalb Av,-73.918425,40.703811,3122.6988307782135
13:17:00,1,L17,Myrtle-Wyckoff Avs,-73.911586,40.699814,3043.9411953102335
13:17:00,1,L19,Halsey St,-73.904084,40.695602,2978.761187758287
13:17:00,1,L20,Wilson Av,-73.904046,40.688764,2848.3094559970496
13:17:00,1,L21,Bushwick Av-Aberdeen St,-73.905249,40.682829,2782.6334677164073
13:17:00,1,L22,Broadway Junction,-73.90324,40.678856,2701.7111116626465
13:17:00,1,L24,Atlantic Av,-73.903097,40.675345,2780.2582603767723
13:17:00,1,L25,Sutter Av,-73.901975,40.669367,2863.4370452373305
13:17:00,1,L26,Livonia Av,-73.900571,40.664038,2851.3844026624074
13:17:00,1,L27,New Lots Av,-73.899232,40.658733,2916.456617122764
13:17:00,1,L28,East 105 St,-73.899485,40.650573,3026.68303875938
13:17:00,1,L29,Canarsie-Rockaway Pkwy,-73.90185,40.646654,3150.4572082255986
13:31:30,0,M01,Middle Village-Metropolitan Av,-73.889601,40.711396,3668.499602867751
12:51:30,0,M04,Fresh Pond Rd,-73.895877,40.706186,3547.9178168376893
13:31:30,0,M05,Forest Av,-73.903077,40.704423,3450.398226216286
12:51:30,0,M06,Seneca Av,-73.90774,40.702762,3355.5385893447774
12:51:30,0,M08,Myrtle-Wyckoff Avs,-73.912385,40.69943,3268.9411953102335
12:51:30,0,M09,Knickerbocker Av,-73.919711,40.698664,3369.3375861005256
12:51:30,0,M10,Central Av,-73.927397,40.697857,3310.7327028755444
12:51:30,0,M11,Myrtle Av,-73.935657,40.697207,3106.7630189395104
12:51:30,0,M12,Flushing Av,-73.941126,40.70026,3202.925746638688
12:51:30,0,M13,Lorimer St,-73.947408,40.703869,3099.199739312681
12:51:30,0,M14,Hewes St,-73.953431,40.70687,3006.9438569597396
12:51:30,0,M16,Marcy Av,-73.957757,40.708359,2934.080691279266
12:51:30,0,M18,Delancey St-Essex St,-73.987437,40.718315,2560.9632694541224
12:05:00,1,M19,Bowery,-73.993915,40.72028,2642.2482156906817
13:59:30,1,M20,Canal St,-73.999892,40.718092,2742.6696186604713
13:59:30,1,M21,Chambers St,-74.003401,40.713243,2793.6655927122106
13:09:00,1,M22,Fulton St,-74.007582,40.710374,2664.6091901290697
12:11:00,1,M23,Broad St,-74.011056,40.706476,2744.412244791449
12:06:30,0,N02,8 Av,-74.011719,40.635064,1075.2241984295797
12:06:30,0,N03,Fort Hamilton Pkwy,-74.005351,40.631386,927.7533675515599
12:06:30,0,N04,New Utrecht Av,-73.996353,40.624842,787.7427793162658
12:06:30,0,N05,18 Av,-73.990414,40.620671,692.7486685977734
12:06:30,0,N06,20 Av,-73.985026,40.61741,610.758108125797
12:06:30,0,N07,Bay Pkwy,-73.981848,40.611815,510.9726877848212
12:06:30,0,N08,Kings Hwy,-73.980353,40.603923,397.41895907078714
12:06:30,0,N09,Avenue U,-73.979137,40.597473,299.50779600825064
12:06:30,0,N10,86 St,-73.97823,40.592721,218.98896247240617
13:56:30,0,Q01,Canal St,-74.00046,40.718383,2540.102338995882
12:11:30,0,Q03,72 St,-73.958424,40.768799,3610.22388194492
12:11:30,0,Q04,86 St,-73.951787,40.777891,3735.263316906662
12:11:30,0,Q05,96 St,-73.947152,40.784318,3828.2617808083514
12:11:30,0,R01,Astoria-Ditmars Blvd,-73.912034,40.775036,4316.092341312514
12:11:30,0,R03,Astoria Blvd,-73.917843,40.770258,4219.796994683834
12:11:30,0,R04,30 Av,-73.921479,40.766779,4113.100054901011
12:11:30,0,R05,Broadway,-73.925508,40.76182,4017.7191025200586
12:11:30,0,R06,36 Av,-73.929575,40.756804,3905.237877223616
12:11:30,0,R08,39 Av-Dutch Kills,-73.932755,40.752882,3787.6929670439754
12:11:30,0,R09,Queensboro Plaza,-73.940202,40.750582,3625.2481909245726
12:11:30,0,R11,Lexington Av/59 St,-73.967258,40.76266,3689.0130432706605
12:11:30,0,R13,5 Av/59 St,-73.973347,40.764811,3580.3322061221975
12:11:30,0,R14,57 St-7 Av,-73.980658,40.764664,3280.266558043705
12:11:30,0,R15,49 St,-73.984139,40.759901,3311.137634398652
12:11:30,0,R16,Times Sq-42 St,-73.986754,40.754672,3097.1327468131194
12:11:30,0,R17,34 St-Herald Sq,-73.98795,40.749567,2994.1529969620174
12:11:30,0,R18,28 St,-73.988691,40.745494,3221.5830309235907
12:11:30,0,R19,23 St,-73.989344,40.741303,3152.843288393464
12:11:30,0,R20,14 St-Union Sq,-73.990568,40.735736,2824.029039870242
12:11:30,0,R21,8 St-NYU,-73.992629,40.730328,3010.8296168798374
12:26:30,1,R22,Prince St,-73.997702,40.724329,2897.8281772425357
12:05:00,1,R23,Canal St,-74.001775,40.719527,2784.6148078974984
12:05:00,1,R24,City Hall,-74.006978,40.713282,2799.7436637439123
12:05:00,1,R25,Cortlandt St,-74.011029,40.710668,2669.1003768693404
12:05:00,1,R26,Rector St,-74.013342,40.70722,2526.3951958363396
12:05:00,1,R27,Whitehall St-South Ferry,-74.012994,40.703087,2459.926088284852
12:05:00,1,R28,Court St,-73.991777,40.6941,2207.6775551684086
12:03:30,0,R29,Jay St-MetroTech,-73.985942,40.69218,2120.677555168408
12:11:30,0,R30,DeKalb Av,-73.981824,40.690635,1926.4786729813538
12:06:30,0,R31,Atlantic Av-Barclays Ctr,-73.97881,40.683666,1961.305943558919
12:11:00,1,R32,Union St,-73.98311,40.677316,1949.633078263151
12:16:30,0,R33,4 Av-9 St,-73.988302,40.670847,1827.6589403321163
12:05:00,1,R34,Prospect Av,-73.992872,40.665414,1731.0727334355647
12:16:30,0,R35,25 St,-73.998091,40.660397,1656.7921904491395
12:06:30,0,R36,36 St,-74.003549,40.655144,1567.1895414425169
12:16:30,0,R39,45 St,-74.010006,40.648939,1433.1124452727977
12:16:30,0,R40,53 St,-74.014034,40.645069,1333.8660684612034
12:06:30,0,R41,59 St,-74.017881,40.641362,1248.747585048881
12:06:30,0,R42,Bay Ridge Av,-74.023377,40.634967,1413.2218338350892
12:06:30,0,R43,77 St,-74.02551,40.629742,1495.8305009394885
12:06:30,0,R44,86 St,-74.028398,40.622687,1680.2824360206369
12:36:30,0,R45,Bay Ridge-95 St,-74.030876,40.616622,1748.8641751510718
12:03:30,0,S01,Franklin Av,-73.955827,40.680596,1800.177520799393
12:03:30,0,S03,Park Pl,-73.957624,40.674772,1705.1881590972655
12:03:30,0,S04,Botanic Garden,-73.959245,40.670343,1619.2614415400135
