start_time,ntransfers,stop_id,stop_name,stop_lon,stop_lat,duration
12:11:30,1,101,Van Cortlandt Park-242 St,-73.898583,40.889248,2699.7003268331496
12:11:30,1,103,238 St,-73.90087,40.884667,2592.949578650165
12:11:30,1,104,231 St,-73.904834,40.878856,2498.1144722671866
12:11:30,1,106,Marble Hill-225 St,-73.909831,40.874561,2404.642605755739
12:11:30,1,107,215 St,-73.915279,40.869444,2296.518042309872
12:11:30,1,108,207 St,-73.918822,40.864621,2217.5332469882346
12:11:30,1,109,Dyckman St,-73.925536,40.860531,2119.4966199307432
12:11:30,1,110,191 St,-73.929412,40.855225,2029.2775723116956
12:11:30,1,111,181 St,-73.933596,40.849505,1934.032983567107
12:11:30,1,112,168 St-Washington Hts,-73.940133,40.840556,1813.1826581874977
13:56:30,1,113,157 St,-73.94489,40.834041,1848.022121830909
12:11:30,1,114,145 St,-73.95036,40.826551,1732.3574744920945
12:11:30,1,115,137 St-City College,-73.953676,40.822008,1631.3146914324577
12:11:30,1,116,125 St,-73.958372,40.815581,1532.5535595140225
12:11:30,1,117,116 St-Columbia University,-73.96411,40.807722,1414.3974901498605
12:11:30,1,118,Cathedral Pkwy (110 St),-73.966847,40.803967,1336.3666766741003
12:11:30,1,119,103 St,-73.968379,40.799446,1257.0484948559188
12:41:30,1,120,96 St,-73.972323,40.793919,956.9715495186446
12:11:30,1,121,86 St,-73.976218,40.788644,1042.9088929823824
12:11:30,1,122,79 St,-73.979917,40.783934,961.0766049102405
12:11:30,1,123,72 St,-73.98197,40.778453,765.1092484170533
12:11:30,1,124,66 St-Lincoln Center,-73.982209,40.77344,818.4533859758653
12:11:30,1,125,59 St-Columbus Circle,-73.981929,40.768247,737.35541564019
12:04:00,1,126,50 St,-73.983849,40.761728,628.7279646597979
12:04:00,1,127,Times Sq-42 St,-73.987495,40.75529,516.5308700386751
13:41:30,1,128,34 St-Penn Station,-73.991057,40.750373,623.9203805281855
13:41:30,1,129,28 St,-73.993365,40.747215,705.6830902442382
13:41:30,1,130,23 St,-73.995657,40.744081,774.3103206554097
12:28:30,1,131,18 St,-73.997871,40.74104,842.7508338746942
13:41:30,1,132,14 St,-74.000201,40.737826,782.923886839546
12:07:00,1,133,Christopher St-Sheridan Sq,-74.002906,40.733422,1016.0327237835568
12:07:00,1,134,Houston St,-74.005367,40.728251,1099.1829991572783
12:07:00,1,135,Canal St,-74.006277,40.722854,1186.4583443249312
13:28:30,1,136,Franklin St,-74.006886,40.719318,1251.210835357215
13:58:30,1,137,Chambers St,-74.009266,40.715478,1030.5751796417821
13:28:30,1,138,WTC Cortlandt,-74.012188,40.711835,1314.2752242415215
13:28:30,1,139,Rector St,-74.013783,40.707513,1393.5737911205024
13:28:30,1,142,South Ferry,-74.013664,40.702068,1498.2942125143434
12:34:00,1,201,Wakefield-241 St,-73.85062,40.903125,3508.937406628339
12:34:00,1,204,Nereid Av,-73.854376,40.898379,3280.6733582899706
12:34:00,1,205,233 St,-73.857473,40.893193,3148.6733582899706
12:34:00,1,206,225 St,-73.860341,40.888022,3052.6733582899706
12:34:00,1,207,219 St,-73.862633,40.883895,2970.6733582899706
12:34:00,1,208,Gun Hill Rd,-73.866256,40.87785,2862.1733582899706
12:34:00,1,209,Burke Av,-73.867164,40.871356,2899.8028280499257
12:34:00,1,210,Allerton Av,-73.867352,40.865462,2809.3775406936034
12:34:00,1,211,Pelham Pkwy,-73.867615,40.857192,2697.4694947165917
12:34:00,1,212,Bronx Park East,-73.868457,40.848828,2570.319494716592
12:34:00,1,213,E 180 St,-73.873488,40.841894,2374.0541101012077
12:34:00,1,214,West Farms Sq-E Tremont Av,-73.880049,40.840295,2318.6860592464427
12:34:00,1,215,174 St,-73.887734,40.837288,2192.6466951283505
12:34:00,1,216,Freeman St,-73.891865,40.829993,2070.138806322941
12:34:00,1,217,Simpson St,-73.893064,40.824073,1956.9261197557767
12:34:00,1,218,Intervale Av,-73.896736,40.822181,1882.261685231967
12:34:00,1,219,Prospect Av,-73.90177,40.819585,1798.696306331521
12:34:00,1,220,Jackson Av,-73.907807,40.81649,1692.7010003798075
12:34:00,1,221,3 Av-149 St,-73.917757,40.816109,1544.3413273552844
12:34:00,1,222,149 St-Grand Concourse,-73.926718,40.81841,1411.4945487954578
12:41:30,1,224,135 St,-73.94077,40.814229,1510.9935758454722
12:41:30,1,225,125 St,-73.945495,40.807754,1400.9464440418712
12:41:30,1,226,116 St,-73.949625,40.802098,1301.088419350513
12:41:30,1,227,Central Park North (110 St),-73.951822,40.799075,1222.2065896173492
13:58:30,1,228,Park Place,-74.008811,40.713051,1119.7813356904578
13:58:30,1,229,Fulton St,-74.006571,40.709416,1234.6539870474517
13:58:30,1,230,Wall St,-74.0091,40.706821,1310.0690813870742
13:58:30,1,231,Clark St,-73.993086,40.697466,1499.2826802881732
13:58:30,1,232,Borough Hall,-73.989998,40.693219,1616.0162419320088
13:19:00,1,233,Hoyt St,-73.985065,40.690545,1704.8192515079322
13:19:00,1,234,Nevins St,-73.980492,40.688246,1721.1736774015158
13:19:00,1,235,Atlantic Av-Barclays Ctr,-73.977666,40.684359,1819.4001668155975
13:19:00,1,236,Bergen St,-73.975098,40.680829,1927.1801966293842
13:19:00,1,237,Grand Army Plaza,-73.971046,40.675235,2030.4623269094982
13:19:00,1,238,Eastern Pkwy-Brooklyn Museum,-73.964375,40.671987,2133.606266303437
13:19:00,1,239,Franklin Av-Medgar Evers College,-73.958131,40.670682,2137.9641639576394
13:19:00,1,241,President St-Medgar Evers College,-73.950683,40.667883,2329.4947737733937
13:19:00,1,242,Sterling St,-73.95085,40.662742,2421.4872446837294
13:19:00,1,243,Winthrop St,-73.9502,40.656652,2510.5409131619904
13:19:00,1,244,Church Av,-73.949575,40.650843,2589.3792889581687
13:19:00,1,245,Beverly Rd,-73.948959,40.645098,2668.6085539615406
13:19:00,1,246,Newkirk Av-Little Haiti,-73.948411,40.639967,2755.7970674750536
13:19:00,1,247,Flatbush Av-Brooklyn College,-73.947642,40.632836,2906.416624934012
13:19:00,1,248,Nostrand Av,-73.950466,40.669847,2259.4636263248635
13:19:00,1,249,Kingston Av,-73.942161,40.669399,2346.9147304258104
13:19:00,1,250,Crown Hts-Utica Av,-73.932942,40.668897,2362.380682347647
13:19:00,1,251,Sutter Av-Rutland Rd,-73.92261,40.664717,2511.006971007441
13:19:00,1,252,Saratoga Av,-73.916327,40.661453,2570.6480724059584
13:19:00,1,253,Rockaway Av,-73.908946,40.662549,2478.715814341442
13:19:00,1,254,Junius St,-73.902447,40.663515,2397.53312203375
12:08:00,3,255,Pennsylvania Av,-73.894895,40.664635,2507.2173144930543
12:08:00,3,256,Van Siclen Av,-73.889395,40.665449,2587.246618768411
12:08:00,3,257,New Lots Av,-73.884079,40.666235,2684.165264890893
12:41:30,1,301,Harlem-148 St,-73.93647,40.82388,1792.8873999290604
12:41:30,1,302,145 St,-73.936245,40.820421,1653.7040069247876
13:04:00,1,401,Woodlawn,-73.878751,40.886037,2668.936979787187
13:04:00,1,402,Mosholu Pkwy,-73.884655,40.87975,2546.530008520112
13:04:00,1,405,Bedford Park Blvd-Lehman College,-73.890064,40.873412,2423.4716751867786
13:04:00,1,406,Kingsbridge Rd,-73.897174,40.86776,2313.6715828506753
13:04:00,1,407,Fordham Rd,-73.901034,40.862803,2225.5487605510234
13:04:00,1,408,183 St,-73.903879,40.858407,2141.253315865557
13:04:00,1,409,Burnside Av,-73.907684,40.853453,2041.9306084419761
13:04:00,1,410,176 St,-73.911794,40.84848,1950.8618994704225
13:04:00,1,411,Mt Eden Av,-73.914685,40.844434,1870.5077419693228
13:04:00,1,412,170 St,-73.917791,40.840075,1788.504208400418
13:04:00,1,413,167 St,-73.9214,40.835537,1696.6640136239682
13:41:30,1,414,161 St-Yankee Stadium,-73.925831,40.827994,1555.7833028114671
13:41:30,1,415,149 St-Grand Concourse,-73.927351,40.818375,1370.089610715046
12:34:00,1,416,138 St-Grand Concourse,-73.929849,40.813224,1236.8032936565771
12:34:00,1,418,Fulton St,-74.009509,40.710368,1151.6226296457041
12:34:00,1,419,Wall St,-74.011862,40.707557,1230.282043079952
12:34:00,1,420,Bowling Green,-74.014065,40.704817,1309.8676375545451
12:34:00,1,423,Borough Hall,-73.990151,40.692404,1583.7574638572746
12:34:00,1,501,Eastchester-Dyre Av,-73.830834,40.8883,3089.977297793757
12:34:00,1,502,Baychester Av,-73.838591,40.878663,2959.303372612294
12:34:00,1,503,Gun Hill Rd,-73.846384,40.869526,2830.2913310140457
12:34:00,1,504,Pelham Pkwy,-73.855359,40.858985,2690.643686686557
12:34:00,1,505,Morris Park,-73.860495,40.854364,2600.643686686557
13:41:30,1,601,Pelham Bay Park,-73.828121,40.852462,2633.742243249674
13:41:30,1,602,Buhre Av,-73.832569,40.84681,2456.479085354937
13:41:30,1,603,Middletown Rd,-73.836322,40.843863,2386.1859819066613
13:41:30,1,604,Westchester Sq-E Tremont Av,-73.842952,40.839892,2254.009511318426
13:41:30,1,606,Zerega Av,-73.847036,40.836488,2166.959511318426
13:41:30,1,607,Castle Hill Av,-73.851222,40.834255,2097.713609679082
13:41:30,1,608,Parkchester,-73.860816,40.833226,1912.2998165756337
13:41:30,1,609,St Lawrence Av,-73.867618,40.831509,2156.160149238432
13:41:30,1,610,Morrison Av-Soundview,-73.874516,40.829521,2055.0091052579787
13:41:30,1,611,Elder Av,-73.879159,40.828584,1982.2837007979872
13:41:30,1,612,Whitlock Av,-73.886283,40.826525,1869.5789388932255
13:41:30,1,613,Hunts Point Av,-73.890549,40.820948,1639.8998165756338
12:34:00,1,614,Longwood Av,-73.896435,40.816104,1771.71828809217
12:34:00,1,615,E 149 St,-73.904098,40.812118,1668.9475059967447
12:34:00,1,616,E 143 St-St Mary's St,-73.907657,40.808719,1592.2734099095728
12:34:00,1,617,Cypress Av,-73.914042,40.805368,1489.229759115922
12:34:00,1,618,Brook Av,-73.91924,40.807566,1417.5309519588643
12:34:00,1,619,3 Av-138 St,-73.926138,40.810476,1272.2544265047118
12:34:00,1,621,125 St,-73.937594,40.804138,1061.5189304051032
12:34:00,1,622,116 St,-73.941617,40.798629,971.8485691594119
12:34:00,1,623,110 St,-73.94425,40.79502,891.298233588942
12:34:00,1,624,103 St,-73.947478,40.7906,812.2584984896043
12:34:00,1,625,96 St,-73.95107,40.785672,722.4887616474991
12:34:00,1,626,86 St,-73.955589,40.779492,623.8709272525946
12:34:00,1,627,77 St,-73.959874,40.77362,520.5124366865568
12:34:00,1,628,68 St-Hunter College,-73.96387,40.768141,430.37493668655674
12:34:00,1,629,59 St,-73.967967,40.762526,328.14368668655675
12:34:00,1,630,51 St,-73.97192,40.757107,228.94736766815183
12:34:00,1,631,Grand Central-42 St,-73.976848,40.751776,353.65815372152133
12:34:00,1,632,33 St,-73.982076,40.746081,469.62881950926027
12:34:00,1,633,28 St,-73.984264,40.74307,539.4502832440813
12:34:00,1,634,23 St,-73.986599,40.739864,606.6880363466288
12:34:00,1,635,14 St-Union Sq,-73.989951,40.734673,738.282560179261
12:34:00,1,636,Astor Pl,-73.99107,40.730054,825.7328209960033
12:34:00,1,637,Bleecker St,-73.994659,40.725915,920.4254964163156
12:19:00,1,638,Spring St,-73.997141,40.722301,991.6820409189334
12:19:00,1,639,Canal St,-74.000193,40.718803,1066.180782506952
12:34:00,1,640,Brooklyn Bridge-City Hall,-74.004131,40.713065,1035.359446747842
12:03:00,1,701,Flushing-Main St,-73.83003,40.7596,1567.4990823526841
12:03:00,1,702,Mets-Willets Point,-73.845625,40.754622,1402.4764286310015
12:03:00,1,705,111 St,-73.855334,40.75173,1466.6968640935072
12:03:00,1,706,103 St-Corona Plaza,-73.8627,40.749865,1387.789494249018
12:03:00,1,707,Junction Blvd,-73.869527,40.749145,1183.6153807950104
12:03:00,1,708,90 St-Elmhurst Av,-73.876613,40.748408,1243.7358257019457
12:03:00,1,709,82 St-Jackson Hts,-73.883697,40.747659,1138.6750822749284
12:13:30,1,710,74 St-Broadway,-73.891394,40.746848,1011.7203315368704
12:13:30,1,711,69 St,-73.896403,40.746325,942.783845050384
12:13:30,1,712,61 St-Woodside,-73.902984,40.74563,860.8643225243924
12:51:00,1,713,52 St,-73.912549,40.744149,766.2742356937122
12:51:00,1,714,46 St-Bliss St,-73.918435,40.743132,705.5445670190135
12:51:00,1,715,40 St-Lowery St,-73.924016,40.743781,637.4303123944215
12:51:00,1,716,33 St-Rawson St,-73.930997,40.744587,558.6863730004821
12:51:00,1,718,Queensboro Plaza,-73.940202,40.750582,418.7077922077922
12:26:30,1,719,Court Sq,-73.945264,40.747023,323.57142857142856
12:26:30,1,720,Hunters Point Av,-73.948916,40.742216,418.6583850931676
12:26:30,1,721,Vernon Blvd-Jackson Av,-73.953581,40.742626,445.6583850931677
12:07:00,1,723,Grand Central-42 St,-73.976041,40.751431,473.65815372152133
12:07:00,1,724,5 Av,-73.981963,40.753821,543.9764541315102
12:19:00,1,725,Times Sq-42 St,-73.987691,40.755477,516.5308700386751
12:04:00,1,726,34 St-Hudson Yards,-74.00191,40.755882,661.1330598196969
12:26:30,1,901,Grand Central-42 St,-73.979189,40.752769,413.65815372152133
12:34:00,2,902,Times Sq-42 St,-73.986229,40.755983,456.530870038675
13:56:30,0,A02,Inwood-207 St,-73.919899,40.868072,2158.0762587564063
13:56:30,0,A03,Dyckman St,-73.927271,40.865491,2058.3374319407635
13:56:30,0,A05,190 St,-73.93418,40.859022,1927.957420957787
13:56:30,0,A06,181 St,-73.937969,40.851695,1815.072509063514
13:56:30,0,A07,175 St,-73.939704,40.847391,1722.2875035508348
12:11:30,0,A09,168 St,-73.939561,40.840719,1587.6935269752632
13:56:30,0,A10,163 St-Amsterdam Av,-73.939892,40.836013,1530.990209571125
13:56:30,0,A11,155 St,-73.941514,40.830518,1446.1203826335777
12:11:30,0,A12,145 St,-73.944216,40.824783,1317.709918374182
12:04:00,0,A14,135 St,-73.947649,40.817894,1202.737550935795
13:34:00,0,A15,125 St,-73.952343,40.811109,1037.301627749677
12:04:00,0,A16,116 St,-73.954882,40.805085,1175.2400483745348
12:26:30,0,A17,Cathedral Pkwy (110 St),-73.958161,40.800603,1144.3532890909312
12:26:30,0,A18,103 St,-73.961454,40.796092,1057.7385276147836
12:26:30,0,A19,96 St,-73.964696,40.791642,968.571860948117
12:26:30,0,A20,86 St,-73.968916,40.785868,866.8299836917994
12:26:30,0,A21,81 St-Museum of Natural History,-73.972143,40.781433,767.5524068382732
12:26:30,0,A22,72 St,-73.97641,40.775594,675.2293578364585
13:34:00,0,A24,59 St-Columbus Circle,-73.981736,40.768296,537.2384902565498
12:04:00,0,A25,50 St,-73.985984,40.762456,293.40991765772264
13:41:30,0,A27,42 St-Port Authority Bus Terminal,-73.989735,40.757308,396.530870038675
13:41:30,0,A28,34 St-Penn Station,-73.993391,40.752287,513.8370605148655
13:41:30,0,A30,23 St,-73.998041,40.745906,639.373622258207
13:41:30,0,A31,14 St,-74.00169,40.740893,738.9708311128749
13:41:30,0,A32,W 4 St-Wash Sq,-74.000495,40.732338,858.050793483524
13:41:30,0,A33,Spring St,-74.003739,40.726227,972.2310260416635
13:41:30,0,A34,Canal St,-74.005229,40.720824,1083.1721780249322
13:41:30,0,A36,Chambers St,-74.008585,40.714111,1206.4032993063965
13:41:30,0,A38,Fulton St,-74.007691,40.710197,1305.7142574245836
13:41:30,0,A40,High St,-73.990531,40.699337,1503.8527455953858
12:37:00,0,A41,Jay St-MetroTech,-73.987342,40.692338,1649.4210453072014
12:20:30,1,A42,Hoyt-Schermerhorn Sts,-73.985001,40.688484,1500.5467884554964
13:41:30,0,A43,Lafayette Av,-73.973946,40.686113,1863.5984642214385
13:41:30,0,A44,Clinton-Washington Avs,-73.965838,40.683263,1948.5984642214387
13:41:30,0,A45,Franklin Av,-73.956848,40.68138,2054.3174394015828
12:34:00,0,A46,Nostrand Av,-73.950426,40.680438,2011.9712383006067
13:41:30,0,A47,Kingston-Throop Avs,-73.940858,40.679921,2116.950650065313
12:34:00,0,A48,Utica Av,-73.930729,40.679364,2187.4269201187885
13:41:30,0,A49,Ralph Av,-73.920786,40.678822,2245.1292230015806
12:34:00,0,A50,Rockaway Av,-73.911946,40.67834,2148.465089262979
12:34:00,0,A51,Broadway Junction,-73.905316,40.678334,2059.220911952686
13:26:30,0,A52,Liberty Av,-73.896548,40.674542,2197.236607019951
13:26:30,0,A53,Van Siclen Av,-73.890358,40.67271,2293.3950524609077
13:26:30,0,A54,Shepherd Av,-73.88075,40.67413,2394.893171347288
12:34:00,0,A55,Euclid Av,-73.872106,40.675377,2376.548366671466
12:34:00,0,A57,Grant Av,-73.86505,40.677044,2506.7550481859425
12:34:00,0,A59,80 St,-73.858992,40.679371,2604.2616919922007
12:34:00,0,A60,88 St,-73.85147,40.679843,2703.4513324031595
12:34:00,0,A61,Rockaway Blvd,-73.843853,40.680429,2796.875250105689
13:04:00,0,A63,104 St,-73.837683,40.681711,2887.9232012826724
13:04:00,0,A64,111 St,-73.832163,40.684331,2979.058580344044
13:04:00,0,A65,Ozone Park-Lefferts Blvd,-73.825798,40.685951,3089.9370400311677
13:47:00,0,B04,21 St-Queensbridge,-73.942836,40.754203,873.2407869791878
13:47:00,0,B06,Roosevelt Island,-73.95326,40.759145,784.8601416786034
13:47:00,0,B08,Lexington Av/63 St,-73.966113,40.764629,673.1436866865567
13:47:00,0,B10,57 St,-73.97745,40.763972,685.7142857142858
12:11:30,0,B12,9 Av,-73.994324,40.646292,2469.6058389060736
12:11:30,0,B13,Fort Hamilton Pkwy,-73.994304,40.640914,2640.1486960489306
12:11:30,0,B14,50 St,-73.994791,40.63626,2721.481379609684
12:11:30,0,B15,55 St,-73.995476,40.631435,2811.080861139172
12:11:30,0,B16,62 St,-73.996895,40.626472,2898.2304257777605
12:11:30,0,B17,71 St,-73.998864,40.619589,3001.127715364066
12:11:30,0,B18,79 St,-74.00061,40.613501,3105.5784999575035
12:11:30,0,B19,18 Av,-74.001736,40.607954,3190.062071386075
12:11:30,0,B20,20 Av,-73.998168,40.604556,3275.273651085861
12:11:30,0,B21,Bay Pkwy,-73.993728,40.601875,3356.431583605602
13:41:30,0,B22,25 Av,-73.986829,40.597704,3483.2377352508092
13:41:30,0,B23,Bay 50 St,-73.983765,40.588841,3630.072481346871
12:04:00,0,D01,Norwood-205 St,-73.878855,40.874811,2461.1914108451597
12:04:00,0,D03,Bedford Park Blvd,-73.887138,40.873244,2292.491656523019
12:04:00,0,D04,Kingsbridge Rd,-73.893509,40.866978,2173.9512719076347
12:04:00,0,D05,Fordham Rd,-73.897749,40.861296,2073.8183860015943
12:04:00,0,D06,182-183 Sts,-73.900741,40.856093,1988.645598721378
13:34:00,0,D07,Tremont Av,-73.905227,40.85041,1905.0452252386515
13:34:00,0,D08,174-175 Sts,-73.910136,40.8459,1878.1269513824034
13:34:00,0,D09,170 St,-73.9134,40.839306,1772.5831418585938
13:34:00,0,D10,167 St,-73.91844,40.833771,1666.4402847157367
13:34:00,0,D11,161 St-Yankee Stadium,-73.925651,40.827905,1552.24953327065
13:34:00,0,D12,155 St,-73.938209,40.830135,1429.0230457466578
13:34:00,0,D13,145 St,-73.944216,40.824783,1258.4294472985491
12:04:00,0,D14,7 Av,-73.981637,40.762862,195.1123547810545
12:07:00,0,D15,47-50 Sts-Rockefeller Ctr,-73.981329,40.758663,250.71428571428572
12:07:00,0,D16,42 St-Bryant Pk,-73.984569,40.754222,345.00955779278706
12:07:00,0,D17,34 St-Herald Sq,-73.987823,40.749719,424.932432464128
12:07:00,0,D18,23 St,-73.992821,40.742878,545.524005980895
12:07:00,0,D19,14 St,-73.996209,40.738228,622.436064004467
12:19:00,0,D20,W 4 St-Wash Sq,-74.000495,40.732338,754.8681315150155
12:19:00,0,D21,Broadway-Lafayette St,-73.996204,40.725297,917.5825390171469
12:19:00,0,D22,Grand St,-73.993753,40.718267,1140.542631648589
12:49:00,0,D24,Atlantic Av-Barclays Ctr,-73.97689,40.68446,1795.004325613316
12:49:00,0,D25,7 Av,-73.972367,40.67705,1944.1200068472494
12:49:00,0,D26,Prospect Park,-73.962246,40.661614,2151.698406326755
12:19:00,0,D27,Parkside Av,-73.961495,40.655292,2247.5699892892467
12:49:00,0,D28,Church Av,-73.962982,40.650527,2350.727245428029
13:49:00,0,D29,Beverley Rd,-73.964492,40.644031,2426.289618096234
12:49:00,0,D30,Cortelyou Rd,-73.963891,40.640927,2504.4266480516194
12:49:00,0,D31,Newkirk Plaza,-73.962793,40.635082,2529.4712454280293
13:49:00,0,D32,Avenue H,-73.961639,40.62927,2642.796024471943
13:49:00,0,D33,Avenue J,-73.960803,40.625039,2739.680565844618
13:49:00,0,D34,Avenue M,-73.959399,40.617618,2850.486915050967
12:49:00,0,D35,Kings Hwy,-73.957734,40.60867,2794.8666176614297
12:19:00,0,D37,Avenue U,-73.955929,40.5993,3014.2148607762956
12:19:00,0,D38,Neck Rd,-73.955161,40.595246,3118.3126181080956
12:49:00,0,D39,Sheepshead Bay,-73.954155,40.586896,3064.0270237528002
12:19:00,0,D40,Brighton Beach,-73.961376,40.577621,3214.5986068168854
12:19:00,0,D41,Ocean Pkwy,-73.968501,40.576312,3360.9644711561027
12:19:00,0,D42,W 8 St-NY Aquarium,-73.975939,40.576127,3475.514151574464
12:19:00,0,D43,Coney Island-Stillwell Av,-73.981233,40.577422,3564.280109021273
12:04:00,0,E01,World Trade Center,-74.009781,40.712582,1228.8637706192849
12:33:00,0,F01,Jamaica-179 St,-73.783817,40.712646,2051.0598254519227
13:27:30,0,F02,169 St,-73.793604,40.71047,1991.9008139552743
12:03:00,0,F03,Parsons Blvd,-73.803326,40.707564,1847.6312540233512
12:03:00,0,F04,Sutphin Blvd,-73.810708,40.70546,1781.9008139552743
12:03:00,0,F05,Briarwood,-73.820574,40.709179,1652.4215706991704
12:03:00,0,F06,Kew Gardens-Union Tpke,-73.831008,40.714441,1496.6868095789068
12:03:00,0,F07,75 Av,-73.837324,40.718331,1405.4130090772258
12:00:30,0,F09,Court Sq-23 St,-73.946,40.747846,190.9090909090909
12:17:00,0,F11,Lexington Av/53 St,-73.969055,40.757552,0.0
12:04:00,0,F12,5 Av/53 St,-73.975224,40.760167,74.275
12:37:00,0,F14,2 Av,-73.989938,40.723402,1218.951216061479
12:37:00,0,F15,Delancey St-Essex St,-73.988114,40.718611,1321.9620633503957
12:37:00,0,F16,East Broadway,-73.990173,40.713715,1405.371370093036
12:37:00,0,F18,York St,-73.986751,40.701397,1570.7113605828124
12:37:00,0,F20,Bergen St,-73.990862,40.686145,1647.9879478757862
12:37:00,0,F21,Carroll St,-73.995048,40.680303,1749.341919838403
12:37:00,0,F22,Smith-9 Sts,-73.995959,40.67358,1901.343673199011
12:37:00,0,F23,4 Av-9 St,-73.989779,40.670272,1989.0475080072706
12:37:00,0,F24,7 Av,-73.980305,40.666271,2099.981586877194
12:37:00,0,F25,15 St-Prospect Park,-73.979493,40.660365,2214.1859578163553
12:37:00,0,F26,Fort Hamilton Pkwy,-73.975776,40.650782,2386.9584696646966
12:37:00,0,F27,Church Av,-73.979678,40.644041,2364.9402280570794
12:37:00,0,F29,Ditmas Av,-73.978172,40.636119,2484.9402280570794
12:37:00,0,F30,18 Av,-73.976971,40.629755,2604.9402280570794
12:37:00,0,F31,Avenue I,-73.976127,40.625322,2664.9402280570794
12:37:00,0,F32,Bay Pkwy,-73.975264,40.620769,2724.9402280570794
12:37:00,0,F33,Avenue N,-73.974197,40.61514,2844.9402280570794
12:37:00,0,F34,Avenue P,-73.973022,40.608944,2934.9402280570794
12:37:00,0,F35,Kings Hwy,-73.972361,40.603217,3111.340344201097
13:28:30,0,F36,Avenue U,-73.973357,40.596063,3219.3165346772876
13:28:30,0,F38,Avenue X,-73.97425,40.58962,3321.2927251534784
13:28:30,0,F39,Neptune Av,-73.974574,40.581011,3442.1260584868114
13:58:30,0,G05,Jamaica Center-Parsons/Archer,-73.801109,40.702147,1991.0520808921697
12:08:00,0,G06,Sutphin Blvd-Archer Av-JFK Airport,-73.807969,40.700486,1880.3465663952961
12:08:00,0,G07,Jamaica-Van Wyck,-73.816859,40.702566,1744.8978715258093
12:03:00,0,G08,Forest Hills-71 Av,-73.844521,40.721691,1271.9008139552743
12:20:30,0,G09,67 Av,-73.852719,40.726523,1420.890746398981
12:20:30,0,G10,63 Dr-Rego Park,-73.861604,40.729846,1315.9758787486492
12:20:30,0,G11,Woodhaven Blvd,-73.869229,40.733106,1203.8504174940367
12:20:30,0,G12,Grand Av-Newtown,-73.877223,40.737015,1085.7472867389722
12:20:30,0,G13,Elmhurst Av,-73.882017,40.742454,980.1561265179778
12:03:00,0,G14,Jackson Hts-Roosevelt Av,-73.891338,40.746644,815.8607081818059
12:51:00,0,G15,65 St,-73.898453,40.749669,847.6090909090909
12:00:30,0,G16,Northern Blvd,-73.906006,40.752885,745.3090909090909
12:00:30,0,G18,46 St,-73.913333,40.756312,655.3090909090909
12:00:30,0,G19,Steinway St,-73.92074,40.756879,535.3090909090909
12:00:30,0,G20,36 St,-73.928781,40.752039,415.3090909090909
12:00:30,0,G21,Queens Plaza,-73.937243,40.748973,295.3090909090909
12:30:30,1,G22,Court Sq,-73.943832,40.746554,263.57142857142856
12:20:30,1,G24,21 St,-73.949724,40.744065,358.3062111801242
12:20:30,1,G26,Greenpoint Av,-73.954449,40.731352,498.9009905461901
12:20:30,1,G28,Nassau Av,-73.951277,40.724635,609.8507454481509
12:20:30,1,G29,Metropolitan Av,-73.951418,40.712792,761.9683562855894
12:20:30,1,G30,Broadway,-73.950308,40.706092,850.9252793625124
12:20:30,1,G31,Flushing Av,-73.950234,40.700377,942.3256483662024
12:20:30,1,G32,Myrtle-Willoughby Avs,-73.949046,40.694568,1028.4029015850865
12:20:30,1,G33,Bedford-Nostrand Avs,-73.953522,40.689627,1133.690827281681
12:20:30,1,G34,Classon Av,-73.96007,40.688873,1217.301404204758
12:20:30,1,G35,Clinton-Washington Avs,-73.966839,40.688089,1298.813767632015
12:20:30,1,G36,Fulton St,-73.975375,40.687119,1389.6196095564137
12:34:00,0,H01,Aqueduct Racetrack,-73.834058,40.668234,3007.753754778586
12:34:00,0,H02,Aqueduct-N Conduit Av,-73.834058,40.668234,3068.8932911488855
12:34:00,0,H03,Howard Beach-JFK Airport,-73.830301,40.660476,3185.500265837228
12:34:00,0,H04,Broad Channel,-73.815925,40.608382,3650.881822520815
12:34:00,0,H06,Beach 67 St,-73.796924,40.590927,3979.848334148722
12:34:00,0,H07,Beach 60 St,-73.788522,40.592374,4105.705080913972
12:34:00,0,H08,Beach 44 St,-73.776013,40.592943,4215.381306630901
12:34:00,0,H09,Beach 36 St,-73.768175,40.595398,4316.653528853123
12:34:00,0,H10,Beach 25 St,-73.761353,40.600066,4417.09404929922
12:34:00,0,H11,Far Rockaway-Mott Av,-73.755405,40.603995,4507.39363607608
12:34:00,0,H12,Beach 90 St,-73.813641,40.588034,3920.9389653779585
12:34:00,0,H13,Beach 98 St,-73.820558,40.585307,4021.0427389628644
12:34:00,0,H14,Beach 105 St,-73.827559,40.583209,4110.718929439055
12:34:00,0,H15,Rockaway Park-Beach 116 St,-73.835592,40.580903,4214.268379988505
13:58:30,0,J12,121 St,-73.828294,40.700492,2282.584271313329
13:58:30,0,J13,111 St,-73.836345,40.697418,2305.9994737752486
13:58:30,0,J14,104 St,-73.84433,40.695178,2473.3042713133286
13:58:30,0,J15,Woodhaven Blvd,-73.851576,40.693879,2592.9994737752486
13:58:30,0,J16,85 St-Forest Pkwy,-73.86001,40.692435,2791.6051192641676
13:58:30,0,J17,75 St-Elderts Ln,-73.867139,40.691324,2599.220911952686
13:58:30,0,J19,Cypress Hills,-73.87255,40.689941,2623.9837600408664
13:58:30,0,J20,Crescent St,-73.873785,40.683194,2449.220911952686
13:58:30,0,J21,Norwood Av,-73.880039,40.68141,2359.220911952686
13:58:30,0,J22,Cleveland St,-73.884639,40.679947,2369.0746057023734
13:19:00,0,J23,Van Siclen Av,-73.891688,40.678024,2209.220911952686
13:19:00,0,J24,Alabama Av,-73.898654,40.676992,2149.220911952686
13:19:00,0,J27,Broadway Junction,-73.904512,40.679498,2045.9025246827125
13:19:00,0,J28,Chauncey St,-73.910456,40.682893,2119.220911952686
13:19:00,0,J29,Halsey St,-73.916559,40.68637,2247.7237795005112
13:19:00,0,J30,Gates Av,-73.92227,40.68963,2134.6401877565104
13:19:00,0,J31,Kosciuszko St,-73.928814,40.693342,2066.3785197618226
12:28:30,1,L01,8 Av,-74.002578,40.739777,798.9708311128749
12:11:30,1,L02,6 Av,-73.996786,40.737335,850.6178827281456
12:28:30,1,L03,14 St-Union Sq,-73.99073,40.734789,940.6216102781286
12:28:30,1,L05,3 Av,-73.986122,40.732849,991.9624047225698
12:28:30,1,L06,1 Av,-73.981628,40.730953,1041.630294019002
12:20:30,2,L08,Bedford Av,-73.956872,40.717304,1102.8820239751487
12:20:30,2,L10,Lorimer St,-73.950275,40.714063,1029.9413286786253
12:20:30,2,L11,Graham Av,-73.944053,40.714565,1070.6030882299747
12:20:30,2,L12,Grand St,-73.94067,40.711926,1157.1445880203353
12:20:30,2,L13,Montrose Av,-73.93985,40.707739,1196.758250433713
12:20:30,2,L14,Morgan Av,-73.933147,40.706152,1267.429404240666
12:20:30,2,L15,Jefferson St,-73.922913,40.706607,1352.8576531926167
12:20:30,2,L16,DeKalb Av,-73.918425,40.703811,1420.5943044780486
12:20:30,2,L17,Myrtle-Wyckoff Avs,-73.911586,40.699814,1499.3519399460288
12:20:30,2,L19,Halsey St,-73.904084,40.695602,1547.6355763096653
12:20:30,2,L20,Wilson Av,-73.904046,40.688764,1667.985730789583
12:20:30,2,L21,Bushwick Av-Aberdeen St,-73.905249,40.682829,1760.6596675398555
12:20:30,2,L22,Broadway Junction,-73.90324,40.678856,1820.9025246827127
12:08:00,2,L24,Atlantic Av,-73.903097,40.675345,1925.3048550459753
12:08:00,2,L25,Sutter Av,-73.901975,40.669367,2001.8045214902716
12:08:00,2,L26,Livonia Av,-73.900571,40.664038,2067.53312203375
12:08:00,2,L27,New Lots Av,-73.899232,40.658733,2121.3553364941063
12:08:00,2,L28,East 105 St,-73.899485,40.650573,2231.581758130722
12:08:00,2,L29,Canarsie-Rockaway Pkwy,-73.90185,40.646654,2355.355927596941
13:49:00,0,M01,Middle Village-Metropolitan Av,-73.889601,40.711396,2123.9103475035463
13:19:00,0,M04,Fresh Pond Rd,-73.895877,40.706186,2003.3285614734846
13:49:00,0,M05,Forest Av,-73.903077,40.704423,1905.8089708520815
13:19:00,0,M06,Seneca Av,-73.90774,40.702762,1810.949333980573
13:19:00,0,M08,Myrtle-Wyckoff Avs,-73.912385,40.69943,1724.3519399460288
12:49:00,0,M09,Knickerbocker Av,-73.919711,40.698664,1824.7483307363213
13:19:00,0,M10,Central Av,-73.927397,40.697857,1939.7690074280508
12:49:00,0,M11,Myrtle Av,-73.935657,40.697207,1901.2155662584025
12:49:00,0,M12,Flushing Av,-73.941126,40.70026,1751.3117534334458
12:49:00,0,M13,Lorimer St,-73.947408,40.703869,1649.9378328807688
12:49:00,0,M14,Hewes St,-73.953431,40.70687,1556.8791109463991
12:49:00,0,M16,Marcy Av,-73.957757,40.708359,1479.1458355337145
12:49:00,0,M18,Delancey St-Essex St,-73.987437,40.718315,1104.940228057079
12:19:00,0,M19,Bowery,-73.993915,40.72028,1387.9604070887535
12:19:00,0,M20,Canal St,-73.999892,40.718092,1272.6473988985745
12:19:00,0,M21,Chambers St,-74.003401,40.713243,1179.0042715341356
13:41:30,2,M22,Fulton St,-74.007582,40.710374,1272.9697420825444
12:19:00,0,M23,Broad St,-74.011056,40.706476,1337.8767188267307
12:07:00,1,N02,8 Av,-74.011719,40.635064,2718.5055728081834
12:07:00,1,N03,Fort Hamilton Pkwy,-74.005351,40.631386,2806.28623947485
12:07:00,1,N04,New Utrecht Av,-73.996353,40.624842,2923.3977880312805
12:07:00,1,N05,18 Av,-73.990414,40.620671,3019.3680654421128
12:07:00,1,N06,20 Av,-73.985026,40.61741,3106.804573378621
12:07:00,1,N07,Bay Pkwy,-73.981848,40.611815,3204.576096557429
12:07:00,1,N08,Kings Hwy,-73.980353,40.603923,3332.080427003798
12:07:00,1,N09,Avenue U,-73.979137,40.597473,3447.772683345587
12:07:00,1,N10,86 St,-73.97823,40.592721,3576.349284104725
12:19:00,1,Q01,Canal St,-74.00046,40.718383,1064.6291650753592
12:17:00,0,Q03,72 St,-73.958424,40.768799,797.7525085089595
12:17:00,0,Q04,86 St,-73.951787,40.777891,937.25370999658
12:17:00,0,Q05,96 St,-73.947152,40.784318,1023.1896290806956
12:00:30,2,R01,Astoria-Ditmars Blvd,-73.912034,40.775036,1161.2442507832188
12:00:30,2,R03,Astoria Blvd,-73.917843,40.770258,1064.948904154539
12:00:30,2,R04,30 Av,-73.921479,40.766779,958.2519643717158
12:00:30,2,R05,Broadway,-73.925508,40.76182,862.8710119907633
12:00:30,2,R06,36 Av,-73.929575,40.756804,750.3897866943207
12:00:30,2,R08,39 Av-Dutch Kills,-73.932755,40.752882,632.8448765146799
12:00:30,2,R09,Queensboro Plaza,-73.940202,40.750582,470.4001003952769
12:03:00,0,R11,Lexington Av/59 St,-73.967258,40.76266,553.1436866865567
12:03:00,0,R13,5 Av/59 St,-73.973347,40.764811,654.8725948751423
12:49:00,0,R14,57 St-7 Av,-73.980658,40.764664,699.6646812692604
12:07:00,1,R15,49 St,-73.984139,40.759901,610.5357576242078
12:07:00,1,R16,Times Sq-42 St,-73.986754,40.754672,516.5308700386751
12:28:30,1,R17,34 St-Herald Sq,-73.98795,40.749567,619.5106198897768
12:11:30,1,R18,28 St,-73.988691,40.745494,705.8881290300692
12:11:30,1,R19,23 St,-73.989344,40.741303,788.782270175209
13:37:00,1,R20,14 St-Union Sq,-73.990568,40.735736,789.6345769815528
12:11:30,1,R21,8 St-NYU,-73.992629,40.730328,991.510379452325
12:11:30,1,R22,Prince St,-73.997702,40.724329,1115.2173686996368
12:11:30,1,R23,Canal St,-74.001775,40.719527,1228.430738044674
12:19:00,1,R24,City Hall,-74.006978,40.713282,1393.884171083423
12:19:00,1,R25,Cortlandt St,-74.011029,40.710668,1288.8637706192849
12:41:30,1,R26,Rector St,-74.013342,40.70722,1404.311593701524
12:41:30,1,R27,Whitehall St-South Ferry,-74.012994,40.703087,1495.428873368422
13:19:00,0,R28,Court St,-73.991777,40.6941,1699.397623368422
13:19:00,0,R29,Jay St-MetroTech,-73.985942,40.69218,1784.4210453072014
12:49:00,0,R30,DeKalb Av,-73.981824,40.690635,1589.9686059784913
12:11:30,0,R31,Atlantic Av-Barclays Ctr,-73.97881,40.683666,1753.027003613045
12:11:30,0,R32,Union St,-73.98311,40.677316,1899.138117030211
12:11:30,0,R33,4 Av-9 St,-73.988302,40.670847,2011.1933934121205
12:11:30,0,R34,Prospect Av,-73.992872,40.665414,2120.8768104975475
12:11:30,0,R35,25 St,-73.998091,40.660397,2229.949692726672
12:11:30,0,R36,36 St,-74.003549,40.655144,2149.891553191788
12:11:30,0,R39,45 St,-74.010006,40.648939,2368.8733150241596
12:11:30,0,R40,53 St,-74.014034,40.645069,2462.648677343
12:07:00,1,R41,59 St,-74.017881,40.641362,2530.45229938472
12:11:30,0,R42,Bay Ridge Av,-74.023377,40.634967,2694.926548170928
12:11:30,0,R43,77 St,-74.02551,40.629742,2777.5352152753276
12:11:30,0,R44,86 St,-74.028398,40.622687,2961.987150356476
12:41:30,0,R45,Bay Ridge-95 St,-74.030876,40.616622,3030.568889486911
12:49:00,0,S01,Franklin Av,-73.955827,40.680596,2114.3174394015828
12:49:00,0,S03,Park Pl,-73.957624,40.674772,2230.65771717936
12:49:00,0,S04,Botanic Garden,-73.959245,40.670343,2355.2335186609625
