start_time,ntransfers,stop_id,stop_name,stop_lon,stop_lat,duration
12:03:00,1,101,Van Cortlandt Park-242 St,-73.898583,40.889248,4735.514834300308
12:03:00,1,103,238 St,-73.90087,40.884667,4628.764086117324
12:03:00,1,104,231 St,-73.904834,40.878856,4533.928979734345
12:03:00,1,106,Marble Hill-225 St,-73.909831,40.874561,4440.4571132228975
12:03:00,1,107,215 St,-73.915279,40.869444,4332.33254977703
12:03:00,1,108,207 St,-73.918822,40.864621,4253.3477544553925
12:03:00,1,109,Dyckman St,-73.925536,40.860531,4155.311127397902
12:03:00,1,110,191 St,-73.929412,40.855225,4065.092079778855
12:03:00,1,111,181 St,-73.933596,40.849505,3969.847491034266
12:21:00,1,112,168 St-Washington Hts,-73.940133,40.840556,3848.997165654656
12:21:00,1,113,157 St,-73.94489,40.834041,3899.99148742208
12:21:00,1,114,145 St,-73.95036,40.826551,3784.326840083266
12:21:00,1,115,137 St-City College,-73.953676,40.822008,3683.2840570236285
12:21:00,1,116,125 St,-73.958372,40.815581,3584.5229251051933
12:21:00,1,117,116 St-Columbia University,-73.96411,40.807722,3466.3668557410315
12:21:00,1,118,Cathedral Pkwy (110 St),-73.966847,40.803967,3388.3360422652718
12:21:00,1,119,103 St,-73.968379,40.799446,3309.01786044709
12:21:00,1,120,96 St,-73.972323,40.793919,3058.330854748496
13:49:00,1,121,86 St,-73.976218,40.788644,3094.878258573554
13:49:00,1,122,79 St,-73.979917,40.783934,3016.1031974488596
12:21:00,1,123,72 St,-73.98197,40.778453,2866.468553646905
12:28:00,1,124,66 St-Lincoln Center,-73.982209,40.77344,2919.812691205717
12:03:00,1,125,59 St-Columbus Circle,-73.981929,40.768247,2838.714720870042
12:03:00,1,126,50 St,-73.983849,40.761728,2730.08726988965
12:21:00,1,127,Times Sq-42 St,-73.987495,40.75529,2617.890175268527
12:21:00,1,128,34 St-Penn Station,-73.991057,40.750373,2517.2754925952036
12:21:00,1,129,28 St,-73.993365,40.747215,2628.144847348656
12:21:00,1,130,23 St,-73.995657,40.744081,2559.5176169374845
12:21:00,1,131,18 St,-73.997871,40.74104,2491.0771037181994
12:21:00,1,132,14 St,-74.000201,40.737826,2358.271986283843
13:49:00,1,133,Christopher St-Sheridan Sq,-74.002906,40.733422,2432.281942983504
13:49:00,1,134,Houston St,-74.005367,40.728251,2352.2823494875693
13:49:00,1,135,Canal St,-74.006277,40.722854,2262.5247368200903
13:49:00,1,136,Franklin St,-74.006886,40.719318,2197.369487529454
12:21:00,1,137,Chambers St,-74.009266,40.715478,2103.132029052222
12:03:00,1,138,WTC Cortlandt,-74.012188,40.711835,2056.0904168442507
12:03:00,1,139,Rector St,-74.013783,40.707513,1976.7918499652699
12:03:00,1,142,South Ferry,-74.013664,40.702068,1872.0714285714284
13:19:00,1,201,Wakefield-241 St,-73.85062,40.903125,5660.396955992897
13:19:00,1,204,Nereid Av,-73.854376,40.898379,5432.132907654529
13:19:00,1,205,233 St,-73.857473,40.893193,5300.132907654529
13:19:00,1,206,225 St,-73.860341,40.888022,5204.132907654529
13:19:00,1,207,219 St,-73.862633,40.883895,5122.13290765453
13:19:00,1,208,Gun Hill Rd,-73.866256,40.87785,5013.632907654529
13:19:00,1,209,Burke Av,-73.867164,40.871356,5091.13290765453
13:19:00,1,210,Allerton Av,-73.867352,40.865462,5060.845126594984
13:19:00,1,211,Pelham Pkwy,-73.867615,40.857192,4948.937080617973
13:19:00,1,212,Bronx Park East,-73.868457,40.848828,4821.787080617973
13:19:00,1,213,E 180 St,-73.873488,40.841894,4601.839804206253
13:19:00,1,214,West Farms Sq-E Tremont Av,-73.880049,40.840295,4470.145608611
13:19:00,1,215,174 St,-73.887734,40.837288,4344.1062444929075
13:19:00,1,216,Freeman St,-73.891865,40.829993,4221.598355687499
13:19:00,1,217,Simpson St,-73.893064,40.824073,4108.385669120335
13:19:00,1,218,Intervale Av,-73.896736,40.822181,4033.721234596525
13:19:00,1,219,Prospect Av,-73.90177,40.819585,3950.155855696079
13:19:00,1,220,Jackson Av,-73.907807,40.81649,3850.4293220671066
13:19:00,1,221,3 Av-149 St,-73.917757,40.816109,3711.4579144424733
13:19:00,1,222,149 St-Grand Concourse,-73.926718,40.81841,3579.7984656235753
12:21:00,1,224,135 St,-73.94077,40.814229,3598.634439904127
12:21:00,1,225,125 St,-73.945495,40.807754,3487.6824816795834
12:21:00,1,226,116 St,-73.949625,40.802098,3388.539247007279
12:21:00,1,227,Central Park North (110 St),-73.951822,40.799075,3319.1576889786616
12:21:00,1,228,Park Place,-74.008811,40.713051,2004.271778006197
12:03:00,1,229,Fulton St,-74.006571,40.709416,1906.5418860759369
13:19:00,1,230,Wall St,-74.0091,40.706821,1981.9569804155594
12:15:00,2,231,Clark St,-73.993086,40.697466,1781.285030758715
12:21:00,2,232,Borough Hall,-73.989998,40.693219,1692.0
12:21:00,2,233,Hoyt St,-73.985065,40.690545,1779.7578947368422
12:21:00,2,234,Nevins St,-73.980492,40.688246,1726.8357511993233
12:21:00,2,235,Atlantic Av-Barclays Ctr,-73.977666,40.684359,1643.001644470785
12:51:00,2,236,Bergen St,-73.975098,40.680829,1722.0238537051507
12:51:00,2,237,Grand Army Plaza,-73.971046,40.675235,1831.1717122946882
12:51:00,2,238,Eastern Pkwy-Brooklyn Museum,-73.964375,40.671987,1934.3156516886277
12:21:00,2,239,Franklin Av-Medgar Evers College,-73.958131,40.670682,1896.332441190846
12:21:00,2,241,President St-Medgar Evers College,-73.950683,40.667883,2095.7821730943315
12:21:00,2,242,Sterling St,-73.95085,40.662742,2190.6137167184925
12:21:00,2,243,Winthrop St,-73.9502,40.656652,2284.218820815202
12:21:00,2,244,Church Av,-73.949575,40.650843,2368.261417164086
12:21:00,2,245,Beverly Rd,-73.948959,40.645098,2474.4375535277222
12:21:00,2,246,Newkirk Av-Little Haiti,-73.948411,40.639967,2591.2696145979166
12:21:00,2,247,Flatbush Av-Brooklyn College,-73.947642,40.632836,2741.8891720568745
12:21:00,2,248,Nostrand Av,-73.950466,40.669847,2059.346311281132
12:21:00,2,249,Kingston Av,-73.942161,40.669399,2156.497826432647
13:28:00,2,250,Crown Hts-Utica Av,-73.932942,40.668897,2226.2525332684254
12:21:00,2,251,Sutter Av-Rutland Rd,-73.92261,40.664717,2366.022156316301
12:21:00,2,252,Saratoga Av,-73.916327,40.661453,2471.762416056561
12:21:00,2,253,Rockaway Av,-73.908946,40.662549,2563.694674121077
12:21:00,2,254,Junius St,-73.902447,40.663515,2644.877366428769
12:21:00,2,255,Pennsylvania Av,-73.894895,40.664635,2754.6098505052023
12:21:00,2,256,Van Siclen Av,-73.889395,40.665449,2834.59086316343
12:21:00,2,257,New Lots Av,-73.884079,40.666235,2917.0096761255677
12:39:00,1,301,Harlem-148 St,-73.93647,40.82388,3855.3239165580735
12:39:00,1,302,145 St,-73.936245,40.820421,3738.7638948307513
12:03:00,1,401,Woodlawn,-73.878751,40.886037,4925.6698681135185
12:03:00,1,402,Mosholu Pkwy,-73.884655,40.87975,4768.221496851902
12:03:00,1,405,Bedford Park Blvd-Lehman College,-73.890064,40.873412,4652.83264089458
12:03:00,1,406,Kingsbridge Rd,-73.897174,40.86776,4536.460004632067
12:03:00,1,407,Fordham Rd,-73.901034,40.862803,4439.537782409845
12:03:00,1,408,183 St,-73.903879,40.858407,4354.940990374446
12:03:00,1,409,Burnside Av,-73.907684,40.853453,4253.6634967683085
12:03:00,1,410,176 St,-73.911794,40.84848,4182.9992878923695
12:03:00,1,411,Mt Eden Av,-73.914685,40.844434,4103.652349116858
12:03:00,1,412,170 St,-73.917791,40.840075,4023.445964967161
12:03:00,1,413,167 St,-73.9214,40.835537,3934.3174173878624
12:03:00,1,414,161 St-Yankee Stadium,-73.925831,40.827994,3755.762029673865
12:03:00,1,415,149 St-Grand Concourse,-73.927351,40.818375,3577.847846734502
13:19:00,1,416,138 St-Grand Concourse,-73.929849,40.813224,3395.962054014077
12:08:30,1,418,Fulton St,-74.009509,40.710368,1898.3777754883863
12:21:00,1,419,Wall St,-74.011862,40.707557,1977.0371889226342
12:21:00,1,420,Bowling Green,-74.014065,40.704817,1947.5221948212084
12:21:00,2,423,Borough Hall,-73.990151,40.692404,1691.2647063732147
13:57:30,1,501,Eastchester-Dyre Av,-73.830834,40.8883,5329.540893372373
13:19:00,1,502,Baychester Av,-73.838591,40.878663,5181.9088861391
13:19:00,1,503,Gun Hill Rd,-73.846384,40.869526,5066.950142441283
13:19:00,1,504,Pelham Pkwy,-73.855359,40.858985,4916.950142441283
13:19:00,1,505,Morris Park,-73.860495,40.854364,4826.950142441283
13:04:30,1,601,Pelham Bay Park,-73.828121,40.852462,5008.864327433666
13:04:30,1,602,Buhre Av,-73.832569,40.84681,4831.60116953893
13:04:30,1,603,Middletown Rd,-73.836322,40.843863,4761.3080660906535
13:04:30,1,604,Westchester Sq-E Tremont Av,-73.842952,40.839892,4629.131595502418
13:04:30,1,606,Zerega Av,-73.847036,40.836488,4542.081595502418
13:04:30,1,607,Castle Hill Av,-73.851222,40.834255,4472.835693863074
12:03:00,1,608,Parkchester,-73.860816,40.833226,4287.421900759626
12:03:00,1,609,St Lawrence Av,-73.867618,40.831509,4531.282233422425
12:03:00,1,610,Morrison Av-Soundview,-73.874516,40.829521,4430.131189441971
12:03:00,1,611,Elder Av,-73.879159,40.828584,4357.40578498198
12:03:00,1,612,Whitlock Av,-73.886283,40.826525,4244.7010230772175
12:03:00,1,613,Hunts Point Av,-73.890549,40.820948,4015.0219007596256
13:19:00,1,614,Longwood Av,-73.896435,40.816104,4134.113196153132
13:19:00,1,615,E 149 St,-73.904098,40.812118,4031.3424140577063
13:19:00,1,616,E 143 St-St Mary's St,-73.907657,40.808719,3954.668317970534
13:19:00,1,617,Cypress Av,-73.914042,40.805368,3843.25336776368
13:19:00,1,618,Brook Av,-73.91924,40.807566,3767.634418653213
12:03:00,1,619,3 Av-138 St,-73.926138,40.810476,3647.3765106887035
13:19:00,1,621,125 St,-73.937594,40.804138,3212.9784797696616
13:19:00,1,622,116 St,-73.941617,40.798629,3450.569807849058
12:03:00,1,623,110 St,-73.94425,40.79502,3370.019472278588
12:03:00,1,624,103 St,-73.947478,40.7906,3290.9797371792506
12:03:00,1,625,96 St,-73.95107,40.785672,3201.210000337145
13:19:00,1,626,86 St,-73.955589,40.779492,2904.657933605812
12:03:00,1,627,77 St,-73.959874,40.77362,2999.233675376203
12:03:00,1,628,68 St-Hunter College,-73.96387,40.768141,2909.096175376203
13:19:00,1,629,59 St,-73.967967,40.762526,2704.6032360511144
12:03:00,1,630,51 St,-73.97192,40.757107,2707.668606357798
13:19:00,1,631,Grand Central-42 St,-73.976848,40.751776,2537.7563430338178
12:58:00,1,632,33 St,-73.982076,40.746081,2456.3815732810945
12:58:00,1,633,28 St,-73.984264,40.74307,2388.6791923287137
12:58:00,1,634,23 St,-73.986599,40.739864,2322.3774171807845
12:58:00,1,635,14 St-Union Sq,-73.989951,40.734673,2188.6113353094393
12:58:00,1,636,Astor Pl,-73.99107,40.730054,2109.648372346476
12:03:00,1,637,Bleecker St,-73.994659,40.725915,2016.1904776096344
12:03:00,1,638,Spring St,-73.997141,40.722301,2087.4470221122524
12:03:00,1,639,Canal St,-74.000193,40.718803,2166.4055713350504
13:19:00,1,640,Brooklyn Bridge-City Hall,-74.004131,40.713065,2014.6409583862485
12:15:00,1,701,Flushing-Main St,-73.83003,40.7596,3998.502951046905
13:57:30,1,702,Mets-Willets Point,-73.845625,40.754622,3833.480297325222
13:57:30,1,705,111 St,-73.855334,40.75173,3897.7007327877272
13:57:30,1,706,103 St-Corona Plaza,-73.8627,40.749865,3818.793362943238
13:57:30,1,707,Junction Blvd,-73.869527,40.749145,3614.619249489231
13:57:30,1,708,90 St-Elmhurst Av,-73.876613,40.748408,3691.229243193931
13:57:30,1,709,82 St-Jackson Hts,-73.883697,40.747659,3603.561677708569
12:15:00,1,710,74 St-Broadway,-73.891394,40.746848,3442.7242002310913
12:15:00,1,711,69 St,-73.896403,40.746325,3373.7877137446044
12:15:00,1,712,61 St-Woodside,-73.902984,40.74563,3291.868191218613
12:15:00,1,713,52 St,-73.912549,40.744149,3197.2781043879327
12:15:00,1,714,46 St-Bliss St,-73.918435,40.743132,3136.5484357132336
12:15:00,1,715,40 St-Lowery St,-73.924016,40.743781,3068.434181088642
12:15:00,1,716,33 St-Rawson St,-73.930997,40.744587,2989.6902416947028
12:15:00,1,718,Queensboro Plaza,-73.940202,40.750582,2849.7116609020127
12:15:00,1,719,Court Sq,-73.945264,40.747023,2754.575297265649
12:15:00,1,720,Hunters Point Av,-73.948916,40.742216,2849.662253787388
12:08:30,1,721,Vernon Blvd-Jackson Av,-73.953581,40.742626,2876.6622537873886
12:08:30,1,723,Grand Central-42 St,-73.976041,40.751431,2695.3183004099888
12:21:00,1,724,5 Av,-73.981963,40.753821,2625.0
12:03:00,1,725,Times Sq-42 St,-73.987691,40.755477,2617.890175268527
13:19:00,1,726,34 St-Hudson Yards,-74.00191,40.755882,2762.492365049549
12:21:00,1,901,Grand Central-42 St,-73.979189,40.752769,2636.3422514125696
12:03:00,2,902,Times Sq-42 St,-73.986229,40.755983,2557.890175268527
12:21:00,0,A02,Inwood-207 St,-73.919899,40.868072,4193.890766223565
12:21:00,0,A03,Dyckman St,-73.927271,40.865491,4094.1519394079223
12:21:00,0,A05,190 St,-73.93418,40.859022,3963.771928424946
12:21:00,0,A06,181 St,-73.937969,40.851695,3850.8870165306726
12:21:00,0,A07,175 St,-73.939704,40.847391,3758.1020110179934
12:03:00,0,A09,168 St,-73.939561,40.840719,3623.508034442422
12:03:00,0,A10,163 St-Amsterdam Av,-73.939892,40.836013,3657.1205095988607
13:04:30,0,A11,155 St,-73.941514,40.830518,3572.2506826613135
12:03:00,0,A12,145 St,-73.944216,40.824783,3377.6965363771924
12:08:30,0,A14,135 St,-73.947649,40.817894,3288.8274833329683
12:03:00,0,A15,125 St,-73.952343,40.811109,3163.431927777413
12:28:00,0,A16,116 St,-73.954882,40.805085,3301.370348402271
12:28:00,0,A17,Cathedral Pkwy (110 St),-73.958161,40.800603,3336.4971293131257
12:28:00,0,A18,103 St,-73.961454,40.796092,3257.166772170269
12:28:00,0,A19,96 St,-73.964696,40.791642,3169.8992949666213
12:28:00,0,A20,86 St,-73.968916,40.785868,3058.698075454426
12:28:00,0,A21,81 St-Museum of Natural History,-73.972143,40.781433,2970.2514735126783
12:28:00,0,A22,72 St,-73.97641,40.775594,2870.293769585186
12:28:00,0,A24,59 St-Columbus Circle,-73.981736,40.768296,2662.4214939498456
12:03:00,0,A25,50 St,-73.985984,40.762456,2631.096532732733
12:03:00,0,A27,42 St-Port Authority Bus Terminal,-73.989735,40.757308,2497.890175268527
12:03:00,0,A28,34 St-Penn Station,-73.993391,40.752287,2392.973971239168
12:21:00,0,A30,23 St,-73.998041,40.745906,2284.7354281475123
12:03:00,0,A31,14 St,-74.00169,40.740893,2186.7509320234817
12:03:00,0,A32,W 4 St-Wash Sq,-74.000495,40.732338,2066.156587801151
12:21:00,0,A33,Spring St,-74.003739,40.726227,2017.578872520583
12:03:00,0,A34,Canal St,-74.005229,40.720824,1909.3007749864212
12:03:00,0,A36,Chambers St,-74.008585,40.714111,1775.9790946432363
12:03:00,0,A38,Fulton St,-74.007691,40.710197,1675.4501431565382
12:03:00,0,A40,High St,-73.990531,40.699337,1491.6287703016242
12:03:00,0,A41,Jay St-MetroTech,-73.987342,40.692338,1230.0
12:03:00,0,A42,Hoyt-Schermerhorn Sts,-73.985001,40.688484,1457.599937381582
13:12:00,0,A43,Lafayette Av,-73.973946,40.686113,1623.5506414050958
13:12:00,0,A44,Clinton-Washington Avs,-73.965838,40.683263,1708.5506414050958
13:12:00,0,A45,Franklin Av,-73.956848,40.68138,1814.26961658524
13:28:00,0,A46,Nostrand Av,-73.950426,40.680438,1761.4562874872033
13:12:00,0,A47,Kingston-Throop Avs,-73.940858,40.679921,1866.4356992519092
13:28:00,0,A48,Utica Av,-73.930729,40.679364,1936.9119693053851
13:12:00,0,A49,Ralph Av,-73.920786,40.678822,2046.5870481697382
13:12:00,0,A50,Rockaway Av,-73.911946,40.67834,2148.3053144236083
13:28:00,0,A51,Broadway Junction,-73.905316,40.678334,2171.607374864092
13:28:00,0,A52,Liberty Av,-73.896548,40.674542,2294.555859712577
13:28:00,0,A53,Van Siclen Av,-73.890358,40.67271,2381.1594633161803
13:28:00,0,A54,Shepherd Av,-73.88075,40.67413,2489.818217025379
13:28:00,0,A55,Euclid Av,-73.872106,40.675377,2526.5802562200242
13:28:00,0,A57,Grant Av,-73.86505,40.677044,2631.3540715595454
13:28:00,0,A59,80 St,-73.858992,40.679371,2745.5167962520713
13:28:00,0,A60,88 St,-73.85147,40.679843,2838.2892855428854
13:28:00,0,A61,Rockaway Blvd,-73.843853,40.680429,2949.2941258139404
12:45:00,0,A63,104 St,-73.837683,40.681711,3042.110452344553
12:45:00,0,A64,111 St,-73.832163,40.684331,3154.1466558670577
12:45:00,0,A65,Ozone Park-Lefferts Blvd,-73.825798,40.685951,3224.2560033097384
12:03:00,0,B04,21 St-Queensbridge,-73.942836,40.754203,3000.0
12:03:00,0,B06,Roosevelt Island,-73.95326,40.759145,2880.0
12:03:00,0,B08,Lexington Av/63 St,-73.966113,40.764629,2730.0
12:03:00,0,B10,57 St,-73.97745,40.763972,2580.0
12:15:00,1,B12,9 Av,-73.994324,40.646292,1788.2480885513135
12:15:00,1,B13,Fort Hamilton Pkwy,-73.994304,40.640914,1912.2803155196898
13:44:00,0,B14,50 St,-73.994791,40.63626,1830.9476319589357
13:44:00,0,B15,55 St,-73.995476,40.631435,1741.348150429448
13:44:00,0,B16,62 St,-73.996895,40.626472,1629.687676374355
13:44:00,0,B17,71 St,-73.998864,40.619589,1527.412740312974
13:44:00,0,B18,79 St,-74.00061,40.613501,1437.2141496659528
13:44:00,0,B19,18 Av,-74.001736,40.607954,1342.7256146341058
13:44:00,0,B20,20 Av,-73.998168,40.604556,1258.5967058912852
13:44:00,0,B21,Bay Pkwy,-73.993728,40.601875,1164.6214992797147
13:44:00,0,B22,25 Av,-73.986829,40.597704,1064.3686475686882
13:44:00,0,B23,Bay 50 St,-73.983765,40.588841,922.3565302217495
12:03:00,0,D01,Norwood-205 St,-73.878855,40.874811,4677.637503433472
12:03:00,0,D03,Bedford Park Blvd,-73.887138,40.873244,4508.937749111332
12:03:00,0,D04,Kingsbridge Rd,-73.893509,40.866978,4390.397364495947
12:03:00,0,D05,Fordham Rd,-73.897749,40.861296,4290.264478589907
12:03:00,0,D06,182-183 Sts,-73.900741,40.856093,4205.091691309692
13:12:00,0,D07,Tremont Av,-73.905227,40.85041,4121.491317826965
13:12:00,0,D08,174-175 Sts,-73.910136,40.8459,4094.573043970717
13:12:00,0,D09,170 St,-73.9134,40.839306,3989.0292344469076
13:12:00,0,D10,167 St,-73.91844,40.833771,3881.7910222462383
13:12:00,0,D11,161 St-Yankee Stadium,-73.925651,40.827905,3733.0123107616446
13:12:00,0,D12,155 St,-73.938209,40.830135,3599.536934564654
13:12:00,0,D13,145 St,-73.944216,40.824783,3451.625117767867
12:28:00,0,D14,7 Av,-73.981637,40.762862,2690.8840316804008
12:28:00,0,D15,47-50 Sts-Rockefeller Ctr,-73.981329,40.758663,2490.0
12:28:00,0,D16,42 St-Bryant Pk,-73.984569,40.754222,2400.0
12:28:00,0,D17,34 St-Herald Sq,-73.987823,40.749719,2310.0
12:03:00,0,D18,23 St,-73.992821,40.742878,2190.0
12:03:00,0,D19,14 St,-73.996209,40.738228,2085.0
12:28:00,0,D20,W 4 St-Wash Sq,-74.000495,40.732338,1965.0
12:03:00,0,D21,Broadway-Lafayette St,-73.996204,40.725297,1800.0
12:08:30,0,D22,Grand St,-73.993753,40.718267,2088.7781376698745
12:21:00,1,D24,Atlantic Av-Barclays Ctr,-73.97689,40.68446,1765.2635477567653
12:21:00,1,D25,7 Av,-73.972367,40.67705,1914.3792289906983
12:21:00,1,D26,Prospect Park,-73.962246,40.661614,2042.3477866408216
12:08:30,1,D27,Parkside Av,-73.961495,40.655292,2034.7968406422974
13:14:30,0,D28,Church Av,-73.962982,40.650527,1875.7926748197353
13:07:30,0,D29,Beverley Rd,-73.964492,40.644031,1841.5830194595123
13:07:30,0,D30,Cortelyou Rd,-73.963891,40.640927,1783.4428117443788
13:14:30,0,D31,Newkirk Plaza,-73.962793,40.635082,1663.9864547240416
13:07:30,0,D32,Avenue H,-73.961639,40.62927,1744.6890102596506
13:07:30,0,D33,Avenue J,-73.960803,40.625039,1674.2538008355666
13:07:30,0,D34,Avenue M,-73.959399,40.617618,1560.9466455127044
13:07:30,0,D35,Kings Hwy,-73.957734,40.60867,1404.3565586409081
13:07:30,0,D37,Avenue U,-73.955929,40.5993,1345.0417761778724
13:07:30,0,D38,Neck Rd,-73.955161,40.595246,1240.9440188460726
13:07:30,0,D39,Sheepshead Bay,-73.954155,40.586896,1105.7122006642544
13:07:30,0,D40,Brighton Beach,-73.961376,40.577621,963.5529685919787
13:07:30,0,D41,Ocean Pkwy,-73.968501,40.576312,872.0188509449199
12:21:30,0,D42,W 8 St-NY Aquarium,-73.975939,40.576127,532.4691705265584
12:21:30,0,D43,Coney Island-Stillwell Av,-73.981233,40.577422,648.3496926149119
13:19:00,0,E01,World Trade Center,-74.009781,40.712582,1961.2457171559165
12:03:00,0,F01,Jamaica-179 St,-73.783817,40.712646,4560.0
12:39:00,0,F02,169 St,-73.793604,40.71047,4470.0
12:03:00,0,F03,Parsons Blvd,-73.803326,40.707564,4350.0
12:03:00,0,F04,Sutphin Blvd,-73.810708,40.70546,4260.0
12:03:00,0,F05,Briarwood,-73.820574,40.709179,4140.0
13:28:00,0,F06,Kew Gardens-Union Tpke,-73.831008,40.714441,4020.0
12:03:00,0,F07,75 Av,-73.837324,40.718331,3930.0
12:28:00,0,F09,Court Sq-23 St,-73.946,40.747846,2754.575297265649
12:28:00,0,F11,Lexington Av/53 St,-73.969055,40.757552,2934.940228057079
12:28:00,0,F12,5 Av/53 St,-73.975224,40.760167,2835.756554587691
12:03:00,0,F14,2 Av,-73.989938,40.723402,1710.0
12:03:00,0,F15,Delancey St-Essex St,-73.988114,40.718611,1590.0
12:03:00,0,F16,East Broadway,-73.990173,40.713715,1500.0
12:03:00,0,F18,York St,-73.986751,40.701397,1320.0
12:03:00,0,F20,Bergen St,-73.990862,40.686145,1310.1587779612923
12:03:00,0,F21,Carroll St,-73.995048,40.680303,1208.8048059986754
12:03:00,0,F22,Smith-9 Sts,-73.995959,40.67358,1056.8030526380676
12:03:00,0,F23,4 Av-9 St,-73.989779,40.670272,969.0992178298081
12:03:00,0,F24,7 Av,-73.980305,40.666271,810.0
12:03:00,0,F25,15 St-Prospect Park,-73.979493,40.660365,880.2075442184138
12:03:00,0,F26,Fort Hamilton Pkwy,-73.975776,40.650782,732.9378881987578
12:03:00,0,F27,Church Av,-73.979678,40.644041,570.0
12:03:00,0,F29,Ditmas Av,-73.978172,40.636119,450.0
12:03:00,0,F30,18 Av,-73.976971,40.629755,330.0
12:03:00,0,F31,Avenue I,-73.976127,40.625322,270.0
12:03:00,0,F32,Bay Pkwy,-73.975264,40.620769,183.6904761904762
12:03:00,0,F33,Avenue N,-73.974197,40.61514,82.42857142857143
12:03:00,0,F34,Avenue P,-73.973022,40.608944,0.0
12:06:00,0,F35,Kings Hwy,-73.972361,40.603217,96.31726907630522
12:21:30,0,F36,Avenue U,-73.973357,40.596063,205.59523809523807
12:21:30,0,F38,Avenue X,-73.97425,40.58962,305.0725307308844
12:21:30,0,F39,Neptune Av,-73.974574,40.581011,428.4047619047619
12:03:00,1,G05,Jamaica Center-Parsons/Archer,-73.801109,40.702147,3748.3465048842336
13:19:00,1,G06,Sutphin Blvd-Archer Av-JFK Airport,-73.807969,40.700486,3688.3465048842336
12:28:00,0,G07,Jamaica-Van Wyck,-73.816859,40.702566,4054.500714250594
13:28:00,0,G08,Forest Hills-71 Av,-73.844521,40.721691,3810.0
13:57:30,0,G09,67 Av,-73.852719,40.726523,3945.5506276150622
12:03:00,1,G10,63 Dr-Rego Park,-73.861604,40.729846,3839.675099459274
12:03:00,1,G11,Woodhaven Blvd,-73.869229,40.733106,3727.5496382046617
12:03:00,1,G12,Grand Av-Newtown,-73.877223,40.737015,3609.4465074495974
12:03:00,1,G13,Elmhurst Av,-73.882017,40.742454,3503.855347228603
13:28:00,0,G14,Jackson Hts-Roosevelt Av,-73.891338,40.746644,3357.4722632809376
13:28:00,0,G15,65 St,-73.898453,40.749669,3444.587920871793
13:28:00,0,G16,Northern Blvd,-73.906006,40.752885,3350.2580239645763
13:28:00,0,G18,46 St,-73.913333,40.756312,3260.2580239645763
13:28:00,0,G19,Steinway St,-73.92074,40.756879,3143.350807469731
13:28:00,0,G20,36 St,-73.928781,40.752039,3023.350807469731
12:28:00,0,G21,Queens Plaza,-73.937243,40.748973,2877.9426442044246
12:15:00,0,G22,Court Sq,-73.943832,40.746554,2694.575297265649
12:15:00,0,G24,21 St,-73.949724,40.744065,2599.8405146569535
12:15:00,0,G26,Greenpoint Av,-73.954449,40.731352,2459.2457352908878
12:15:00,0,G28,Nassau Av,-73.951277,40.724635,2348.295980388927
12:15:00,0,G29,Metropolitan Av,-73.951418,40.712792,2196.1783695514887
12:15:00,0,G30,Broadway,-73.950308,40.706092,2107.2214464745657
12:15:00,0,G31,Flushing Av,-73.950234,40.700377,2015.8210774708755
12:15:00,0,G32,Myrtle-Willoughby Avs,-73.949046,40.694568,1929.7438242519916
12:15:00,0,G33,Bedford-Nostrand Avs,-73.953522,40.689627,1824.4558985553972
12:15:00,0,G34,Classon Av,-73.96007,40.688873,1740.8453216323203
12:15:00,0,G35,Clinton-Washington Avs,-73.966839,40.688089,1659.3329582050633
12:15:00,0,G36,Fulton St,-73.975375,40.687119,1568.5271162806646
12:33:00,0,H01,Aqueduct Racetrack,-73.834058,40.668234,3184.7990940233294
13:28:00,0,H02,Aqueduct-N Conduit Av,-73.834058,40.668234,3132.8590113101236
13:28:00,0,H03,Howard Beach-JFK Airport,-73.830301,40.660476,3284.050215899034
13:28:00,0,H04,Broad Channel,-73.815925,40.608382,3769.642773150942
13:28:00,0,H06,Beach 67 St,-73.796924,40.590927,4066.101027420392
13:28:00,0,H07,Beach 60 St,-73.788522,40.592374,4174.702950497315
13:28:00,0,H08,Beach 44 St,-73.776013,40.592943,4286.2000547444195
13:28:00,0,H09,Beach 36 St,-73.768175,40.595398,4386.381256294807
13:28:00,0,H10,Beach 25 St,-73.761353,40.600066,4496.675316664817
13:28:00,0,H11,Far Rockaway-Mott Av,-73.755405,40.603995,4574.473635992548
13:57:30,0,H12,Beach 90 St,-73.813641,40.588034,4097.984304622702
13:57:30,0,H13,Beach 98 St,-73.820558,40.585307,4198.088078207608
13:57:30,0,H14,Beach 105 St,-73.827559,40.583209,4287.764268683798
13:57:30,0,H15,Rockaway Park-Beach 116 St,-73.835592,40.580903,4391.313719233249
13:19:00,1,J12,121 St,-73.828294,40.700492,3448.3465048842336
13:19:00,1,J13,111 St,-73.836345,40.697418,3609.4116055553745
13:19:00,1,J14,104 St,-73.84433,40.695178,3268.3465048842336
13:19:00,1,J15,Woodhaven Blvd,-73.851576,40.693879,3178.3465048842336
13:19:00,1,J16,85 St-Forest Pkwy,-73.86001,40.692435,3190.7307121957147
13:19:00,1,J17,75 St-Elderts Ln,-73.867139,40.691324,2998.3465048842336
13:19:00,1,J19,Cypress Hills,-73.87255,40.689941,3023.109352972414
13:19:00,1,J20,Crescent St,-73.873785,40.683194,2848.3465048842336
13:19:00,1,J21,Norwood Av,-73.880039,40.68141,2758.3465048842336
13:19:00,1,J22,Cleveland St,-73.884639,40.679947,2756.3244106605166
13:19:00,1,J23,Van Siclen Av,-73.891688,40.678024,2608.3465048842336
13:19:00,1,J24,Alabama Av,-73.898654,40.676992,2548.3465048842336
13:19:00,1,J27,Broadway Junction,-73.904512,40.679498,2458.3465048842336
13:19:00,1,J28,Chauncey St,-73.910456,40.682893,2518.3465048842336
13:19:00,1,J29,Halsey St,-73.916559,40.68637,2647.7012794200423
13:19:00,1,J30,Gates Av,-73.92227,40.68963,2661.3292043010756
13:19:00,1,J31,Kosciuszko St,-73.928814,40.693342,2637.7518036365177
12:21:00,1,L01,8 Av,-74.002578,40.739777,2246.7509320234817
12:21:00,1,L02,6 Av,-73.996786,40.737335,2310.0
13:57:30,1,L03,14 St-Union Sq,-73.99073,40.734789,2400.003727549983
13:57:30,1,L05,3 Av,-73.986122,40.732849,2458.844521994424
12:15:00,1,L06,1 Av,-73.981628,40.730953,2508.5124112908566
12:15:00,1,L08,Bedford Av,-73.956872,40.717304,2537.092037241048
12:15:00,1,L10,Lorimer St,-73.950275,40.714063,2464.1513419445246
12:15:00,1,L11,Graham Av,-73.944053,40.714565,2504.8131014958744
12:15:00,1,L12,Grand St,-73.94067,40.711926,2591.3546012862344
12:15:00,1,L13,Montrose Av,-73.93985,40.707739,2630.9682636996126
12:15:00,1,L14,Morgan Av,-73.933147,40.706152,2701.639417506565
12:15:00,1,L15,Jefferson St,-73.922913,40.706607,2787.067666458516
13:28:00,1,L16,DeKalb Av,-73.918425,40.703811,2854.8043177439476
13:28:00,1,L17,Myrtle-Wyckoff Avs,-73.911586,40.699814,2779.897089620917
13:28:00,1,L19,Halsey St,-73.904084,40.695602,2730.9552156521404
13:28:00,1,L20,Wilson Av,-73.904046,40.688764,2600.5034838909028
13:28:00,1,L21,Bushwick Av-Aberdeen St,-73.905249,40.682829,2518.589362027091
13:28:00,1,L22,Broadway Junction,-73.90324,40.678856,2453.9051395564998
13:28:00,1,L24,Atlantic Av,-73.903097,40.675345,2532.4522882706256
13:28:00,1,L25,Sutter Av,-73.901975,40.669367,2615.6310731311837
13:28:00,1,L26,Livonia Av,-73.900571,40.664038,2691.919002256322
13:28:00,1,L27,New Lots Av,-73.899232,40.658733,2758.799316695627
13:28:00,1,L28,East 105 St,-73.899485,40.650573,2869.025738332243
13:28:00,1,L29,Canarsie-Rockaway Pkwy,-73.90185,40.646654,2992.7999077984614
12:39:00,0,M01,Middle Village-Metropolitan Av,-73.889601,40.711396,3250.159128210945
12:39:00,0,M04,Fresh Pond Rd,-73.895877,40.706186,3140.2995293570766
12:39:00,0,M05,Forest Av,-73.903077,40.704423,3022.6233255887587
12:39:00,0,M06,Seneca Av,-73.90774,40.702762,2927.7636887172503
12:39:00,0,M08,Myrtle-Wyckoff Avs,-73.912385,40.69943,2855.156679022992
12:39:00,0,M09,Knickerbocker Av,-73.919711,40.698664,2726.869083735397
12:39:00,0,M10,Central Av,-73.927397,40.697857,2639.845683873043
12:39:00,0,M11,Myrtle Av,-73.935657,40.697207,2475.8172043010754
12:39:00,0,M12,Flushing Av,-73.941126,40.70026,2471.9624771845656
12:39:00,0,M13,Lorimer St,-73.947408,40.703869,2368.2364698585584
12:39:00,0,M14,Hewes St,-73.953431,40.70687,2275.980587505617
12:39:00,0,M16,Marcy Av,-73.957757,40.708359,2203.1174218251435
12:39:00,0,M18,Delancey St-Essex St,-73.987437,40.718315,1830.0
12:03:00,1,M19,Bowery,-73.993915,40.72028,1911.284946236559
12:08:30,1,M20,Canal St,-73.999892,40.718092,2011.7063492063492
13:19:00,1,M21,Chambers St,-74.003401,40.713243,2025.8109329987872
12:08:30,1,M22,Fulton St,-74.007582,40.710374,1906.275386152754
12:03:00,1,M23,Broad St,-74.011056,40.706476,1986.0784408151337
12:15:00,1,N02,8 Av,-74.011719,40.635064,1783.5738910444916
13:07:30,0,N03,Fort Hamilton Pkwy,-74.005351,40.631386,1636.1030601664716
13:07:30,0,N04,New Utrecht Av,-73.996353,40.624842,1496.0924719311774
13:07:30,0,N05,18 Av,-73.990414,40.620671,1401.0983612126852
13:07:30,0,N06,20 Av,-73.985026,40.61741,1319.1078007407086
13:07:30,0,N07,Bay Pkwy,-73.981848,40.611815,1219.3223803997328
13:07:30,0,N08,Kings Hwy,-73.980353,40.603923,1105.7686516856988
13:07:30,0,N09,Avenue U,-73.979137,40.597473,1007.8574886231625
13:07:30,0,N10,86 St,-73.97823,40.592721,927.338655087318
12:21:00,1,Q01,Canal St,-74.00046,40.718383,2115.975309430551
13:57:30,0,Q03,72 St,-73.958424,40.768799,3130.981310400327
13:57:30,0,Q04,86 St,-73.951787,40.777891,3256.0207453620696
13:57:30,0,Q05,96 St,-73.947152,40.784318,3349.019209263759
12:03:00,1,R01,Astoria-Ditmars Blvd,-73.912034,40.775036,3592.248119477439
12:03:00,1,R03,Astoria Blvd,-73.917843,40.770258,3495.952772848759
12:03:00,1,R04,30 Av,-73.921479,40.766779,3389.2558330659363
12:03:00,1,R05,Broadway,-73.925508,40.76182,3293.8748806849835
12:03:00,1,R06,36 Av,-73.929575,40.756804,3181.393655388541
12:03:00,1,R08,39 Av-Dutch Kills,-73.932755,40.752882,3063.8487452089007
12:03:00,1,R09,Queensboro Plaza,-73.940202,40.750582,2901.4039690894974
12:03:00,1,R11,Lexington Av/59 St,-73.967258,40.76266,2934.11779794267
12:03:00,1,R13,5 Av/59 St,-73.973347,40.764811,2981.089634577605
12:03:00,1,R14,57 St-7 Av,-73.980658,40.764664,2801.0239864991127
12:03:00,1,R15,49 St,-73.984139,40.759901,2711.8950628540597
12:28:00,1,R16,Times Sq-42 St,-73.986754,40.754672,2617.890175268527
12:21:00,1,R17,34 St-Herald Sq,-73.98795,40.749567,2535.0
12:28:00,1,R18,28 St,-73.988691,40.745494,2602.4760788821663
12:21:00,1,R19,23 St,-73.989344,40.741303,2517.4255838326617
12:21:00,1,R20,14 St-Union Sq,-73.990568,40.735736,2389.920763976005
12:15:00,1,R21,8 St-NYU,-73.992629,40.730328,2408.0124038433605
12:15:00,1,R22,Prince St,-73.997702,40.724329,2316.0982896666787
12:15:00,1,R23,Canal St,-74.001775,40.719527,2208.5626618544743
12:15:00,1,R24,City Hall,-74.006978,40.713282,2043.1092288157247
12:15:00,1,R25,Cortlandt St,-74.011029,40.710668,1901.2457171559167
12:15:00,1,R26,Rector St,-74.013342,40.70722,1758.540536122916
12:15:00,1,R27,Whitehall St-South Ferry,-74.012994,40.703087,1692.0714285714284
12:15:00,1,R28,Court St,-73.991777,40.6941,1452.0
12:21:00,1,R29,Jay St-MetroTech,-73.985942,40.69218,1365.0
12:21:00,1,R30,DeKalb Av,-73.981824,40.690635,1459.7579538365565
12:21:00,1,R31,Atlantic Av-Barclays Ctr,-73.97881,40.683666,1418.001644470785
12:21:00,1,R32,Union St,-73.98311,40.677316,1304.7885669422342
13:04:30,1,R33,4 Av-9 St,-73.988302,40.670847,1194.0992178298081
12:15:00,1,R34,Prospect Av,-73.992872,40.665414,1290.6854247263598
12:15:00,1,R35,25 St,-73.998091,40.660397,1364.9659677127852
12:15:00,1,R36,36 St,-74.003549,40.655144,1454.5686167194076
12:15:00,1,R39,45 St,-74.010006,40.648939,1650.4509696605842
12:15:00,1,R40,53 St,-74.014034,40.645069,1763.320053855284
12:15:00,1,R41,59 St,-74.017881,40.641362,1773.0105731130434
12:15:00,1,R42,Bay Ridge Av,-74.023377,40.634967,1937.4848218992515
12:15:00,1,R43,77 St,-74.02551,40.629742,2020.093489003651
12:15:00,1,R44,86 St,-74.028398,40.622687,2203.8057591153356
12:45:00,1,R45,Bay Ridge-95 St,-74.030876,40.616622,2273.1271632152343
13:12:00,1,S01,Franklin Av,-73.955827,40.680596,1874.26961658524
13:12:00,1,S03,Park Pl,-73.957624,40.674772,1990.6098943630177
13:12:00,1,S04,Botanic Garden,-73.959245,40.670343,2115.1856958446197
