start_time,ntransfers,stop_id,stop_name,stop_lon,stop_lat,duration
12:17:30,1,101,Van Cortlandt Park-242 St,-73.898583,40.889248,5060.366294230476
12:17:30,1,103,238 St,-73.90087,40.884667,4953.615546047493
12:17:30,1,104,231 St,-73.904834,40.878856,4858.780439664513
12:17:30,1,106,Marble Hill-225 St,-73.909831,40.874561,4765.3085731530655
12:17:30,1,107,215 St,-73.915279,40.869444,4657.184009707198
12:17:30,1,108,207 St,-73.918822,40.864621,4578.1992143855605
12:17:30,1,109,Dyckman St,-73.925536,40.860531,4480.16258732807
12:17:30,1,110,191 St,-73.929412,40.855225,4389.943539709023
12:17:30,1,111,181 St,-73.933596,40.849505,4294.698950964434
12:17:30,1,112,168 St-Washington Hts,-73.940133,40.840556,4173.848625584824
12:17:30,1,113,157 St,-73.94489,40.834041,4211.738328564482
12:17:30,1,114,145 St,-73.95036,40.826551,4096.073681225668
12:17:30,1,115,137 St-City College,-73.953676,40.822008,3995.030898166031
12:17:30,1,116,125 St,-73.958372,40.815581,3896.2697662475957
12:17:30,1,117,116 St-Columbia University,-73.96411,40.807722,3778.1136968834335
12:17:30,1,118,Cathedral Pkwy (110 St),-73.966847,40.803967,3700.0828834076733
12:17:30,1,119,103 St,-73.968379,40.799446,3620.7647015894913
12:17:30,1,120,96 St,-73.972323,40.793919,3372.4733764793837
13:45:30,1,121,86 St,-73.976218,40.788644,3406.6250997159555
13:45:30,1,122,79 St,-73.979917,40.783934,3327.850038591261
12:17:30,1,123,72 St,-73.98197,40.778453,3189.021990585453
12:54:30,1,124,66 St-Lincoln Center,-73.982209,40.77344,3244.664151135885
12:17:30,1,125,59 St-Columbus Circle,-73.981929,40.768247,3163.5661808002096
12:17:30,1,126,50 St,-73.983849,40.761728,3054.9387298198176
12:17:30,1,127,Times Sq-42 St,-73.987495,40.75529,2940.4436122070747
12:17:30,1,128,34 St-Penn Station,-73.991057,40.750373,2833.054101717564
12:17:30,1,129,28 St,-73.993365,40.747215,2928.1878206355314
12:17:30,1,130,23 St,-73.995657,40.744081,2859.5605902243597
12:17:30,1,131,18 St,-73.997871,40.74104,2791.120077005075
12:17:30,1,132,14 St,-74.000201,40.737826,2674.0505954062032
13:45:30,1,133,Christopher St-Sheridan Sq,-74.002906,40.733422,2759.945226661366
13:45:30,1,134,Houston St,-74.005367,40.728251,2679.945633165431
13:45:30,1,135,Canal St,-74.006277,40.722854,2590.1880204979525
13:45:30,1,136,Franklin St,-74.006886,40.719318,2525.032771207316
12:17:30,1,137,Chambers St,-74.009266,40.715478,2414.8788701946237
12:17:30,1,138,WTC Cortlandt,-74.012188,40.711835,2383.753700522113
12:17:30,1,139,Rector St,-74.013783,40.707513,2304.455133643132
12:17:30,1,142,South Ferry,-74.013664,40.702068,2199.7347122492906
13:15:30,1,201,Wakefield-241 St,-73.85062,40.903125,5972.143797135299
13:15:30,1,204,Nereid Av,-73.854376,40.898379,5743.8797487969305
13:15:30,1,205,233 St,-73.857473,40.893193,5611.8797487969305
13:15:30,1,206,225 St,-73.860341,40.888022,5515.8797487969305
13:15:30,1,207,219 St,-73.862633,40.883895,5433.879748796931
13:15:30,1,208,Gun Hill Rd,-73.866256,40.87785,5325.3797487969305
13:15:30,1,209,Burke Av,-73.867164,40.871356,5402.879748796931
13:15:30,1,210,Allerton Av,-73.867352,40.865462,5385.883089458654
13:15:30,1,211,Pelham Pkwy,-73.867615,40.857192,5273.975043481642
13:15:30,1,212,Bronx Park East,-73.868457,40.848828,5146.825043481642
13:15:30,1,213,E 180 St,-73.873488,40.841894,4913.586645348654
13:15:30,1,214,West Farms Sq-E Tremont Av,-73.880049,40.840295,4781.892449753402
13:15:30,1,215,174 St,-73.887734,40.837288,4655.853085635309
13:15:30,1,216,Freeman St,-73.891865,40.829993,4533.3451968299005
13:15:30,1,217,Simpson St,-73.893064,40.824073,4420.132510262736
13:15:30,1,218,Intervale Av,-73.896736,40.822181,4345.468075738927
13:15:30,1,219,Prospect Av,-73.90177,40.819585,4261.902696838481
13:15:30,1,220,Jackson Av,-73.907807,40.81649,4162.176163209508
13:15:30,1,221,3 Av-149 St,-73.917757,40.816109,4023.204755584875
13:15:30,1,222,149 St-Grand Concourse,-73.926718,40.81841,3891.5453067659773
12:17:30,1,224,135 St,-73.94077,40.814229,3910.3812810465283
12:17:30,1,225,125 St,-73.945495,40.807754,3799.429322821985
12:17:30,1,226,116 St,-73.949625,40.802098,3700.2860881496804
12:17:30,1,227,Central Park North (110 St),-73.951822,40.799075,3630.9045301210635
12:17:30,1,228,Park Place,-74.008811,40.713051,2316.0186191485986
12:47:30,1,229,Fulton St,-74.006571,40.709416,2234.205169753799
13:15:30,1,230,Wall St,-74.0091,40.706821,2297.431726669042
12:11:30,2,231,Clark St,-73.993086,40.697466,2090.3756230932095
12:17:30,2,232,Borough Hall,-73.989998,40.693219,2001.0905923344947
12:17:30,2,233,Hoyt St,-73.985065,40.690545,2088.848487071337
12:17:30,2,234,Nevins St,-73.980492,40.688246,2004.0930102004847
12:17:30,2,235,Atlantic Av-Barclays Ctr,-73.977666,40.684359,1920.2589034719465
12:47:30,2,236,Bergen St,-73.975098,40.680829,1999.2811127063126
12:47:30,2,237,Grand Army Plaza,-73.971046,40.675235,2108.4289712958494
12:47:30,2,238,Eastern Pkwy-Brooklyn Museum,-73.964375,40.671987,2211.572910689789
12:17:30,2,239,Franklin Av-Medgar Evers College,-73.958131,40.670682,2173.5897001920075
13:15:30,1,241,President St-Medgar Evers College,-73.950683,40.667883,2373.039432095493
13:15:30,1,242,Sterling St,-73.95085,40.662742,2467.870975719654
13:15:30,1,243,Winthrop St,-73.9502,40.656652,2561.4760798163634
13:15:30,1,244,Church Av,-73.949575,40.650843,2645.5186761652476
13:15:30,1,245,Beverly Rd,-73.948959,40.645098,2751.6948125288836
13:15:30,1,246,Newkirk Av-Little Haiti,-73.948411,40.639967,2868.526873599078
13:15:30,1,247,Flatbush Av-Brooklyn College,-73.947642,40.632836,3019.146431058036
13:15:30,1,248,Nostrand Av,-73.950466,40.669847,2336.6035702822933
13:15:30,1,249,Kingston Av,-73.942161,40.669399,2433.7550854338083
13:44:30,1,250,Crown Hts-Utica Av,-73.932942,40.668897,2503.509792269587
13:15:30,1,251,Sutter Av-Rutland Rd,-73.92261,40.664717,2643.2794153174623
13:15:30,1,252,Saratoga Av,-73.916327,40.661453,2749.0196750577225
13:15:30,1,253,Rockaway Av,-73.908946,40.662549,2840.951933122238
13:15:30,1,254,Junius St,-73.902447,40.663515,2922.1346254299306
13:15:30,1,255,Pennsylvania Av,-73.894895,40.664635,3031.8671095063637
13:15:30,1,256,Van Siclen Av,-73.889395,40.665449,3111.8481221645916
13:15:30,1,257,New Lots Av,-73.884079,40.666235,3194.266935126729
12:35:30,1,301,Harlem-148 St,-73.93647,40.82388,4167.070757700475
12:35:30,1,302,145 St,-73.936245,40.820421,4050.510735973153
12:47:30,1,401,Woodlawn,-73.878751,40.886037,5237.41670925592
12:47:30,1,402,Mosholu Pkwy,-73.884655,40.87975,5079.968337994304
12:47:30,1,405,Bedford Park Blvd-Lehman College,-73.890064,40.873412,4964.579482036983
12:47:30,1,406,Kingsbridge Rd,-73.897174,40.86776,4848.206845774469
12:47:30,1,407,Fordham Rd,-73.901034,40.862803,4751.2846235522475
12:47:30,1,408,183 St,-73.903879,40.858407,4666.687831516849
12:47:30,1,409,Burnside Av,-73.907684,40.853453,4565.410337910711
12:47:30,1,410,176 St,-73.911794,40.84848,4494.746129034772
12:47:30,1,411,Mt Eden Av,-73.914685,40.844434,4415.399190259261
12:47:30,1,412,170 St,-73.917791,40.840075,4335.192806109564
12:47:30,1,413,167 St,-73.9214,40.835537,4246.064258530265
12:47:30,1,414,161 St-Yankee Stadium,-73.925831,40.827994,4067.508870816267
12:47:30,1,415,149 St-Grand Concourse,-73.927351,40.818375,3889.594687876904
13:15:30,1,416,138 St-Grand Concourse,-73.929849,40.813224,3707.7088951564783
12:05:00,1,418,Fulton St,-74.009509,40.710368,2210.1246166307883
12:17:30,1,419,Wall St,-74.011862,40.707557,2288.784030065036
12:17:30,1,420,Bowling Green,-74.014065,40.704817,2256.612787155703
12:17:30,2,423,Borough Hall,-73.990151,40.692404,2000.3552987077094
13:45:30,1,501,Eastchester-Dyre Av,-73.830834,40.8883,5641.2877345147745
13:15:30,1,502,Baychester Av,-73.838591,40.878663,5493.655727281502
13:15:30,1,503,Gun Hill Rd,-73.846384,40.869526,5378.6969835836835
13:15:30,1,504,Pelham Pkwy,-73.855359,40.858985,5228.6969835836835
13:15:30,1,505,Morris Park,-73.860495,40.854364,5138.6969835836835
13:01:00,1,601,Pelham Bay Park,-73.828121,40.852462,5320.611168576068
13:01:00,1,602,Buhre Av,-73.832569,40.84681,5143.348010681331
13:01:00,1,603,Middletown Rd,-73.836322,40.843863,5073.054907233056
13:01:00,1,604,Westchester Sq-E Tremont Av,-73.842952,40.839892,4940.87843664482
13:01:00,1,606,Zerega Av,-73.847036,40.836488,4853.82843664482
13:01:00,1,607,Castle Hill Av,-73.851222,40.834255,4784.582535005476
12:47:30,1,608,Parkchester,-73.860816,40.833226,4599.168741902028
12:47:30,1,609,St Lawrence Av,-73.867618,40.831509,4843.029074564826
12:47:30,1,610,Morrison Av-Soundview,-73.874516,40.829521,4741.878030584373
12:47:30,1,611,Elder Av,-73.879159,40.828584,4669.152626124382
12:47:30,1,612,Whitlock Av,-73.886283,40.826525,4556.447864219619
12:47:30,1,613,Hunts Point Av,-73.890549,40.820948,4326.768741902028
13:15:30,1,614,Longwood Av,-73.896435,40.816104,4445.860037295533
13:15:30,1,615,E 149 St,-73.904098,40.812118,4343.089255200108
13:15:30,1,616,E 143 St-St Mary's St,-73.907657,40.808719,4266.415159112936
13:15:30,1,617,Cypress Av,-73.914042,40.805368,4155.000208906081
13:15:30,1,618,Brook Av,-73.91924,40.807566,4079.3812597956135
12:47:30,1,619,3 Av-138 St,-73.926138,40.810476,3959.123351831105
13:15:30,1,621,125 St,-73.937594,40.804138,3524.725320912063
13:15:30,1,622,116 St,-73.941617,40.798629,3778.2330915269204
12:47:30,1,623,110 St,-73.94425,40.79502,3697.6827559564504
12:47:30,1,624,103 St,-73.947478,40.7906,3618.643020857113
12:47:30,1,625,96 St,-73.95107,40.785672,3528.8732840150074
13:15:30,1,626,86 St,-73.955589,40.779492,3216.4047747482136
12:47:30,1,627,77 St,-73.959874,40.77362,3326.896959054065
12:47:30,1,628,68 St-Hunter College,-73.96387,40.768141,3236.7594590540652
13:15:30,1,629,59 St,-73.967967,40.762526,3016.350077193516
12:47:30,1,630,51 St,-73.97192,40.757107,3030.9458929148645
13:15:30,1,631,Grand Central-42 St,-73.976848,40.751776,2849.5031841762197
12:54:30,1,632,33 St,-73.982076,40.746081,2784.0448569589566
12:54:30,1,633,28 St,-73.984264,40.74307,2716.3424760065755
12:54:30,1,634,23 St,-73.986599,40.739864,2650.0407008586467
12:54:30,1,635,14 St-Union Sq,-73.989951,40.734673,2516.2746189873014
12:54:30,1,636,Astor Pl,-73.99107,40.730054,2433.8384914941585
12:11:30,1,637,Bleecker St,-73.994659,40.725915,2343.8537612874966
12:11:30,1,638,Spring St,-73.997141,40.722301,2415.110305790114
12:11:30,1,639,Canal St,-74.000193,40.718803,2481.464292045983
13:15:30,1,640,Brooklyn Bridge-City Hall,-74.004131,40.713065,2326.3877995286507
12:11:30,1,701,Flushing-Main St,-73.83003,40.7596,4275.760210048066
13:53:00,1,702,Mets-Willets Point,-73.845625,40.754622,4110.737556326383
13:53:00,1,705,111 St,-73.855334,40.75173,4174.95799178889
13:53:00,1,706,103 St-Corona Plaza,-73.8627,40.749865,4096.0506219444005
13:53:00,1,707,Junction Blvd,-73.869527,40.749145,3891.876508490393
13:53:00,1,708,90 St-Elmhurst Av,-73.876613,40.748408,3968.486502195092
13:53:00,1,709,82 St-Jackson Hts,-73.883697,40.747659,3880.8189367097298
12:11:30,1,710,74 St-Broadway,-73.891394,40.746848,3719.9814592322527
12:11:30,1,711,69 St,-73.896403,40.746325,3651.0449727457662
12:11:30,1,712,61 St-Woodside,-73.902984,40.74563,3569.1254502197744
12:11:30,1,713,52 St,-73.912549,40.744149,3474.535363389094
12:11:30,1,714,46 St-Bliss St,-73.918435,40.743132,3413.8056947143955
12:11:30,1,715,40 St-Lowery St,-73.924016,40.743781,3345.6914400898036
12:11:30,1,716,33 St-Rawson St,-73.930997,40.744587,3266.947500695864
12:11:30,1,718,Queensboro Plaza,-73.940202,40.750582,3126.968919903174
12:11:30,1,719,Court Sq,-73.945264,40.747023,3031.8325562668106
12:11:30,1,720,Hunters Point Av,-73.948916,40.742216,3126.91951278855
12:05:00,1,721,Vernon Blvd-Jackson Av,-73.953581,40.742626,3153.91951278855
12:05:00,1,723,Grand Central-42 St,-73.976041,40.751431,3008.0890925549716
12:17:30,1,724,5 Av,-73.981963,40.753821,2952.663283677862
12:29:30,1,725,Times Sq-42 St,-73.987691,40.755477,2942.7416351986944
13:15:30,1,726,34 St-Hudson Yards,-74.00191,40.755882,3087.3438249797164
12:17:30,1,901,Grand Central-42 St,-73.979189,40.752769,2948.0890925549716
12:17:30,1,902,Times Sq-42 St,-73.986229,40.755983,2882.7416351986944
12:17:30,0,A02,Inwood-207 St,-73.919899,40.868072,4518.742226153733
12:17:30,0,A03,Dyckman St,-73.927271,40.865491,4419.00339933809
12:17:30,0,A05,190 St,-73.93418,40.859022,4288.623388355114
12:17:30,0,A06,181 St,-73.937969,40.851695,4175.7384764608405
12:17:30,0,A07,175 St,-73.939704,40.847391,4082.9534709481613
12:05:00,0,A09,168 St,-73.939561,40.840719,3948.35949437259
13:01:00,0,A10,163 St-Amsterdam Av,-73.939892,40.836013,3981.9719695290282
13:01:00,0,A11,155 St,-73.941514,40.830518,3897.1021425914814
12:05:00,0,A12,145 St,-73.944216,40.824783,3702.54799630736
12:05:00,0,A14,135 St,-73.947649,40.817894,3613.678943263136
13:08:30,0,A15,125 St,-73.952343,40.811109,3488.2833877075805
12:54:30,0,A16,116 St,-73.954882,40.805085,3626.2218083324383
12:54:30,0,A17,Cathedral Pkwy (110 St),-73.958161,40.800603,3664.160412990988
12:54:30,0,A18,103 St,-73.961454,40.796092,3584.8300558481305
12:54:30,0,A19,96 St,-73.964696,40.791642,3497.562578644483
12:54:30,0,A20,86 St,-73.968916,40.785868,3386.3613591322883
12:54:30,0,A21,81 St-Museum of Natural History,-73.972143,40.781433,3297.9147571905405
12:54:30,0,A22,72 St,-73.97641,40.775594,3197.957053263048
12:54:30,0,A24,59 St-Columbus Circle,-73.981736,40.768296,2987.272953880013
12:17:30,0,A25,50 St,-73.985984,40.762456,2958.7598164105952
13:15:30,0,A27,42 St-Port Authority Bus Terminal,-73.989735,40.757308,2822.7416351986944
13:15:30,0,A28,34 St-Penn Station,-73.993391,40.752287,2720.63725491703
12:17:30,0,A30,23 St,-73.998041,40.745906,2612.3987118253744
13:15:30,0,A31,14 St,-74.00169,40.740893,2514.4142157013434
13:15:30,0,A32,W 4 St-Wash Sq,-74.000495,40.732338,2393.819871479013
12:17:30,0,A33,Spring St,-74.003739,40.726227,2345.2421561984456
12:17:30,0,A34,Canal St,-74.005229,40.720824,2234.3387378500906
12:17:30,0,A36,Chambers St,-74.008585,40.714111,2087.725935785638
12:17:30,0,A38,Fulton St,-74.007691,40.710197,1987.1969842989402
12:17:30,0,A40,High St,-73.990531,40.699337,1803.375611444026
12:05:00,0,A41,Jay St-MetroTech,-73.987342,40.692338,1539.0905923344947
12:11:30,0,A42,Hoyt-Schermerhorn Sts,-73.985001,40.688484,1734.8571963827435
13:08:30,0,A43,Lafayette Av,-73.973946,40.686113,1948.5886042687657
13:08:30,0,A44,Clinton-Washington Avs,-73.965838,40.683263,2033.5886042687655
13:08:30,0,A45,Franklin Av,-73.956848,40.68138,2139.3075794489096
12:11:30,0,A46,Nostrand Av,-73.950426,40.680438,2086.3077474173706
12:11:30,0,A47,Kingston-Throop Avs,-73.940858,40.679921,2191.2871591820763
12:11:30,0,A48,Utica Av,-73.930729,40.679364,2261.7634292355524
12:11:30,0,A49,Ralph Av,-73.920786,40.678822,2371.4385080999054
12:11:30,0,A50,Rockaway Av,-73.911946,40.67834,2473.1567743537753
12:11:30,0,A51,Broadway Junction,-73.905316,40.678334,2496.458834794259
13:23:30,0,A52,Liberty Av,-73.896548,40.674542,2619.407319642744
13:23:30,0,A53,Van Siclen Av,-73.890358,40.67271,2706.010923246348
13:23:30,0,A54,Shepherd Av,-73.88075,40.67413,2814.6696769555465
12:11:30,0,A55,Euclid Av,-73.872106,40.675377,2851.4317161501913
12:11:30,0,A57,Grant Av,-73.86505,40.677044,2956.2055314897125
12:11:30,0,A59,80 St,-73.858992,40.679371,3070.3682561822384
12:11:30,0,A60,88 St,-73.85147,40.679843,3163.1407454730524
12:11:30,0,A61,Rockaway Blvd,-73.843853,40.680429,3274.145585744108
12:41:30,0,A63,104 St,-73.837683,40.681711,3366.96191227472
12:41:30,0,A64,111 St,-73.832163,40.684331,3478.9981157972247
12:41:30,0,A65,Ozone Park-Lefferts Blvd,-73.825798,40.685951,3549.1074632399054
12:05:00,0,B04,21 St-Queensbridge,-73.942836,40.754203,3327.663283677862
12:05:00,0,B06,Roosevelt Island,-73.95326,40.759145,3207.663283677862
12:05:00,0,B08,Lexington Av/63 St,-73.966113,40.764629,3057.663283677862
12:05:00,0,B10,57 St,-73.97745,40.763972,2907.663283677862
13:51:00,0,B12,9 Av,-73.994324,40.646292,1863.4858237791486
13:51:00,0,B13,Fort Hamilton Pkwy,-73.994304,40.640914,1704.1219989403394
13:51:00,0,B14,50 St,-73.994791,40.63626,1622.7893153795856
13:51:00,0,B15,55 St,-73.995476,40.631435,1533.1898338500976
13:51:00,0,B16,62 St,-73.996895,40.626472,1421.5293597950047
13:51:00,0,B17,71 St,-73.998864,40.619589,1319.2544237336238
13:51:00,0,B18,79 St,-74.00061,40.613501,1229.0558330866024
13:51:00,0,B19,18 Av,-74.001736,40.607954,1134.5672980547554
13:51:00,0,B20,20 Av,-73.998168,40.604556,1050.4383893119348
13:51:00,0,B21,Bay Pkwy,-73.993728,40.601875,956.4631827003647
13:51:00,0,B22,25 Av,-73.986829,40.597704,856.210330989338
13:51:00,0,B23,Bay 50 St,-73.983765,40.588841,714.1982136423992
12:29:30,0,D01,Norwood-205 St,-73.878855,40.874811,5002.48896336364
12:29:30,0,D03,Bedford Park Blvd,-73.887138,40.873244,4833.789209041499
12:29:30,0,D04,Kingsbridge Rd,-73.893509,40.866978,4715.248824426115
12:29:30,0,D05,Fordham Rd,-73.897749,40.861296,4615.115938520074
12:29:30,0,D06,182-183 Sts,-73.900741,40.856093,4529.943151239859
13:08:30,0,D07,Tremont Av,-73.905227,40.85041,4446.342777757132
13:08:30,0,D08,174-175 Sts,-73.910136,40.8459,4419.424503900884
13:08:30,0,D09,170 St,-73.9134,40.839306,4313.880694377075
13:08:30,0,D10,167 St,-73.91844,40.833771,4206.642482176406
13:08:30,0,D11,161 St-Yankee Stadium,-73.925651,40.827905,4057.863770691812
13:08:30,0,D12,155 St,-73.938209,40.830135,3924.3883944948216
13:08:30,0,D13,145 St,-73.944216,40.824783,3776.4765776980344
12:54:30,0,D14,7 Av,-73.981637,40.762862,2975.688909729181
12:54:30,0,D15,47-50 Sts-Rockefeller Ctr,-73.981329,40.758663,2817.663283677862
12:54:30,0,D16,42 St-Bryant Pk,-73.984569,40.754222,2727.663283677862
12:54:30,0,D17,34 St-Herald Sq,-73.987823,40.749719,2612.2810685249706
12:05:00,0,D18,23 St,-73.992821,40.742878,2499.82868757259
12:05:00,0,D19,14 St,-73.996209,40.738228,2385.0429732868756
12:54:30,0,D20,W 4 St-Wash Sq,-74.000495,40.732338,2283.6382113821137
12:05:00,0,D21,Broadway-Lafayette St,-73.996204,40.725297,2122.30487804878
12:05:00,0,D22,Grand St,-73.993753,40.718267,2366.035396671036
12:17:30,1,D24,Atlantic Av-Barclays Ctr,-73.97689,40.68446,2042.5208067579267
13:22:00,0,D25,7 Av,-73.972367,40.67705,2059.4487293207308
13:22:00,0,D26,Prospect Park,-73.962246,40.661614,1834.1894700614712
13:15:30,0,D27,Parkside Av,-73.961495,40.655292,1826.6385240629472
13:22:00,0,D28,Church Av,-73.962982,40.650527,1667.634358240385
13:15:30,0,D29,Beverley Rd,-73.964492,40.644031,1633.4247028801622
13:15:30,0,D30,Cortelyou Rd,-73.963891,40.640927,1575.2844951650286
13:22:00,0,D31,Newkirk Plaza,-73.962793,40.635082,1455.8281381446911
13:15:30,0,D32,Avenue H,-73.961639,40.62927,1536.5306936803001
13:15:30,0,D33,Avenue J,-73.960803,40.625039,1466.0954842562164
13:15:30,0,D34,Avenue M,-73.959399,40.617618,1352.7883289333543
13:15:30,0,D35,Kings Hwy,-73.957734,40.60867,1196.1982420615577
13:15:30,0,D37,Avenue U,-73.955929,40.5993,1136.8834595985222
13:15:30,0,D38,Neck Rd,-73.955161,40.595246,1032.7857022667222
13:15:30,0,D39,Sheepshead Bay,-73.954155,40.586896,897.553884084904
13:15:30,0,D40,Brighton Beach,-73.961376,40.577621,755.3946520126284
13:15:30,0,D41,Ocean Pkwy,-73.968501,40.576312,663.8605343655696
12:26:30,0,D42,W 8 St-NY Aquarium,-73.975939,40.576127,324.31085394720816
12:26:30,0,D43,Coney Island-Stillwell Av,-73.981233,40.577422,440.1913760355616
13:15:30,0,E01,World Trade Center,-74.009781,40.712582,2288.9090008337785
13:15:30,0,F01,Jamaica-179 St,-73.783817,40.712646,4869.928639552216
12:35:30,0,F02,169 St,-73.793604,40.71047,4797.663283677862
12:17:30,0,F03,Parsons Blvd,-73.803326,40.707564,4666.500068123643
12:17:30,0,F04,Sutphin Blvd,-73.810708,40.70546,4587.663283677862
12:17:30,0,F05,Briarwood,-73.820574,40.709179,4467.663283677862
12:54:30,0,F06,Kew Gardens-Union Tpke,-73.831008,40.714441,4315.5556236792
12:17:30,0,F07,75 Av,-73.837324,40.718331,4224.281823177518
12:54:30,0,F09,Court Sq-23 St,-73.946,40.747846,3031.8325562668106
12:54:30,0,F11,Lexington Av/53 St,-73.969055,40.757552,3219.3165346772876
12:54:30,0,F12,5 Av/53 St,-73.975224,40.760167,3120.1328612078996
12:05:00,0,F14,2 Av,-73.989938,40.723402,2016.7096399535424
12:05:00,0,F15,Delancey St-Essex St,-73.988114,40.718611,1889.3763066202089
12:05:00,0,F16,East Broadway,-73.990173,40.713715,1794.3524970963992
12:05:00,0,F18,York St,-73.986751,40.701397,1642.923925667828
12:05:00,0,F20,Bergen St,-73.990862,40.686145,1587.4160369624537
12:05:00,0,F21,Carroll St,-73.995048,40.680303,1486.0620649998368
12:05:00,0,F22,Smith-9 Sts,-73.995959,40.67358,1334.0603116392292
12:05:00,0,F23,4 Av-9 St,-73.989779,40.670272,1246.3564768309695
12:05:00,0,F24,7 Av,-73.980305,40.666271,1087.2572590011614
12:05:00,0,F25,15 St-Prospect Park,-73.979493,40.660365,1109.9343124789496
12:05:00,0,F26,Fort Hamilton Pkwy,-73.975776,40.650782,947.2607892721984
12:05:00,0,F27,Church Av,-73.979678,40.644041,837.5689414461115
12:05:00,0,F29,Ditmas Av,-73.978172,40.636119,683.5191637630662
12:05:00,0,F30,18 Av,-73.976971,40.629755,557.4001161440185
12:05:00,0,F31,Avenue I,-73.976127,40.625322,476.0905923344948
12:05:00,0,F32,Bay Pkwy,-73.975264,40.620769,389.2857142857143
12:05:00,0,F33,Avenue N,-73.974197,40.61514,288.0238095238095
12:05:00,0,F34,Avenue P,-73.973022,40.608944,205.59523809523807
12:05:00,0,F35,Kings Hwy,-73.972361,40.603217,107.97619047619048
12:14:00,0,F36,Avenue U,-73.973357,40.596063,0.0
12:00:30,0,F38,Avenue X,-73.97425,40.58962,96.91421415153413
12:26:30,0,F39,Neptune Av,-73.974574,40.581011,222.80952380952382
12:11:30,1,G05,Jamaica Center-Parsons/Archer,-73.801109,40.702147,4073.197964814401
13:15:30,1,G06,Sutphin Blvd-Archer Av-JFK Airport,-73.807969,40.700486,4013.197964814401
12:54:30,0,G07,Jamaica-Van Wyck,-73.816859,40.702566,4379.352174180761
12:54:30,0,G08,Forest Hills-71 Av,-73.844521,40.721691,4090.7696280555674
13:53:00,0,G09,67 Av,-73.852719,40.726523,4239.759560499274
13:53:00,0,G10,63 Dr-Rego Park,-73.861604,40.729846,4116.932358460435
13:45:30,0,G11,Woodhaven Blvd,-73.869229,40.733106,4004.806897205823
13:45:30,0,G12,Grand Av-Newtown,-73.877223,40.737015,3886.703766450759
13:45:30,0,G13,Elmhurst Av,-73.882017,40.742454,3781.1126062297644
12:54:30,0,G14,Jackson Hts-Roosevelt Av,-73.891338,40.746644,3634.729522282099
12:11:30,1,G15,65 St,-73.898453,40.749669,3721.8451798729543
12:11:30,1,G16,Northern Blvd,-73.906006,40.752885,3627.5152829657377
12:11:30,1,G18,46 St,-73.913333,40.756312,3537.5152829657377
12:11:30,1,G19,Steinway St,-73.92074,40.756879,3420.6080664708925
12:11:30,1,G20,36 St,-73.928781,40.752039,3300.6080664708925
12:54:30,0,G21,Queens Plaza,-73.937243,40.748973,3155.199903205586
12:11:30,0,G22,Court Sq,-73.943832,40.746554,2971.8325562668106
12:11:30,0,G24,21 St,-73.949724,40.744065,2877.097773658115
12:11:30,0,G26,Greenpoint Av,-73.954449,40.731352,2736.502994292049
12:11:30,0,G28,Nassau Av,-73.951277,40.724635,2625.5532393900885
12:11:30,0,G29,Metropolitan Av,-73.951418,40.712792,2473.43562855265
12:11:30,0,G30,Broadway,-73.950308,40.706092,2384.478705475727
12:11:30,0,G31,Flushing Av,-73.950234,40.700377,2293.078336472037
12:11:30,0,G32,Myrtle-Willoughby Avs,-73.949046,40.694568,2207.001083253153
12:11:30,0,G33,Bedford-Nostrand Avs,-73.953522,40.689627,2101.7131575565586
12:11:30,0,G34,Classon Av,-73.96007,40.688873,2018.1025806334817
12:11:30,0,G35,Clinton-Washington Avs,-73.966839,40.688089,1936.5902172062247
12:11:30,0,G36,Fulton St,-73.975375,40.687119,1845.7843752818262
12:29:30,0,H01,Aqueduct Racetrack,-73.834058,40.668234,3512.4623777011916
12:11:30,0,H02,Aqueduct-N Conduit Av,-73.834058,40.668234,3457.7104712402906
12:11:30,0,H03,Howard Beach-JFK Airport,-73.830301,40.660476,3608.901675829201
12:11:30,0,H04,Broad Channel,-73.815925,40.608382,4094.4942330811095
12:11:30,0,H06,Beach 67 St,-73.796924,40.590927,4390.952487350559
13:23:30,0,H07,Beach 60 St,-73.788522,40.592374,4499.554410427482
13:23:30,0,H08,Beach 44 St,-73.776013,40.592943,4611.0515146745865
13:23:30,0,H09,Beach 36 St,-73.768175,40.595398,4711.232716224974
13:23:30,0,H10,Beach 25 St,-73.761353,40.600066,4821.526776594984
13:23:30,0,H11,Far Rockaway-Mott Av,-73.755405,40.603995,4899.325095922715
12:11:30,0,H12,Beach 90 St,-73.813641,40.588034,4425.647588300565
12:11:30,0,H13,Beach 98 St,-73.820558,40.585307,4525.751361885471
12:11:30,0,H14,Beach 105 St,-73.827559,40.583209,4615.427552361661
12:11:30,0,H15,Rockaway Park-Beach 116 St,-73.835592,40.580903,4718.977002911111
13:15:30,1,J12,121 St,-73.828294,40.700492,3773.1979648144006
13:15:30,1,J13,111 St,-73.836345,40.697418,3934.263065485541
13:15:30,1,J14,104 St,-73.84433,40.695178,3593.1979648144006
13:15:30,1,J15,Woodhaven Blvd,-73.851576,40.693879,3503.1979648144006
13:15:30,1,J16,85 St-Forest Pkwy,-73.86001,40.692435,3515.582172125882
13:15:30,1,J17,75 St-Elderts Ln,-73.867139,40.691324,3323.1979648144006
13:15:30,1,J19,Cypress Hills,-73.87255,40.689941,3347.960812902581
13:15:30,1,J20,Crescent St,-73.873785,40.683194,3173.1979648144006
13:15:30,1,J21,Norwood Av,-73.880039,40.68141,3083.1979648144006
13:15:30,1,J22,Cleveland St,-73.884639,40.679947,3081.1758705906836
13:15:30,1,J23,Van Siclen Av,-73.891688,40.678024,2933.1979648144006
13:15:30,1,J24,Alabama Av,-73.898654,40.676992,2873.1979648144006
13:15:30,1,J27,Broadway Junction,-73.904512,40.679498,2783.1979648144006
13:15:30,1,J28,Chauncey St,-73.910456,40.682893,2843.1979648144006
13:15:30,1,J29,Halsey St,-73.916559,40.68637,2972.5527393502093
13:15:30,1,J30,Gates Av,-73.92227,40.68963,2945.7055109212843
13:15:30,1,J31,Kosciuszko St,-73.928814,40.693342,2922.1281102567264
12:17:30,1,L01,8 Av,-74.002578,40.739777,2574.4142157013434
12:17:30,1,L02,6 Av,-73.996786,40.737335,2610.0429732868756
13:53:00,1,L03,14 St-Union Sq,-73.99073,40.734789,2700.0467008368587
13:53:00,1,L05,3 Av,-73.986122,40.732849,2751.3874952813
12:11:30,1,L06,1 Av,-73.981628,40.730953,2801.0553845777317
12:11:30,1,L08,Bedford Av,-73.956872,40.717304,2808.3880236084506
12:11:30,1,L10,Lorimer St,-73.950275,40.714063,2735.4473283119273
12:11:30,1,L11,Graham Av,-73.944053,40.714565,2776.109087863277
12:11:30,1,L12,Grand St,-73.94067,40.711926,2862.6505876536376
12:11:30,1,L13,Montrose Av,-73.93985,40.707739,2902.2642500670154
12:11:30,1,L14,Morgan Av,-73.933147,40.706152,2972.935403873968
12:11:30,1,L15,Jefferson St,-73.922913,40.706607,3058.363652825919
13:23:30,1,L16,DeKalb Av,-73.918425,40.703811,3126.100304111351
13:23:30,1,L17,Myrtle-Wyckoff Avs,-73.911586,40.699814,3104.748549551084
13:23:30,1,L19,Halsey St,-73.904084,40.695602,3056.464913187448
13:23:30,1,L20,Wilson Av,-73.904046,40.688764,2928.166767568765
13:23:30,1,L21,Bushwick Av-Aberdeen St,-73.905249,40.682829,2843.440821957258
13:23:30,1,L22,Broadway Junction,-73.90324,40.678856,2781.568423234362
13:23:30,1,L24,Atlantic Av,-73.903097,40.675345,2860.115571948488
13:23:30,1,L25,Sutter Av,-73.901975,40.669367,2943.294356809046
13:23:30,1,L26,Livonia Av,-73.900571,40.664038,3019.5822859341843
13:23:30,1,L27,New Lots Av,-73.899232,40.658733,3083.650776625794
13:23:30,1,L28,East 105 St,-73.899485,40.650573,3193.87719826241
13:23:30,1,L29,Canarsie-Rockaway Pkwy,-73.90185,40.646654,3317.651367728629
12:35:30,0,M01,Middle Village-Metropolitan Av,-73.889601,40.711396,3534.535434831154
12:35:30,0,M04,Fresh Pond Rd,-73.895877,40.706186,3424.6758359772857
12:35:30,0,M05,Forest Av,-73.903077,40.704423,3306.9996322089673
12:35:30,0,M06,Seneca Av,-73.90774,40.702762,3212.139995337459
12:35:30,0,M08,Myrtle-Wyckoff Avs,-73.912385,40.69943,3139.532985643201
12:35:30,0,M09,Knickerbocker Av,-73.919711,40.698664,3011.2453903556057
12:35:30,0,M10,Central Av,-73.927397,40.697857,2924.2219904932517
12:35:30,0,M11,Myrtle Av,-73.935657,40.697207,2760.193510921284
12:35:30,0,M12,Flushing Av,-73.941126,40.70026,2756.3387838047743
12:35:30,0,M13,Lorimer St,-73.947408,40.703869,2652.612776478767
12:35:30,0,M14,Hewes St,-73.953431,40.70687,2560.356894125826
12:35:30,0,M16,Marcy Av,-73.957757,40.708359,2487.493728445352
12:35:30,0,M18,Delancey St-Essex St,-73.987437,40.718315,2114.3763066202087
12:05:00,1,M19,Bowery,-73.993915,40.72028,2195.6612528567675
12:05:00,1,M20,Canal St,-73.999892,40.718092,2296.0826558265576
13:15:30,1,M21,Chambers St,-74.003401,40.713243,2347.256134242256
12:05:00,1,M22,Fulton St,-74.007582,40.710374,2218.022227295156
12:17:30,1,M23,Broad St,-74.011056,40.706476,2297.8252819575355
13:15:30,0,N02,8 Av,-74.011719,40.635064,1575.4155744651416
13:15:30,0,N03,Fort Hamilton Pkwy,-74.005351,40.631386,1427.9447435871216
13:15:30,0,N04,New Utrecht Av,-73.996353,40.624842,1287.9341553518275
13:15:30,0,N05,18 Av,-73.990414,40.620671,1192.940044633335
13:15:30,0,N06,20 Av,-73.985026,40.61741,1110.9494841613587
13:15:30,0,N07,Bay Pkwy,-73.981848,40.611815,1011.1640638203828
13:15:30,0,N08,Kings Hwy,-73.980353,40.603923,897.6103351063487
13:15:30,0,N09,Avenue U,-73.979137,40.597473,799.6991720438123
13:15:30,0,N10,86 St,-73.97823,40.592721,719.1803385079677
12:17:30,1,Q01,Canal St,-74.00046,40.718383,2393.2325684317125
12:47:30,0,Q03,72 St,-73.958424,40.768799,3449.6970687637636
12:47:30,0,Q04,86 St,-73.951787,40.777891,3580.872205292237
12:47:30,0,Q05,96 St,-73.947152,40.784318,3673.8706691939265
12:11:30,2,R01,Astoria-Ditmars Blvd,-73.912034,40.775036,3869.5053784786014
12:11:30,2,R03,Astoria Blvd,-73.917843,40.770258,3773.2100318499206
12:11:30,2,R04,30 Av,-73.921479,40.766779,3666.5130920670977
12:11:30,2,R05,Broadway,-73.925508,40.76182,3571.1321396861454
12:11:30,2,R06,36 Av,-73.929575,40.756804,3458.6509143897024
12:11:30,2,R08,39 Av-Dutch Kills,-73.932755,40.752882,3341.106004210062
12:17:30,1,R09,Queensboro Plaza,-73.940202,40.750582,3178.661228090659
12:05:00,1,R11,Lexington Av/59 St,-73.967258,40.76266,3245.8646390850718
12:05:00,2,R13,5 Av/59 St,-73.973347,40.764811,3305.9410945077725
12:05:00,1,R14,57 St-7 Av,-73.980658,40.764664,3125.87544642928
12:05:00,1,R15,49 St,-73.984139,40.759901,3036.746522784227
12:23:30,1,R16,Times Sq-42 St,-73.986754,40.754672,2942.7416351986944
12:17:30,1,R17,34 St-Herald Sq,-73.98795,40.749567,2841.1159583793196
12:54:30,1,R18,28 St,-73.988691,40.745494,2930.1393625600285
12:17:30,1,R19,23 St,-73.989344,40.741303,2845.0888675105234
12:17:30,1,R20,14 St-Union Sq,-73.990568,40.735736,2667.1780229771666
12:11:30,1,R21,8 St-NYU,-73.992629,40.730328,2717.102996177855
12:11:30,1,R22,Prince St,-73.997702,40.724329,2627.3296773058373
12:11:30,1,R23,Canal St,-74.001775,40.719527,2517.890249993062
12:11:30,1,R24,City Hall,-74.006978,40.713282,2353.1567009099986
12:11:30,1,R25,Cortlandt St,-74.011029,40.710668,2228.9090008337785
12:11:30,1,R26,Rector St,-74.013342,40.70722,2086.203819800778
12:11:30,1,R27,Whitehall St-South Ferry,-74.012994,40.703087,2019.7347122492906
12:11:30,1,R28,Court St,-73.991777,40.6941,1761.0905923344947
12:17:30,1,R29,Jay St-MetroTech,-73.985942,40.69218,1674.0905923344947
12:17:30,1,R30,DeKalb Av,-73.981824,40.690635,1782.290592334495
12:17:30,1,R31,Atlantic Av-Barclays Ctr,-73.97881,40.683666,1695.2589034719465
12:17:30,1,R32,Union St,-73.98311,40.677316,1582.0458259433956
13:01:00,1,R33,4 Av-9 St,-73.988302,40.670847,1471.3564768309695
12:11:30,1,R34,Prospect Av,-73.992872,40.665414,1567.9426837275214
12:11:30,1,R35,25 St,-73.998091,40.660397,1642.2232267139466
12:11:30,1,R36,36 St,-74.003549,40.655144,1731.825875720569
12:11:30,1,R39,45 St,-74.010006,40.648939,1927.7082286617454
12:11:30,1,R40,53 St,-74.014034,40.645069,1834.0574444967654
13:15:30,0,R41,59 St,-74.017881,40.641362,1748.938961084443
13:15:30,0,R42,Bay Ridge Av,-74.023377,40.634967,1913.413209870651
13:15:30,0,R43,77 St,-74.02551,40.629742,1996.0218769750504
13:15:30,0,R44,86 St,-74.028398,40.622687,2180.4738120561988
13:15:30,0,R45,Bay Ridge-95 St,-74.030876,40.616622,2249.0555511866337
13:15:30,0,S01,Franklin Av,-73.955827,40.680596,2199.3075794489096
13:15:30,0,S03,Park Pl,-73.957624,40.674772,2165.733055597665
13:15:30,0,S04,Botanic Garden,-73.959245,40.670343,2079.8063380404133
