start_time,ntransfers,stop_id,stop_name,stop_lon,stop_lat,duration
12:40:00,1,101,Van Cortlandt Park-242 St,-73.898583,40.889248,3610.039674579475
12:40:00,1,103,238 St,-73.90087,40.884667,3503.2889263964908
12:40:00,1,104,231 St,-73.904834,40.878856,3408.4538200135125
12:40:00,1,106,Marble Hill-225 St,-73.909831,40.874561,3314.981953502065
12:40:00,1,107,215 St,-73.915279,40.869444,3206.857390056198
12:40:00,1,108,207 St,-73.918822,40.864621,3127.8725947345606
12:40:00,1,109,Dyckman St,-73.925536,40.860531,3029.8359676770688
12:40:00,1,110,191 St,-73.929412,40.855225,2939.6169200580216
12:40:00,1,111,181 St,-73.933596,40.849505,2844.372331313433
12:40:00,1,112,168 St-Washington Hts,-73.940133,40.840556,2723.5220059338235
12:40:00,1,113,157 St,-73.94489,40.834041,2716.038998378814
12:40:00,1,114,145 St,-73.95036,40.826551,2600.37435104
12:40:00,1,115,137 St-City College,-73.953676,40.822008,2499.3315679803627
12:40:00,1,116,125 St,-73.958372,40.815581,2400.5704360619275
12:40:00,1,117,116 St-Columbia University,-73.96411,40.807722,2282.414366697766
12:40:00,1,118,Cathedral Pkwy (110 St),-73.966847,40.803967,2204.383553222006
12:40:00,1,119,103 St,-73.968379,40.799446,2125.065371403824
12:00:00,1,120,96 St,-73.972323,40.793919,1876.7740462937159
12:20:00,1,121,86 St,-73.976218,40.788644,1910.9257695302877
12:20:00,1,122,79 St,-73.979917,40.783934,1832.1507084055934
12:00:00,1,123,72 St,-73.98197,40.778453,1701.2424141831364
12:00:00,1,124,66 St-Lincoln Center,-73.982209,40.77344,1793.7450151558746
12:00:00,1,125,59 St-Columbus Circle,-73.981929,40.768247,1712.6470448201994
12:00:00,1,126,50 St,-73.983849,40.761728,1604.0195938398072
12:00:00,1,127,Times Sq-42 St,-73.987495,40.75529,1461.8514582586945
12:00:00,1,128,34 St-Penn Station,-73.991057,40.750373,1352.1986639661854
12:05:00,1,129,28 St,-73.993365,40.747215,1385.8560711234536
12:05:00,1,130,23 St,-73.995657,40.744081,1317.2288407122821
12:05:00,1,131,18 St,-73.997871,40.74104,1248.7883274929977
12:05:00,1,132,14 St,-74.000201,40.737826,1172.7112237747979
12:20:00,1,133,Christopher St-Sheridan Sq,-74.002906,40.733422,1263.6643941021912
12:20:00,1,134,Houston St,-74.005367,40.728251,1343.6639875981261
12:20:00,1,135,Canal St,-74.006277,40.722854,1433.4216002656049
12:20:00,1,136,Franklin St,-74.006886,40.719318,1498.576849556241
12:00:00,1,137,Chambers St,-74.009266,40.715478,1447.4127728464553
12:35:00,1,138,WTC Cortlandt,-74.012188,40.711835,1639.8559202414444
12:35:00,1,139,Rector St,-74.013783,40.707513,1719.1544871204253
12:35:00,1,142,South Ferry,-74.013664,40.702068,1823.8749085142665
13:55:00,1,201,Wakefield-241 St,-73.85062,40.903125,4469.516493357491
13:55:00,1,204,Nereid Av,-73.854376,40.898379,4241.252445019122
13:55:00,1,205,233 St,-73.857473,40.893193,4109.252445019122
13:55:00,1,206,225 St,-73.860341,40.888022,4013.252445019122
13:55:00,1,207,219 St,-73.862633,40.883895,3931.2524450191227
13:55:00,1,208,Gun Hill Rd,-73.866256,40.87785,3822.7524450191227
13:55:00,1,209,Burke Av,-73.867164,40.871356,3886.2996908791206
13:55:00,1,210,Allerton Av,-73.867352,40.865462,3795.874403522799
13:55:00,1,211,Pelham Pkwy,-73.867615,40.857192,3683.9663575457876
13:55:00,1,212,Bronx Park East,-73.868457,40.848828,3556.8163575457875
13:55:00,1,213,E 180 St,-73.873488,40.841894,3353.2187922758067
12:35:00,1,214,West Farms Sq-E Tremont Av,-73.880049,40.840295,3279.2651459755944
12:35:00,1,215,174 St,-73.887734,40.837288,3153.225781857502
12:35:00,1,216,Freeman St,-73.891865,40.829993,3030.7178930520927
12:35:00,1,217,Simpson St,-73.893064,40.824073,2917.5052064849287
13:55:00,1,218,Intervale Av,-73.896736,40.822181,2842.8407719611187
13:55:00,1,219,Prospect Av,-73.90177,40.819585,2759.2753930606727
12:35:00,1,220,Jackson Av,-73.907807,40.81649,2659.5488594317003
13:55:00,1,221,3 Av-149 St,-73.917757,40.816109,2520.577451807067
12:35:00,1,222,149 St-Grand Concourse,-73.926718,40.81841,2388.9180029881695
12:00:00,1,224,135 St,-73.94077,40.814229,2414.6819508608605
12:00:00,1,225,125 St,-73.945495,40.807754,2303.729992636317
12:00:00,1,226,116 St,-73.949625,40.802098,2204.5867579640126
12:00:00,1,227,Central Park North (110 St),-73.951822,40.799075,2135.2051999353953
12:00:00,1,228,Park Place,-74.008811,40.713051,1536.618928895131
12:00:00,1,229,Fulton St,-74.006571,40.709416,1651.4915802521248
12:00:00,1,230,Wall St,-74.0091,40.706821,1726.9066745917473
12:00:00,1,231,Clark St,-73.993086,40.697466,1916.1202734928463
12:00:00,1,232,Borough Hall,-73.989998,40.693219,1876.8970896209175
12:02:30,3,233,Hoyt St,-73.985065,40.690545,1964.6549843577598
12:27:30,1,234,Nevins St,-73.980492,40.688246,1982.6986449879544
12:27:30,1,235,Atlantic Av-Barclays Ctr,-73.977666,40.684359,1882.4838887297196
12:27:30,1,236,Bergen St,-73.975098,40.680829,1928.8888834030145
12:27:30,1,237,Grand Army Plaza,-73.971046,40.675235,1828.4061247823247
12:27:30,1,238,Eastern Pkwy-Brooklyn Museum,-73.964375,40.671987,1729.418624782325
12:27:30,1,239,Franklin Av-Medgar Evers College,-73.958131,40.670682,1561.836078121634
12:27:30,1,241,President St-Medgar Evers College,-73.950683,40.667883,1757.2135427371154
12:27:30,1,242,Sterling St,-73.95085,40.662742,1849.2060136474508
12:27:30,1,243,Winthrop St,-73.9502,40.656652,1938.2596821257116
12:27:30,1,244,Church Av,-73.949575,40.650843,2017.09805792189
12:27:30,1,245,Beverly Rd,-73.948959,40.645098,2096.327322925262
12:27:30,1,246,Newkirk Av-Little Haiti,-73.948411,40.639967,2183.515836438775
12:27:30,1,247,Flatbush Av-Brooklyn College,-73.947642,40.632836,2334.1353938977327
12:27:30,1,248,Nostrand Av,-73.950466,40.669847,1463.1516552193486
12:27:30,1,249,Kingston Av,-73.942161,40.669399,1360.330501373195
12:27:30,1,250,Crown Hts-Utica Av,-73.932942,40.668897,1276.7522700806778
12:27:30,1,251,Sutter Av-Rutland Rd,-73.92261,40.664717,1177.0363922001889
12:27:30,1,252,Saratoga Av,-73.916327,40.661453,1071.2961324599291
12:27:30,1,253,Rockaway Av,-73.908946,40.662549,979.3638743954132
12:27:30,1,254,Junius St,-73.902447,40.663515,898.1811820877208
12:47:30,1,255,Pennsylvania Av,-73.894895,40.664635,1007.8653745470256
12:47:30,1,256,Van Siclen Av,-73.889395,40.665449,1087.8946788223818
12:47:30,1,257,New Lots Av,-73.884079,40.666235,1181.1877161482453
12:20:00,1,301,Harlem-148 St,-73.93647,40.82388,2671.3714275148072
12:20:00,1,302,145 St,-73.936245,40.820421,2554.811405787485
12:15:00,1,401,Woodlawn,-73.878751,40.886037,3712.6708154344956
12:15:00,1,402,Mosholu Pkwy,-73.884655,40.87975,3555.222444172878
12:15:00,1,405,Bedford Park Blvd-Lehman College,-73.890064,40.873412,3439.8335882155575
12:15:00,1,406,Kingsbridge Rd,-73.897174,40.86776,3323.460951953044
12:15:00,1,407,Fordham Rd,-73.901034,40.862803,3226.5387297308216
12:15:00,1,408,183 St,-73.903879,40.858407,3141.9419376954233
12:15:00,1,409,Burnside Av,-73.907684,40.853453,3040.664444089285
12:15:00,1,410,176 St,-73.911794,40.84848,2970.0002352133465
12:15:00,1,411,Mt Eden Av,-73.914685,40.844434,2890.653296437836
12:15:00,1,412,170 St,-73.917791,40.840075,2810.4469122881387
12:15:00,1,413,167 St,-73.9214,40.835537,2721.31836470884
12:15:00,1,414,161 St-Yankee Stadium,-73.925831,40.827994,2542.7629769948417
12:15:00,1,415,149 St-Grand Concourse,-73.927351,40.818375,2364.848794055479
12:35:00,1,416,138 St-Grand Concourse,-73.929849,40.813224,2205.0815913786705
12:05:00,1,418,Fulton St,-74.009509,40.710368,1489.936870657602
12:05:00,1,419,Wall St,-74.011862,40.707557,1569.7510299496373
12:05:00,1,420,Bowling Green,-74.014065,40.704817,1649.1119960070785
12:05:00,1,423,Borough Hall,-73.990151,40.692404,1876.1617959941323
13:55:00,1,501,Eastchester-Dyre Av,-73.830834,40.8883,4076.4741606229522
13:55:00,1,502,Baychester Av,-73.838591,40.878663,3945.8002354414893
13:55:00,1,503,Gun Hill Rd,-73.846384,40.869526,3803.2187922758067
13:55:00,1,504,Pelham Pkwy,-73.855359,40.858985,3653.2187922758067
13:55:00,1,505,Morris Park,-73.860495,40.854364,3563.2187922758067
13:35:00,1,601,Pelham Bay Park,-73.828121,40.852462,3817.98386479826
13:35:00,1,602,Buhre Av,-73.832569,40.84681,3640.720706903523
13:35:00,1,603,Middletown Rd,-73.836322,40.843863,3570.4276034552468
13:35:00,1,604,Westchester Sq-E Tremont Av,-73.842952,40.839892,3438.2511328670116
13:35:00,1,606,Zerega Av,-73.847036,40.836488,3351.2011328670114
13:35:00,1,607,Castle Hill Av,-73.851222,40.834255,3281.9552312276674
12:55:00,1,608,Parkchester,-73.860816,40.833226,3096.541438124219
12:55:00,1,609,St Lawrence Av,-73.867618,40.831509,3340.401770787017
12:55:00,1,610,Morrison Av-Soundview,-73.874516,40.829521,3239.2507268065638
12:55:00,1,611,Elder Av,-73.879159,40.828584,3166.5253223465725
12:55:00,1,612,Whitlock Av,-73.886283,40.826525,3053.820560441811
12:55:00,1,613,Hunts Point Av,-73.890549,40.820948,2824.1414381242193
12:15:00,1,614,Longwood Av,-73.896435,40.816104,2943.232733517725
12:15:00,1,615,E 149 St,-73.904098,40.812118,2840.4619514222995
12:15:00,1,616,E 143 St-St Mary's St,-73.907657,40.808719,2763.7878553351275
12:15:00,1,617,Cypress Av,-73.914042,40.805368,2652.372905128274
12:15:00,1,618,Brook Av,-73.91924,40.807566,2576.7539560178066
12:15:00,1,619,3 Av-138 St,-73.926138,40.810476,2456.4960480532973
12:35:00,1,621,125 St,-73.937594,40.804138,2022.0980171342553
12:35:00,1,622,116 St,-73.941617,40.798629,2334.7374740159066
12:15:00,1,623,110 St,-73.94425,40.79502,2252.849188786705
12:15:00,1,624,103 St,-73.947478,40.7906,2175.2081979485647
12:15:00,1,625,96 St,-73.95107,40.785672,2084.833791974362
12:35:00,1,626,86 St,-73.955589,40.779492,1713.7774709704063
12:15:00,1,627,77 St,-73.959874,40.77362,1902.261674084923
12:15:00,1,628,68 St-Hunter College,-73.96387,40.768141,1808.7245062409945
12:35:00,1,629,59 St,-73.967967,40.762526,1513.7227734157086
12:15:00,1,630,51 St,-73.97192,40.757107,1599.0703190821887
12:35:00,1,631,Grand Central-42 St,-73.976848,40.751776,1346.875880398412
12:05:00,1,632,33 St,-73.982076,40.746081,1350.2106813976163
12:05:00,1,633,28 St,-73.984264,40.74307,1281.462018296012
12:05:00,1,634,23 St,-73.986599,40.739864,1203.5601393816069
12:00:00,1,635,14 St-Union Sq,-73.989951,40.734673,1094.6963874599871
12:00:00,1,636,Astor Pl,-73.99107,40.730054,1175.202207116218
12:00:00,1,637,Bleecker St,-73.994659,40.725915,1268.66010185306
12:00:00,1,638,Spring St,-73.997141,40.722301,1339.9166463556778
12:00:00,1,639,Canal St,-74.000193,40.718803,1416.8961546176856
12:05:00,1,640,Brooklyn Bridge-City Hall,-74.004131,40.713065,1371.2744180659456
12:00:00,2,701,Flushing-Main St,-73.83003,40.7596,2539.7081651558565
12:00:00,2,702,Mets-Willets Point,-73.845625,40.754622,2374.6855114341733
12:00:00,2,705,111 St,-73.855334,40.75173,2438.9059468966793
12:00:00,2,706,103 St-Corona Plaza,-73.8627,40.749865,2359.9985770521894
12:00:00,2,707,Junction Blvd,-73.869527,40.749145,2155.8244635981823
12:00:00,2,708,90 St-Elmhurst Av,-73.876613,40.748408,2232.434457302882
12:00:00,2,709,82 St-Jackson Hts,-73.883697,40.747659,2144.7668918175204
12:00:00,2,710,74 St-Broadway,-73.891394,40.746848,1983.9294143400425
12:00:00,2,711,69 St,-73.896403,40.746325,1914.992927853556
12:00:00,2,712,61 St-Woodside,-73.902984,40.74563,1833.0734053275644
12:00:00,2,713,52 St,-73.912549,40.744149,1738.4833184968843
12:00:00,2,714,46 St-Bliss St,-73.918435,40.743132,1677.7536498221855
12:00:00,2,715,40 St-Lowery St,-73.924016,40.743781,1609.6393951975933
12:00:00,2,716,33 St-Rawson St,-73.930997,40.744587,1530.895455803654
12:00:00,2,718,Queensboro Plaza,-73.940202,40.750582,1390.9168750109638
12:00:00,2,719,Court Sq,-73.945264,40.747023,1295.7805113746003
12:00:00,2,720,Hunters Point Av,-73.948916,40.742216,1390.8674678963393
12:00:00,2,721,Vernon Blvd-Jackson Av,-73.953581,40.742626,1417.8674678963393
12:00:00,2,723,Grand Central-42 St,-73.976041,40.751431,1483.3431987335464
12:10:00,2,724,5 Av,-73.981963,40.753821,1553.6614991435351
12:10:00,2,725,Times Sq-42 St,-73.987691,40.755477,1491.8224992186845
12:00:00,2,726,34 St-Hudson Yards,-74.00191,40.755882,1636.4246889997064
12:00:00,2,901,Grand Central-42 St,-73.979189,40.752769,1423.3431987335464
12:15:00,2,902,Times Sq-42 St,-73.986229,40.755983,1431.8224992186845
13:25:00,1,A02,Inwood-207 St,-73.919899,40.868072,3068.415606502732
12:40:00,1,A03,Dyckman St,-73.927271,40.865491,2968.6767796870895
12:40:00,1,A05,190 St,-73.93418,40.859022,2838.2967687041128
12:40:00,1,A06,181 St,-73.937969,40.851695,2725.4118568098397
12:40:00,1,A07,175 St,-73.939704,40.847391,2632.6268512971606
12:00:00,1,A09,168 St,-73.939561,40.840719,2498.032874721589
13:25:00,1,A10,163 St-Amsterdam Av,-73.939892,40.836013,2531.6453498780274
13:25:00,1,A11,155 St,-73.941514,40.830518,2446.7755229404806
12:00:00,1,A12,145 St,-73.944216,40.824783,2252.2213766563596
13:25:00,1,A14,135 St,-73.947649,40.817894,2163.3523236121355
12:00:00,1,A15,125 St,-73.952343,40.811109,2037.9567680565797
12:20:00,1,A16,116 St,-73.954882,40.805085,2175.8951886814375
12:20:00,1,A17,Cathedral Pkwy (110 St),-73.958161,40.800603,2227.2859054836026
12:20:00,1,A18,103 St,-73.961454,40.796092,2140.8566920004564
12:20:00,1,A19,96 St,-73.964696,40.791642,2053.7297197991043
12:20:00,1,A20,86 St,-73.968916,40.785868,1952.9220274914119
12:20:00,1,A21,81 St-Museum of Natural History,-73.972143,40.781433,1854.4474255202213
12:20:00,1,A22,72 St,-73.97641,40.775594,1762.5845467323427
12:00:00,1,A24,59 St-Columbus Circle,-73.981736,40.768296,1536.9463342290126
12:20:00,1,A25,50 St,-73.985984,40.762456,1518.01328272238
12:00:00,1,A27,42 St-Port Authority Bus Terminal,-73.989735,40.757308,1372.4150155476939
12:00:00,1,A28,34 St-Penn Station,-73.993391,40.752287,1270.6187497596652
12:20:00,1,A30,23 St,-73.998041,40.745906,1211.044584935589
12:30:00,1,A31,14 St,-74.00169,40.740893,1121.8439700239826
13:10:00,1,A32,W 4 St-Wash Sq,-74.000495,40.732338,1240.9239323946317
12:25:00,1,A33,Spring St,-74.003739,40.726227,1347.2178014258002
13:10:00,1,A34,Canal St,-74.005229,40.720824,1393.8897137374072
13:10:00,1,A36,Chambers St,-74.008585,40.714111,1509.6650575988438
12:32:30,1,A38,Fulton St,-74.007691,40.710197,1619.3071146253203
12:32:30,1,A40,High St,-73.990531,40.699337,1560.4653893327331
12:32:30,1,A41,Jay St-MetroTech,-73.987342,40.692338,1414.8970896209175
12:32:30,1,A42,Hoyt-Schermerhorn Sts,-73.985001,40.688484,1302.4739482011298
12:32:30,1,A43,Lafayette Av,-73.973946,40.686113,1314.4826496909852
12:32:30,1,A44,Clinton-Washington Avs,-73.965838,40.683263,1229.4826496909852
12:32:30,1,A45,Franklin Av,-73.956848,40.68138,1123.7636745108412
12:32:30,1,A46,Nostrand Av,-73.950426,40.680438,958.4960626025833
12:32:30,1,A47,Kingston-Throop Avs,-73.940858,40.679921,941.7525621759974
12:32:30,1,A48,Utica Av,-73.930729,40.679364,790.4274445603567
13:02:30,1,A49,Ralph Av,-73.920786,40.678822,745.7772830555523
13:02:30,1,A50,Rockaway Av,-73.911946,40.67834,649.1131493169505
12:37:30,1,A51,Broadway Junction,-73.905316,40.678334,559.8689720066575
12:14:30,1,A52,Liberty Av,-73.896548,40.674542,697.8846670739221
12:14:30,1,A53,Van Siclen Av,-73.890358,40.67271,794.0431125148787
12:14:30,1,A54,Shepherd Av,-73.88075,40.67413,895.5412314012594
12:22:30,1,A55,Euclid Av,-73.872106,40.675377,877.1964267254372
12:22:30,1,A57,Grant Av,-73.86505,40.677044,1007.403108239914
12:22:30,1,A59,80 St,-73.858992,40.679371,1104.909752046172
12:22:30,1,A60,88 St,-73.85147,40.679843,1204.0993924571308
12:22:30,1,A61,Rockaway Blvd,-73.843853,40.680429,1297.5233101596598
12:52:30,1,A63,104 St,-73.837683,40.681711,1388.5712613366431
13:12:30,1,A64,111 St,-73.832163,40.684331,1479.706640398015
13:12:30,1,A65,Ozone Park-Lefferts Blvd,-73.825798,40.685951,1590.585100085139
12:10:00,1,B04,21 St-Queensbridge,-73.942836,40.754203,2088.428571599575
12:10:00,1,B06,Roosevelt Island,-73.95326,40.759145,1917.8099609018677
12:10:00,1,B08,Lexington Av/63 St,-73.966113,40.764629,1754.4757679964396
12:20:00,1,B10,57 St,-73.97745,40.763972,1656.0587253170243
12:00:00,1,B12,9 Av,-73.994324,40.646292,2713.997046880111
12:00:00,1,B13,Fort Hamilton Pkwy,-73.994304,40.640914,2842.933799671628
12:00:00,1,B14,50 St,-73.994791,40.63626,2923.6937428534466
12:00:00,1,B15,55 St,-73.995476,40.631435,3026.7221923555803
12:00:00,1,B16,62 St,-73.996895,40.626472,3091.6705744819283
12:00:00,1,B17,71 St,-73.998864,40.619589,3194.567864068234
12:00:00,1,B18,79 St,-74.00061,40.613501,3299.0186486616717
12:00:00,1,B19,18 Av,-74.001736,40.607954,3383.502220090243
12:00:00,1,B20,20 Av,-73.998168,40.604556,3468.713799790029
12:00:00,1,B21,Bay Pkwy,-73.993728,40.601875,3549.8717323097703
13:30:00,1,B22,25 Av,-73.986829,40.597704,3459.9601502640103
13:30:00,1,B23,Bay 50 St,-73.983765,40.588841,3317.9480329170715
12:00:00,1,D01,Norwood-205 St,-73.878855,40.874811,3552.16234371264
12:00:00,1,D03,Bedford Park Blvd,-73.887138,40.873244,3383.4625893904995
12:00:00,1,D04,Kingsbridge Rd,-73.893509,40.866978,3264.9222047751146
12:00:00,1,D05,Fordham Rd,-73.897749,40.861296,3164.789318869074
12:00:00,1,D06,182-183 Sts,-73.900741,40.856093,3079.616531588858
13:50:00,1,D07,Tremont Av,-73.905227,40.85041,2996.0161581061316
13:50:00,1,D08,174-175 Sts,-73.910136,40.8459,2969.0978842498835
13:50:00,1,D09,170 St,-73.9134,40.839306,2863.5540747260743
13:50:00,1,D10,167 St,-73.91844,40.833771,2756.315862525405
13:50:00,1,D11,161 St-Yankee Stadium,-73.925651,40.827905,2607.5371510408113
13:50:00,1,D12,155 St,-73.938209,40.830135,2474.0617748438212
12:00:00,1,D13,145 St,-73.944216,40.824783,2326.1499580470336
12:05:00,1,D14,7 Av,-73.981637,40.762862,1660.4931468379132
12:20:00,1,D15,47-50 Sts-Rockefeller Ctr,-73.981329,40.758663,1562.6148207886577
12:20:00,1,D16,42 St-Bryant Pk,-73.984569,40.754222,1468.3195487101564
12:20:00,1,D17,34 St-Herald Sq,-73.987823,40.749719,1387.0167337579696
12:20:00,1,D18,23 St,-73.992821,40.742878,1267.8051005220486
13:50:00,1,D19,14 St,-73.996209,40.738228,1187.7112237747979
13:40:00,1,D20,W 4 St-Wash Sq,-74.000495,40.732338,1286.1479224927466
13:40:00,1,D21,Broadway-Lafayette St,-73.996204,40.725297,1443.7834956152765
14:00:00,1,D22,Grand St,-73.993753,40.718267,1621.2025401006915
13:45:00,1,D24,Atlantic Av-Barclays Ctr,-73.97689,40.68446,1992.950802164289
13:45:00,1,D25,7 Av,-73.972367,40.67705,1840.3375854490314
12:02:30,2,D26,Prospect Park,-73.962246,40.661614,1551.6155997462458
12:10:30,2,D27,Parkside Av,-73.961495,40.655292,1897.7030118673342
12:02:30,2,D28,Church Av,-73.962982,40.650527,1777.2739518921082
12:10:30,2,D29,Beverley Rd,-73.964492,40.644031,1884.3703700958022
12:10:30,2,D30,Cortelyou Rd,-73.963891,40.640927,1962.507400051188
12:02:30,2,D31,Newkirk Plaza,-73.962793,40.635082,1956.0179518921082
12:10:30,2,D32,Avenue H,-73.961639,40.62927,2069.3427309360222
12:10:30,2,D33,Avenue J,-73.960803,40.625039,2166.2272723086967
12:10:30,2,D34,Avenue M,-73.959399,40.617618,2277.033621515046
12:02:30,2,D35,Kings Hwy,-73.957734,40.60867,2221.4133241255086
12:02:30,2,D37,Avenue U,-73.955929,40.5993,2440.761567240375
12:02:30,2,D38,Neck Rd,-73.955161,40.595246,2544.8593245721745
12:02:30,2,D39,Sheepshead Bay,-73.954155,40.586896,2490.573730216879
12:02:30,2,D40,Brighton Beach,-73.961376,40.577621,2651.8806303198658
12:02:30,2,D41,Ocean Pkwy,-73.968501,40.576312,2840.625557445064
12:02:30,2,D42,W 8 St-NY Aquarium,-73.975939,40.576127,2955.175237863425
12:02:30,2,D43,Coney Island-Stillwell Av,-73.981233,40.577422,3043.941195310234
12:35:00,1,E01,World Trade Center,-74.009781,40.712582,1577.6659518914535
12:32:30,1,F01,Jamaica-179 St,-73.783817,40.712646,2878.6887103832564
12:32:30,1,F02,169 St,-73.793604,40.71047,2788.6887103832564
12:32:30,1,F03,Parsons Blvd,-73.803326,40.707564,2624.9534859847445
12:32:30,1,F04,Sutphin Blvd,-73.810708,40.70546,2534.9534859847445
12:32:30,1,F05,Briarwood,-73.820574,40.709179,2293.6887103832564
13:02:30,1,F06,Kew Gardens-Union Tpke,-73.831008,40.714441,2404.23424331992
13:02:30,1,F07,75 Av,-73.837324,40.718331,2488.229778285309
12:00:00,2,F09,Court Sq-23 St,-73.946,40.747846,1295.7805113746003
12:00:00,2,F11,Lexington Av/53 St,-73.969055,40.757552,1499.3519399460288
12:00:00,2,F12,5 Av/53 St,-73.975224,40.760167,1583.0192535411177
13:40:00,1,F14,2 Av,-73.989938,40.723402,1556.0445571081316
13:40:00,1,F15,Delancey St-Essex St,-73.988114,40.718611,1489.147063363278
13:17:30,1,F16,East Broadway,-73.990173,40.713715,1584.1708728870874
13:17:30,1,F18,York St,-73.986751,40.701397,1639.8970896209175
12:20:00,1,F20,Bergen St,-73.990862,40.686145,1539.5005394897087
12:20:00,1,F21,Carroll St,-73.995048,40.680303,1667.3933172674865
12:20:00,1,F22,Smith-9 Sts,-73.995959,40.67358,1799.7383562864384
12:20:00,1,F23,4 Av-9 St,-73.989779,40.670272,1894.8481761586058
12:20:00,1,F24,7 Av,-73.980305,40.666271,1969.8970896209175
12:20:00,1,F25,15 St-Prospect Park,-73.979493,40.660365,2132.266599519963
12:20:00,1,F26,Fort Hamilton Pkwy,-73.975776,40.650782,2294.3037694336467
12:20:00,1,F27,Church Av,-73.979678,40.644041,2209.8970896209175
13:50:00,1,F29,Ditmas Av,-73.978172,40.636119,2329.8970896209175
13:50:00,1,F30,18 Av,-73.976971,40.629755,2449.8970896209175
13:50:00,1,F31,Avenue I,-73.976127,40.625322,2509.8970896209175
13:50:00,1,F32,Bay Pkwy,-73.975264,40.620769,2569.8970896209175
13:50:00,1,F33,Avenue N,-73.974197,40.61514,2689.8970896209175
13:50:00,1,F34,Avenue P,-73.973022,40.608944,2779.8970896209175
13:50:00,1,F35,Kings Hwy,-73.972361,40.603217,2995.719325795734
13:20:00,1,F36,Avenue U,-73.973357,40.596063,3104.7485495510846
13:20:00,1,F38,Avenue X,-73.97425,40.58962,3204.4745874503133
12:02:30,2,F39,Neptune Av,-73.974574,40.581011,3270.175237863425
13:32:30,1,G05,Jamaica Center-Parsons/Archer,-73.801109,40.702147,1849.8689720066573
13:32:30,1,G06,Sutphin Blvd-Archer Av-JFK Airport,-73.807969,40.700486,1789.8689720066573
13:02:30,1,G07,Jamaica-Van Wyck,-73.816859,40.702566,2156.0231813730175
13:02:30,1,G08,Forest Hills-71 Av,-73.844521,40.721691,2354.717583163357
12:02:30,1,G09,67 Av,-73.852719,40.726523,2503.707515607064
12:00:00,2,G10,63 Dr-Rego Park,-73.861604,40.729846,2380.880313568225
12:00:00,2,G11,Woodhaven Blvd,-73.869229,40.733106,2268.754852313613
12:00:00,2,G12,Grand Av-Newtown,-73.877223,40.737015,2150.651721558548
12:00:00,2,G13,Elmhurst Av,-73.882017,40.742454,2045.060561337554
12:00:00,2,G14,Jackson Hts-Roosevelt Av,-73.891338,40.746644,1898.6774773898887
12:00:00,2,G15,65 St,-73.898453,40.749669,1985.7931349807438
12:00:00,2,G16,Northern Blvd,-73.906006,40.752885,1891.4632380735275
12:00:00,2,G18,46 St,-73.913333,40.756312,1801.4632380735275
12:00:00,2,G19,Steinway St,-73.92074,40.756879,1684.556021578682
12:00:00,2,G20,36 St,-73.928781,40.752039,1564.556021578682
12:00:00,2,G21,Queens Plaza,-73.937243,40.748973,1419.147858313376
12:00:00,1,G22,Court Sq,-73.943832,40.746554,1181.286323558771
12:00:00,1,G24,21 St,-73.949724,40.744065,1114.9271085417063
12:00:00,1,G26,Greenpoint Av,-73.954449,40.731352,920.1113349113632
12:00:00,1,G28,Nassau Av,-73.951277,40.724635,822.6469850012373
12:20:00,1,G29,Metropolitan Av,-73.951418,40.712792,682.6248954489986
12:10:00,1,G30,Broadway,-73.950308,40.706092,799.6592760062006
12:10:00,1,G31,Flushing Av,-73.950234,40.700377,889.6788373577123
12:10:00,1,G32,Myrtle-Willoughby Avs,-73.949046,40.694568,966.7286889897597
12:10:00,1,G33,Bedford-Nostrand Avs,-73.953522,40.689627,1078.1424203330434
12:10:00,1,G34,Classon Av,-73.96007,40.688873,1156.9064589036616
12:10:00,1,G35,Clinton-Washington Avs,-73.966839,40.688089,1244.6629043232997
12:10:00,1,G36,Fulton St,-73.975375,40.687119,1343.2320678006097
13:02:30,1,H01,Aqueduct Racetrack,-73.834058,40.668234,1508.401814832557
12:22:30,1,H02,Aqueduct-N Conduit Av,-73.834058,40.668234,1569.5413512028572
12:22:30,1,H03,Howard Beach-JFK Airport,-73.830301,40.660476,1686.1483258911999
12:22:30,1,H04,Broad Channel,-73.815925,40.608382,2151.529882574787
12:22:30,1,H06,Beach 67 St,-73.796924,40.590927,2480.4963942026943
13:02:30,1,H07,Beach 60 St,-73.788522,40.592374,2606.353140967944
13:02:30,1,H08,Beach 44 St,-73.776013,40.592943,2716.0293666848725
13:02:30,1,H09,Beach 36 St,-73.768175,40.595398,2817.301588907095
13:02:30,1,H10,Beach 25 St,-73.761353,40.600066,2917.7421093531916
13:02:30,1,H11,Far Rockaway-Mott Av,-73.755405,40.603995,3008.041696130051
12:22:30,1,H12,Beach 90 St,-73.813641,40.588034,2421.58702543193
12:22:30,1,H13,Beach 98 St,-73.820558,40.585307,2521.690799016836
12:22:30,1,H14,Beach 105 St,-73.827559,40.583209,2611.3669894930267
12:22:30,1,H15,Rockaway Park-Beach 116 St,-73.835592,40.580903,2714.916440042477
13:32:30,1,J12,121 St,-73.828294,40.700492,1549.8689720066573
13:32:30,1,J13,111 St,-73.836345,40.697418,1710.9340726777984
13:32:30,1,J14,104 St,-73.84433,40.695178,1369.8689720066573
13:32:30,1,J15,Woodhaven Blvd,-73.851576,40.693879,1279.8689720066573
13:32:30,1,J16,85 St-Forest Pkwy,-73.86001,40.692435,1292.253179318139
13:32:30,1,J17,75 St-Elderts Ln,-73.867139,40.691324,1099.8689720066573
13:32:30,1,J19,Cypress Hills,-73.87255,40.689941,1124.631820094838
13:32:30,1,J20,Crescent St,-73.873785,40.683194,949.8689720066575
13:32:30,1,J21,Norwood Av,-73.880039,40.68141,859.8689720066575
13:32:30,1,J22,Cleveland St,-73.884639,40.679947,863.4085059187261
13:32:30,1,J23,Van Siclen Av,-73.891688,40.678024,709.8689720066575
13:32:30,1,J24,Alabama Av,-73.898654,40.676992,649.8689720066575
12:42:30,1,J27,Broadway Junction,-73.904512,40.679498,546.5505847366838
12:02:30,1,J28,Chauncey St,-73.910456,40.682893,619.8689720066575
12:02:30,1,J29,Halsey St,-73.916559,40.68637,749.2237465424664
12:02:30,1,J30,Gates Av,-73.92227,40.68963,769.8689720066575
12:02:30,1,J31,Kosciuszko St,-73.928814,40.693342,735.5801910675148
12:00:00,0,L01,8 Av,-74.002578,40.739777,1061.8439700239826
12:00:00,0,L02,6 Av,-73.996786,40.737335,962.711223774798
12:00:00,0,L03,14 St-Union Sq,-73.99073,40.734789,871.2392441532551
12:00:00,0,L05,3 Av,-73.986122,40.732849,810.5979245657119
12:00:00,0,L06,1 Av,-73.981628,40.730953,771.6988124839415
12:00:00,0,L08,Bedford Av,-73.956872,40.717304,567.485303422986
12:00:00,0,L10,Lorimer St,-73.950275,40.714063,469.4106112674037
12:00:00,0,L11,Graham Av,-73.944053,40.714565,427.3051036363486
12:00:00,0,L12,Grand St,-73.94067,40.711926,342.2073519256937
12:00:00,0,L13,Montrose Av,-73.93985,40.707739,295.7291547838835
12:00:00,0,L14,Morgan Av,-73.933147,40.706152,231.92253570536303
12:00:00,0,L15,Jefferson St,-73.922913,40.706607,139.88781205475198
12:00:00,0,L16,DeKalb Av,-73.918425,40.703811,75.28483606557377
12:06:30,0,L17,Myrtle-Wyckoff Avs,-73.911586,40.699814,0.0
12:02:30,0,L19,Halsey St,-73.904084,40.695602,48.28363636363636
12:02:30,0,L20,Wilson Av,-73.904046,40.688764,168.63379084355395
12:02:30,0,L21,Bushwick Av-Aberdeen St,-73.905249,40.682829,261.3077275938266
12:02:30,0,L22,Broadway Junction,-73.90324,40.678856,321.5505847366838
12:02:30,0,L24,Atlantic Av,-73.903097,40.675345,425.9529150999463
12:02:30,0,L25,Sutter Av,-73.901975,40.669367,502.45258154424255
12:02:30,0,L26,Livonia Av,-73.900571,40.664038,568.1811820877208
12:02:30,0,L27,New Lots Av,-73.899232,40.658733,622.003396548077
12:02:30,0,L28,East 105 St,-73.899485,40.650573,732.2298181846929
12:02:30,0,L29,Canarsie-Rockaway Pkwy,-73.90185,40.646654,856.0039876509117
12:06:30,1,M01,Middle Village-Metropolitan Av,-73.889601,40.711396,624.5584075575176
12:06:30,1,M04,Fresh Pond Rd,-73.895877,40.706186,503.9766215274558
12:06:30,1,M05,Forest Av,-73.903077,40.704423,406.45703090605264
12:06:30,1,M06,Seneca Av,-73.90774,40.702762,311.59739403454427
12:06:30,1,M08,Myrtle-Wyckoff Avs,-73.912385,40.69943,225.0
12:15:00,1,M09,Knickerbocker Av,-73.919711,40.698664,325.3963907902925
12:15:00,1,M10,Central Av,-73.927397,40.697857,440.4170674820218
12:15:00,1,M11,Myrtle Av,-73.935657,40.697207,570.4172375640948
12:15:00,1,M12,Flushing Av,-73.941126,40.70026,684.1261524522533
12:15:00,1,M13,Lorimer St,-73.947408,40.703869,782.3427673590857
12:15:00,1,M14,Hewes St,-73.953431,40.70687,890.6015358703872
12:15:00,1,M16,Marcy Av,-73.957757,40.708359,887.8137300299445
12:15:00,1,M18,Delancey St-Essex St,-73.987437,40.718315,1264.147063363278
12:02:30,1,M19,Bowery,-73.993915,40.72028,1347.0042062204207
12:02:30,1,M20,Canal St,-73.999892,40.718092,1445.853412569627
12:25:00,2,M21,Chambers St,-74.003401,40.713243,1491.2744180659456
12:15:00,2,M22,Fulton St,-74.007582,40.710374,1585.2398886143544
12:15:00,2,M23,Broad St,-74.011056,40.706476,1650.1468653585407
12:00:00,1,N02,8 Av,-74.011719,40.635064,2872.2829180611425
12:00:00,1,N03,Fort Hamilton Pkwy,-74.005351,40.631386,3019.753748939162
12:00:00,1,N04,New Utrecht Av,-73.996353,40.624842,3149.818122872362
12:00:00,1,N05,18 Av,-73.990414,40.620671,3245.7884002831943
12:00:00,1,N06,20 Av,-73.985026,40.61741,3333.2249082197022
12:00:00,1,N07,Bay Pkwy,-73.981848,40.611815,3430.9964313985106
12:00:00,1,N08,Kings Hwy,-73.980353,40.603923,3501.3601543810214
12:00:00,1,N09,Avenue U,-73.979137,40.597473,3403.448991318485
12:00:00,1,N10,86 St,-73.97823,40.592721,3322.93015778264
12:35:00,1,Q01,Canal St,-74.00046,40.718383,1372.6642468212613
12:10:00,1,Q03,72 St,-73.958424,40.768799,1884.9136343504842
12:10:00,1,Q04,86 St,-73.951787,40.777891,2009.9530693122263
12:10:00,1,Q05,96 St,-73.947152,40.784318,2102.951533213916
12:00:00,3,R01,Astoria-Ditmars Blvd,-73.912034,40.775036,2133.4533335863907
12:00:00,3,R03,Astoria Blvd,-73.917843,40.770258,2037.1579869577108
12:00:00,3,R04,30 Av,-73.921479,40.766779,1930.4610471748877
12:00:00,3,R05,Broadway,-73.925508,40.76182,1835.0800947939351
12:00:00,3,R06,36 Av,-73.929575,40.756804,1722.5988694974924
12:00:00,3,R08,39 Av-Dutch Kills,-73.932755,40.752882,1605.0539593178516
12:05:00,2,R09,Queensboro Plaza,-73.940202,40.750582,1442.6091831984486
12:00:00,3,R11,Lexington Av/59 St,-73.967258,40.76266,1708.0191427675454
12:00:00,1,R13,5 Av/59 St,-73.973347,40.764811,1760.7592288121332
12:10:00,1,R14,57 St-7 Av,-73.980658,40.764664,1554.9563104492697
12:05:00,1,R15,49 St,-73.984139,40.759901,1503.180164239897
12:10:00,1,R16,Times Sq-42 St,-73.986754,40.754672,1371.8224992186845
12:10:00,1,R17,34 St-Herald Sq,-73.98795,40.749567,1268.8427493675827
12:05:00,1,R18,28 St,-73.988691,40.745494,1272.9026865347978
12:05:00,1,R19,23 St,-73.989344,40.741303,1187.8521914852927
12:05:00,1,R20,14 St-Union Sq,-73.990568,40.735736,1096.239244153255
12:05:00,1,R21,8 St-NYU,-73.992629,40.730328,1209.2704701281557
12:05:00,1,R22,Prince St,-73.997702,40.724329,1312.860202510251
12:05:00,1,R23,Canal St,-74.001775,40.719527,1420.7750308728685
12:05:00,1,R24,City Hall,-74.006978,40.713282,1568.6895481904808
12:05:00,1,R25,Cortlandt St,-74.011029,40.710668,1641.708328654555
12:05:00,1,R26,Rector St,-74.013342,40.70722,1757.156151736794
12:02:30,2,R27,Whitehall St-South Ferry,-74.012994,40.703087,1848.2734314036923
12:32:30,2,R28,Court St,-73.991777,40.6941,1636.8970896209175
12:02:30,2,R29,Jay St-MetroTech,-73.985942,40.69218,1549.8970896209175
12:47:30,2,R30,DeKalb Av,-73.981824,40.690635,1658.0970896209176
13:45:00,1,R31,Atlantic Av-Barclays Ctr,-73.97881,40.683666,1817.3970896209178
13:45:00,1,R32,Union St,-73.98311,40.677316,1952.6970896209177
13:45:00,1,R33,4 Av-9 St,-73.988302,40.670847,2065.7079572165903
13:45:00,1,R34,Prospect Av,-73.992872,40.665414,2164.797089620918
13:45:00,1,R35,25 St,-73.998091,40.660397,2230.9023527788127
12:00:00,1,R36,36 St,-74.003549,40.655144,2349.5273527788127
13:45:00,1,R39,45 St,-74.010006,40.648939,2535.329230537842
13:45:00,1,R40,53 St,-74.014034,40.645069,2637.543305049965
12:00:00,1,R41,59 St,-74.017881,40.641362,2698.7595314418413
13:45:00,1,R42,Bay Ridge Av,-74.023377,40.634967,2863.233780228049
13:45:00,1,R43,77 St,-74.02551,40.629742,2945.8424473324485
13:45:00,1,R44,86 St,-74.028398,40.622687,3129.5547174441335
13:45:00,1,R45,Bay Ridge-95 St,-74.030876,40.616622,3198.876121544032
12:32:30,2,S01,Franklin Av,-73.955827,40.680596,1183.7636745108412
12:32:30,2,S03,Park Pl,-73.957624,40.674772,1300.1039522886188
12:32:30,2,S04,Botanic Garden,-73.959245,40.670343,1424.6797537702207
