start_time,ntransfers,stop_id,stop_name,stop_lon,stop_lat,duration
12:34:30,1,101,Van Cortlandt Park-242 St,-73.898583,40.889248,3874.1973011498153
12:34:30,1,103,238 St,-73.90087,40.884667,3767.4465529668314
12:34:30,1,104,231 St,-73.904834,40.878856,3672.6114465838527
12:34:30,1,106,Marble Hill-225 St,-73.909831,40.874561,3579.1395800724054
12:34:30,1,107,215 St,-73.915279,40.869444,3471.015016626538
12:34:30,1,108,207 St,-73.918822,40.864621,3392.030221304901
12:34:30,1,109,Dyckman St,-73.925536,40.860531,3293.9935942474094
12:34:30,1,110,191 St,-73.929412,40.855225,3203.774546628362
12:34:30,1,111,181 St,-73.933596,40.849505,3108.5299578837735
12:34:30,1,112,168 St-Washington Hts,-73.940133,40.840556,2987.6796325041637
12:34:30,1,113,157 St,-73.94489,40.834041,2980.1966249491534
12:34:30,1,114,145 St,-73.95036,40.826551,2864.5319776103393
12:34:30,1,115,137 St-City College,-73.953676,40.822008,2763.4891945507025
12:34:30,1,116,125 St,-73.958372,40.815581,2664.728062632267
12:34:30,1,117,116 St-Columbia University,-73.96411,40.807722,2546.5719932681054
12:34:30,1,118,Cathedral Pkwy (110 St),-73.966847,40.803967,2468.5411797923452
12:34:30,1,119,103 St,-73.968379,40.799446,2389.2229979741637
12:14:30,1,120,96 St,-73.972323,40.793919,2140.9316728640556
12:14:30,1,121,86 St,-73.976218,40.788644,2175.0833961006274
12:14:30,1,122,79 St,-73.979917,40.783934,2096.308334975933
12:14:30,1,123,72 St,-73.98197,40.778453,1965.4000407534763
12:54:30,1,124,66 St-Lincoln Center,-73.982209,40.77344,2055.052742749701
12:54:30,1,125,59 St-Columbus Circle,-73.981929,40.768247,1973.9547724140257
12:54:30,1,126,50 St,-73.983849,40.761728,1865.3273214336336
12:14:30,1,127,Times Sq-42 St,-73.987495,40.75529,1726.0090848290347
12:14:30,1,128,34 St-Penn Station,-73.991057,40.750373,1616.3562905365256
12:29:30,1,129,28 St,-73.993365,40.747215,1650.0136976937938
12:29:30,1,130,23 St,-73.995657,40.744081,1581.3864672826223
12:29:30,1,131,18 St,-73.997871,40.74104,1512.9459540633377
12:29:30,1,132,14 St,-74.000201,40.737826,1436.868850345138
12:14:30,1,133,Christopher St-Sheridan Sq,-74.002906,40.733422,1527.8220206725314
12:14:30,1,134,Houston St,-74.005367,40.728251,1607.8216141684663
12:14:30,1,135,Canal St,-74.006277,40.722854,1697.5792268359448
12:14:30,1,136,Franklin St,-74.006886,40.719318,1762.7344761265813
12:08:00,2,137,Chambers St,-74.009266,40.715478,1708.7205004402817
12:29:30,1,138,WTC Cortlandt,-74.012188,40.711835,1904.0135468117846
12:29:30,1,139,Rector St,-74.013783,40.707513,1916.1420795880329
12:29:30,1,142,South Ferry,-74.013664,40.702068,1811.4216581941919
13:49:30,1,201,Wakefield-241 St,-73.85062,40.903125,4730.824220951317
13:49:30,1,204,Nereid Av,-73.854376,40.898379,4502.560172612949
13:49:30,1,205,233 St,-73.857473,40.893193,4370.560172612949
13:49:30,1,206,225 St,-73.860341,40.888022,4274.560172612949
13:49:30,1,207,219 St,-73.862633,40.883895,4192.56017261295
13:49:30,1,208,Gun Hill Rd,-73.866256,40.87785,4084.0601726129494
13:49:30,1,209,Burke Av,-73.867164,40.871356,4147.607418472948
13:49:30,1,210,Allerton Av,-73.867352,40.865462,4057.1821311166254
13:49:30,1,211,Pelham Pkwy,-73.867615,40.857192,3945.2740851396143
13:49:30,1,212,Bronx Park East,-73.868457,40.848828,3818.124085139614
13:49:30,1,213,E 180 St,-73.873488,40.841894,3614.526519869633
12:29:30,1,214,West Farms Sq-E Tremont Av,-73.880049,40.840295,3540.5728735694215
12:29:30,1,215,174 St,-73.887734,40.837288,3414.5335094513293
12:29:30,1,216,Freeman St,-73.891865,40.829993,3292.02562064592
12:29:30,1,217,Simpson St,-73.893064,40.824073,3178.8129340787555
13:49:30,1,218,Intervale Av,-73.896736,40.822181,3104.148499554946
13:49:30,1,219,Prospect Av,-73.90177,40.819585,3020.5831206545
12:29:30,1,220,Jackson Av,-73.907807,40.81649,2920.856587025527
13:49:30,1,221,3 Av-149 St,-73.917757,40.816109,2781.885179400894
12:29:30,1,222,149 St-Grand Concourse,-73.926718,40.81841,2650.2257305819962
12:14:30,1,224,135 St,-73.94077,40.814229,2678.8395774312007
12:14:30,1,225,125 St,-73.945495,40.807754,2567.8876192066573
12:14:30,1,226,116 St,-73.949625,40.802098,2468.744384534353
12:14:30,1,227,Central Park North (110 St),-73.951822,40.799075,2399.362826505736
12:08:00,2,228,Park Place,-74.008811,40.713051,1797.9266564889574
12:38:00,2,229,Fulton St,-74.006571,40.709416,1711.369381686198
12:38:00,2,230,Wall St,-74.0091,40.706821,1786.7844760258206
12:08:00,3,231,Clark St,-73.993086,40.697466,1704.8743927858054
12:33:00,1,232,Borough Hall,-73.989998,40.693219,1615.5893620270906
12:08:00,3,233,Hoyt St,-73.985065,40.690545,1703.3472567639328
12:33:00,1,234,Nevins St,-73.980492,40.688246,1718.5410184176135
12:33:00,1,235,Atlantic Av-Barclays Ctr,-73.977666,40.684359,1618.326262159379
12:33:00,1,236,Bergen St,-73.975098,40.680829,1667.5811558091877
12:33:00,1,237,Grand Army Plaza,-73.971046,40.675235,1567.0983971884982
12:33:00,1,238,Eastern Pkwy-Brooklyn Museum,-73.964375,40.671987,1468.1108971884983
12:33:00,1,239,Franklin Av-Medgar Evers College,-73.958131,40.670682,1300.528350527807
12:33:00,1,241,President St-Medgar Evers College,-73.950683,40.667883,1493.0559161667748
12:33:00,1,242,Sterling St,-73.95085,40.662742,1585.0483870771102
12:33:00,1,243,Winthrop St,-73.9502,40.656652,1674.102055555371
12:33:00,1,244,Church Av,-73.949575,40.650843,1752.9404313515493
12:33:00,1,245,Beverly Rd,-73.948959,40.645098,1832.1696963549207
12:33:00,1,246,Newkirk Av-Little Haiti,-73.948411,40.639967,1919.3582098684344
12:33:00,1,247,Flatbush Av-Brooklyn College,-73.947642,40.632836,2069.977767327392
12:33:00,1,248,Nostrand Av,-73.950466,40.669847,1201.8439276255222
12:33:00,1,249,Kingston Av,-73.942161,40.669399,1099.0227737793684
12:33:00,1,250,Crown Hts-Utica Av,-73.932942,40.668897,1015.4445424868513
12:33:00,1,251,Sutter Av-Rutland Rd,-73.92261,40.664717,915.7286646063623
12:33:00,1,252,Saratoga Av,-73.916327,40.661453,809.9884048661024
12:33:00,1,253,Rockaway Av,-73.908946,40.662549,718.0561468015865
12:33:00,1,254,Junius St,-73.902447,40.663515,636.8734544938941
12:53:00,1,255,Pennsylvania Av,-73.894895,40.664635,746.5576469531987
12:53:00,1,256,Van Siclen Av,-73.889395,40.665449,826.5869512285551
12:53:00,1,257,New Lots Av,-73.884079,40.666235,917.0300895779047
12:14:30,1,301,Harlem-148 St,-73.93647,40.82388,2935.5290540851474
12:14:30,1,302,145 St,-73.936245,40.820421,2818.969032357825
12:09:30,1,401,Woodlawn,-73.878751,40.886037,3973.978543028322
12:09:30,1,402,Mosholu Pkwy,-73.884655,40.87975,3816.530171766705
12:09:30,1,405,Bedford Park Blvd-Lehman College,-73.890064,40.873412,3701.141315809384
12:09:30,1,406,Kingsbridge Rd,-73.897174,40.86776,3584.7686795468703
12:09:30,1,407,Fordham Rd,-73.901034,40.862803,3487.8464573246483
12:09:30,1,408,183 St,-73.903879,40.858407,3403.24966528925
12:09:30,1,409,Burnside Av,-73.907684,40.853453,3301.972171683112
12:09:30,1,410,176 St,-73.911794,40.84848,3231.3079628071728
12:09:30,1,411,Mt Eden Av,-73.914685,40.844434,3151.9610240316624
12:09:30,1,412,170 St,-73.917791,40.840075,3071.754639881965
12:09:30,1,413,167 St,-73.9214,40.835537,2982.6260923026666
12:09:30,1,414,161 St-Yankee Stadium,-73.925831,40.827994,2804.0707045886684
12:09:30,1,415,149 St-Grand Concourse,-73.927351,40.818375,2626.1565216493054
12:29:30,1,416,138 St-Grand Concourse,-73.929849,40.813224,2466.3893189724977
12:19:30,1,418,Fulton St,-74.009509,40.710368,1717.0429153642528
12:38:00,2,419,Wall St,-74.011862,40.707557,1795.7023287985007
12:08:00,2,420,Bowling Green,-74.014065,40.704817,1871.111556848299
12:33:00,1,423,Borough Hall,-73.990151,40.692404,1614.8540684003053
13:49:30,1,501,Eastchester-Dyre Av,-73.830834,40.8883,4337.781888216779
13:49:30,1,502,Baychester Av,-73.838591,40.878663,4207.107963035316
13:49:30,1,503,Gun Hill Rd,-73.846384,40.869526,4064.526519869633
13:49:30,1,504,Pelham Pkwy,-73.855359,40.858985,3914.526519869633
13:49:30,1,505,Morris Park,-73.860495,40.854364,3824.526519869633
13:29:30,1,601,Pelham Bay Park,-73.828121,40.852462,4079.2915923920864
13:29:30,1,602,Buhre Av,-73.832569,40.84681,3902.0284344973497
13:29:30,1,603,Middletown Rd,-73.836322,40.843863,3831.735331049074
13:29:30,1,604,Westchester Sq-E Tremont Av,-73.842952,40.839892,3699.5588604608383
13:29:30,1,606,Zerega Av,-73.847036,40.836488,3612.508860460838
13:29:30,1,607,Castle Hill Av,-73.851222,40.834255,3543.262958821494
12:49:30,1,608,Parkchester,-73.860816,40.833226,3357.849165718046
12:49:30,1,609,St Lawrence Av,-73.867618,40.831509,3601.7094983808443
12:49:30,1,610,Morrison Av-Soundview,-73.874516,40.829521,3500.558454400391
12:49:30,1,611,Elder Av,-73.879159,40.828584,3427.8330499403996
12:49:30,1,612,Whitlock Av,-73.886283,40.826525,3315.128288035638
12:49:30,1,613,Hunts Point Av,-73.890549,40.820948,3085.449165718046
12:09:30,1,614,Longwood Av,-73.896435,40.816104,3204.540461111552
12:09:30,1,615,E 149 St,-73.904098,40.812118,3101.7696790161267
12:09:30,1,616,E 143 St-St Mary's St,-73.907657,40.808719,3025.0955829289546
12:09:30,1,617,Cypress Av,-73.914042,40.805368,2913.680632722101
12:09:30,1,618,Brook Av,-73.91924,40.807566,2838.0616836116337
12:09:30,1,619,3 Av-138 St,-73.926138,40.810476,2717.8037756471244
12:29:30,1,621,125 St,-73.937594,40.804138,2283.405744728082
12:29:30,1,622,116 St,-73.941617,40.798629,2596.0452016097333
12:09:30,1,623,110 St,-73.94425,40.79502,2514.156916380531
12:09:30,1,624,103 St,-73.947478,40.7906,2436.515925542391
12:09:30,1,625,96 St,-73.95107,40.785672,2346.141519568189
12:29:30,1,626,86 St,-73.955589,40.779492,1975.085198564233
12:09:30,1,627,77 St,-73.959874,40.77362,2163.5694016787497
12:09:30,1,628,68 St-Hunter College,-73.96387,40.768141,2070.032233834821
12:29:30,1,629,59 St,-73.967967,40.762526,1775.030501009535
12:09:30,1,630,51 St,-73.97192,40.757107,1860.3780466760152
12:29:30,1,631,Grand Central-42 St,-73.976848,40.751776,1608.1836079922384
12:19:30,1,632,33 St,-73.982076,40.746081,1614.3683079679563
12:19:30,1,633,28 St,-73.984264,40.74307,1545.6196448663522
12:19:30,1,634,23 St,-73.986599,40.739864,1467.717765951947
12:14:30,1,635,14 St-Union Sq,-73.989951,40.734673,1358.8540140303273
12:14:30,1,636,Astor Pl,-73.99107,40.730054,1438.989482832596
12:14:30,1,637,Bleecker St,-73.994659,40.725915,1532.4473775694382
12:14:30,1,638,Spring St,-73.997141,40.722301,1603.7039220720558
12:14:30,1,639,Canal St,-74.000193,40.718803,1681.0537811880258
12:38:00,2,640,Brooklyn Bridge-City Hall,-74.004131,40.713065,1632.582145659772
12:09:30,2,701,Flushing-Main St,-73.83003,40.7596,2801.0158927496827
12:09:30,2,702,Mets-Willets Point,-73.845625,40.754622,2635.993239028
12:09:30,2,705,111 St,-73.855334,40.75173,2700.2136744905056
12:09:30,2,706,103 St-Corona Plaza,-73.8627,40.749865,2621.306304646016
12:09:30,2,707,Junction Blvd,-73.869527,40.749145,2417.132191192009
12:09:30,2,708,90 St-Elmhurst Av,-73.876613,40.748408,2493.7421848967087
12:09:30,2,709,82 St-Jackson Hts,-73.883697,40.747659,2406.0746194113467
12:09:30,2,710,74 St-Broadway,-73.891394,40.746848,2245.237141933869
12:09:30,2,711,69 St,-73.896403,40.746325,2176.3006554473823
12:09:30,2,712,61 St-Woodside,-73.902984,40.74563,2094.381132921391
12:09:30,2,713,52 St,-73.912549,40.744149,1999.7910460907106
12:09:30,2,714,46 St-Bliss St,-73.918435,40.743132,1939.0613774160117
12:09:30,2,715,40 St-Lowery St,-73.924016,40.743781,1870.9471227914198
12:09:30,2,716,33 St-Rawson St,-73.930997,40.744587,1792.2031833974804
12:09:30,2,718,Queensboro Plaza,-73.940202,40.750582,1652.2246026047906
12:09:30,2,719,Court Sq,-73.945264,40.747023,1557.0882389684268
12:09:30,2,720,Hunters Point Av,-73.948916,40.742216,1652.1751954901658
12:29:30,2,721,Vernon Blvd-Jackson Av,-73.953581,40.742626,1679.1751954901658
12:04:30,2,723,Grand Central-42 St,-73.976041,40.751431,1744.6509263273729
12:04:30,2,724,5 Av,-73.981963,40.753821,1814.9692267373616
12:04:30,2,725,Times Sq-42 St,-73.987691,40.755477,1753.130226812511
12:04:30,2,726,34 St-Hudson Yards,-74.00191,40.755882,1897.732416593533
12:04:30,2,901,Grand Central-42 St,-73.979189,40.752769,1684.6509263273729
12:09:30,2,902,Times Sq-42 St,-73.986229,40.755983,1693.130226812511
13:19:30,1,A02,Inwood-207 St,-73.919899,40.868072,3332.5732330730725
12:34:30,1,A03,Dyckman St,-73.927271,40.865491,3232.8344062574297
12:34:30,1,A05,190 St,-73.93418,40.859022,3102.4543952744534
12:34:30,1,A06,181 St,-73.937969,40.851695,2989.56948338018
12:34:30,1,A07,175 St,-73.939704,40.847391,2896.7844778675008
12:14:30,1,A09,168 St,-73.939561,40.840719,2762.190501291929
13:19:30,1,A10,163 St-Amsterdam Av,-73.939892,40.836013,2795.802976448368
13:19:30,1,A11,155 St,-73.941514,40.830518,2710.933149510821
12:14:30,1,A12,145 St,-73.944216,40.824783,2516.3790032266998
12:14:30,1,A14,135 St,-73.947649,40.817894,2427.5099501824757
12:14:30,1,A15,125 St,-73.952343,40.811109,2302.1143946269203
12:14:30,1,A16,116 St,-73.954882,40.805085,2440.052815251778
12:14:30,1,A17,Cathedral Pkwy (110 St),-73.958161,40.800603,2491.443532053943
12:14:30,1,A18,103 St,-73.961454,40.796092,2405.0143185707966
12:14:30,1,A19,96 St,-73.964696,40.791642,2317.8873463694445
12:14:30,1,A20,86 St,-73.968916,40.785868,2217.079654061752
12:14:30,1,A21,81 St-Museum of Natural History,-73.972143,40.781433,2118.605052090562
12:14:30,1,A22,72 St,-73.97641,40.775594,2026.7421733026827
12:14:30,1,A24,59 St-Columbus Circle,-73.981736,40.768296,1801.1039607993528
12:14:30,1,A25,50 St,-73.985984,40.762456,1782.1709092927201
12:14:30,1,A27,42 St-Port Authority Bus Terminal,-73.989735,40.757308,1636.572642118034
12:14:30,1,A28,34 St-Penn Station,-73.993391,40.752287,1534.7763763300054
12:14:30,1,A30,23 St,-73.998041,40.745906,1475.2022115059292
12:24:30,1,A31,14 St,-74.00169,40.740893,1386.0015965943226
12:38:00,1,A32,W 4 St-Wash Sq,-74.000495,40.732338,1505.081558964972
12:08:00,1,A33,Spring St,-74.003739,40.726227,1611.3754279961404
12:38:00,1,A34,Canal St,-74.005229,40.720824,1658.0473403077472
12:38:00,1,A36,Chambers St,-74.008585,40.714111,1596.6071080278953
12:38:00,1,A38,Fulton St,-74.007691,40.710197,1494.1152830324047
12:38:00,1,A40,High St,-73.990531,40.699337,1299.1576617389062
12:38:00,1,A41,Jay St-MetroTech,-73.987342,40.692338,1153.5893620270906
12:38:00,1,A42,Hoyt-Schermerhorn Sts,-73.985001,40.688484,1041.1662206073029
12:38:00,1,A43,Lafayette Av,-73.973946,40.686113,1053.1749220971587
12:38:00,1,A44,Clinton-Washington Avs,-73.965838,40.683263,968.1749220971587
12:38:00,1,A45,Franklin Av,-73.956848,40.68138,862.4559469170146
12:38:00,1,A46,Nostrand Av,-73.950426,40.680438,697.1883350087567
12:38:00,1,A47,Kingston-Throop Avs,-73.940858,40.679921,680.4448345821706
12:38:00,1,A48,Utica Av,-73.930729,40.679364,529.1197169665302
13:08:00,1,A49,Ralph Av,-73.920786,40.678822,484.4695554617257
13:08:00,1,A50,Rockaway Av,-73.911946,40.67834,387.80542172312386
12:04:00,1,A51,Broadway Junction,-73.905316,40.678334,298.5612444128309
12:00:00,1,A52,Liberty Av,-73.896548,40.674542,436.5769394800954
12:00:00,1,A53,Van Siclen Av,-73.890358,40.67271,532.7353849210521
12:00:00,1,A54,Shepherd Av,-73.88075,40.67413,634.2335038074328
12:28:00,1,A55,Euclid Av,-73.872106,40.675377,615.8886991316107
12:28:00,1,A57,Grant Av,-73.86505,40.677044,746.0953806460873
12:28:00,1,A59,80 St,-73.858992,40.679371,843.6020244523453
12:28:00,1,A60,88 St,-73.85147,40.679843,942.7916648633043
12:28:00,1,A61,Rockaway Blvd,-73.843853,40.680429,1036.2155825658333
12:58:00,1,A63,104 St,-73.837683,40.681711,1127.2635337428167
13:18:00,1,A64,111 St,-73.832163,40.684331,1218.3989128041885
13:18:00,1,A65,Ozone Park-Lefferts Blvd,-73.825798,40.685951,1329.2773724913125
12:04:30,1,B04,21 St-Queensbridge,-73.942836,40.754203,2349.736299193402
12:04:30,1,B06,Roosevelt Island,-73.95326,40.759145,2181.967587472208
12:04:30,1,B08,Lexington Av/63 St,-73.966113,40.764629,2015.7834955902663
12:14:30,1,B10,57 St,-73.97745,40.763972,1920.2163518873645
12:16:00,2,B12,9 Av,-73.994324,40.646292,2479.8111784607795
12:16:00,2,B13,Fort Hamilton Pkwy,-73.994304,40.640914,2581.626072077801
12:16:00,2,B14,50 St,-73.994791,40.63626,2662.386015259619
12:16:00,2,B15,55 St,-73.995476,40.631435,2765.414464761753
12:16:00,2,B16,62 St,-73.996895,40.626472,2830.362846888101
12:16:00,2,B17,71 St,-73.998864,40.619589,2933.2601364744064
12:16:00,2,B18,79 St,-74.00061,40.613501,3037.710921067844
12:16:00,2,B19,18 Av,-74.001736,40.607954,3122.194492496416
12:16:00,2,B20,20 Av,-73.998168,40.604556,3207.4060721962014
12:16:00,2,B21,Bay Pkwy,-73.993728,40.601875,3288.5640047159427
12:16:00,2,B22,25 Av,-73.986829,40.597704,3198.6524226701836
12:16:00,2,B23,Bay 50 St,-73.983765,40.588841,3056.6403053232452
12:14:30,1,D01,Norwood-205 St,-73.878855,40.874811,3816.31997028298
12:14:30,1,D03,Bedford Park Blvd,-73.887138,40.873244,3647.6202159608397
12:14:30,1,D04,Kingsbridge Rd,-73.893509,40.866978,3529.079831345455
12:14:30,1,D05,Fordham Rd,-73.897749,40.861296,3428.946945439415
12:14:30,1,D06,182-183 Sts,-73.900741,40.856093,3343.774158159198
13:44:30,1,D07,Tremont Av,-73.905227,40.85041,3260.1737846764718
13:44:30,1,D08,174-175 Sts,-73.910136,40.8459,3233.255510820224
13:44:30,1,D09,170 St,-73.9134,40.839306,3127.7117012964145
13:44:30,1,D10,167 St,-73.91844,40.833771,3020.4734890957457
13:44:30,1,D11,161 St-Yankee Stadium,-73.925651,40.827905,2871.694777611152
13:44:30,1,D12,155 St,-73.938209,40.830135,2738.2194014141614
12:14:30,1,D13,145 St,-73.944216,40.824783,2590.3075846173742
12:49:30,1,D14,7 Av,-73.981637,40.762862,1924.6507734082534
12:14:30,1,D15,47-50 Sts-Rockefeller Ctr,-73.981329,40.758663,1826.772447358998
12:14:30,1,D16,42 St-Bryant Pk,-73.984569,40.754222,1732.4771752804968
12:14:30,1,D17,34 St-Herald Sq,-73.987823,40.749719,1651.1743603283098
12:14:30,1,D18,23 St,-73.992821,40.742878,1531.9627270923888
13:44:30,1,D19,14 St,-73.996209,40.738228,1451.868850345138
13:34:30,1,D20,W 4 St-Wash Sq,-74.000495,40.732338,1550.3055490630868
12:38:00,1,D21,Broadway-Lafayette St,-73.996204,40.725297,1691.8764699750905
12:38:00,1,D22,Grand St,-73.993753,40.718267,1885.3244025614451
12:08:00,2,D24,Atlantic Av-Barclays Ctr,-73.97689,40.68446,1731.6430745704624
12:08:00,2,D25,7 Av,-73.972367,40.67705,1579.0298578552047
12:08:00,2,D26,Prospect Park,-73.962246,40.661614,1290.3078721524193
13:08:00,2,D27,Parkside Av,-73.961495,40.655292,1636.3952842735077
13:08:00,2,D28,Church Av,-73.962982,40.650527,1515.9662242982818
13:08:00,2,D29,Beverley Rd,-73.964492,40.644031,1623.0626425019757
13:08:00,2,D30,Cortelyou Rd,-73.963891,40.640927,1701.1996724573614
12:08:00,2,D31,Newkirk Plaza,-73.962793,40.635082,1694.710224298282
13:08:00,2,D32,Avenue H,-73.961639,40.62927,1808.0350033421955
13:08:00,2,D33,Avenue J,-73.960803,40.625039,1904.9195447148702
13:08:00,2,D34,Avenue M,-73.959399,40.617618,2015.7258939212195
12:08:00,2,D35,Kings Hwy,-73.957734,40.60867,1960.1055965316825
12:08:00,2,D37,Avenue U,-73.955929,40.5993,2179.4538396465487
12:08:00,2,D38,Neck Rd,-73.955161,40.595246,2283.5515969783482
12:08:00,2,D39,Sheepshead Bay,-73.954155,40.586896,2229.2660026230533
12:08:00,2,D40,Brighton Beach,-73.961376,40.577621,2390.57290272604
12:08:00,2,D41,Ocean Pkwy,-73.968501,40.576312,2579.3178298512375
12:08:00,2,D42,W 8 St-NY Aquarium,-73.975939,40.576127,2693.867510269599
12:08:00,2,D43,Coney Island-Stillwell Av,-73.981233,40.577422,2782.6334677164073
13:53:00,1,E01,World Trade Center,-74.009781,40.712582,1841.8235784617937
12:38:00,1,F01,Jamaica-179 St,-73.783817,40.712646,2617.3809827894297
12:38:00,1,F02,169 St,-73.793604,40.71047,2527.3809827894297
12:38:00,1,F03,Parsons Blvd,-73.803326,40.707564,2363.6457583909187
12:38:00,1,F04,Sutphin Blvd,-73.810708,40.70546,2273.6457583909187
12:38:00,1,F05,Briarwood,-73.820574,40.709179,2032.38098278943
13:08:00,1,F06,Kew Gardens-Union Tpke,-73.831008,40.714441,2142.926515726094
13:08:00,1,F07,75 Av,-73.837324,40.718331,2283.5752962138986
12:09:30,2,F09,Court Sq-23 St,-73.946,40.747846,1557.0882389684268
12:19:30,2,F11,Lexington Av/53 St,-73.969055,40.757552,1760.6596675398553
12:29:30,2,F12,5 Av/53 St,-73.975224,40.760167,1844.3269811349442
12:08:00,1,F14,2 Av,-73.989938,40.723402,1707.1584436817175
12:08:00,1,F15,Delancey St-Essex St,-73.988114,40.718611,1593.6920614439323
12:08:00,1,F16,East Broadway,-73.990173,40.713715,1558.5893620270906
12:08:00,1,F18,York St,-73.986751,40.701397,1378.5893620270906
12:38:00,1,F20,Bergen St,-73.990862,40.686145,1384.6698682348979
12:38:00,1,F21,Carroll St,-73.995048,40.680303,1512.5626460126757
12:38:00,1,F22,Smith-9 Sts,-73.995959,40.67358,1644.9076850316278
12:38:00,1,F23,4 Av-9 St,-73.989779,40.670272,1740.017504903795
12:38:00,1,F24,7 Av,-73.980305,40.666271,1708.5893620270906
12:38:00,1,F25,15 St-Prospect Park,-73.979493,40.660365,1870.9588719261365
12:38:00,1,F26,Fort Hamilton Pkwy,-73.975776,40.650782,2043.7313837744775
12:38:00,1,F27,Church Av,-73.979678,40.644041,1948.5893620270906
12:48:00,1,F29,Ditmas Av,-73.978172,40.636119,2068.589362027091
12:48:00,1,F30,18 Av,-73.976971,40.629755,2188.589362027091
12:48:00,1,F31,Avenue I,-73.976127,40.625322,2248.589362027091
12:48:00,1,F32,Bay Pkwy,-73.975264,40.620769,2308.589362027091
12:48:00,1,F33,Avenue N,-73.974197,40.61514,2428.589362027091
12:48:00,1,F34,Avenue P,-73.973022,40.608944,2518.589362027091
12:48:00,1,F35,Kings Hwy,-73.972361,40.603217,2734.411598201907
12:48:00,1,F36,Avenue U,-73.973357,40.596063,2843.440821957258
12:48:00,1,F38,Avenue X,-73.97425,40.58962,2943.166859856486
12:08:00,2,F39,Neptune Av,-73.974574,40.581011,3008.867510269599
13:38:00,1,G05,Jamaica Center-Parsons/Archer,-73.801109,40.702147,1588.5612444128308
13:38:00,1,G06,Sutphin Blvd-Archer Av-JFK Airport,-73.807969,40.700486,1528.5612444128308
13:08:00,1,G07,Jamaica-Van Wyck,-73.816859,40.702566,1894.715453779191
13:08:00,1,G08,Forest Hills-71 Av,-73.844521,40.721691,2367.712511349726
12:08:00,1,G09,67 Av,-73.852719,40.726523,2516.7024437934324
12:08:00,1,G10,63 Dr-Rego Park,-73.861604,40.729846,2627.9028810905875
12:08:00,1,G11,Woodhaven Blvd,-73.869229,40.733106,2530.062579907439
12:08:00,1,G12,Grand Av-Newtown,-73.877223,40.737015,2411.959449152375
12:08:00,1,G13,Elmhurst Av,-73.882017,40.742454,2306.3682889313804
13:08:00,1,G14,Jackson Hts-Roosevelt Av,-73.891338,40.746644,2159.9852049837154
12:08:00,1,G15,65 St,-73.898453,40.749669,2247.1008625745703
13:44:30,1,G16,Northern Blvd,-73.906006,40.752885,2152.7709656673537
13:44:30,1,G18,46 St,-73.913333,40.756312,2062.7709656673537
13:44:30,1,G19,Steinway St,-73.92074,40.756879,1945.8637491725085
13:44:30,1,G20,36 St,-73.928781,40.752039,1825.8637491725085
12:19:30,2,G21,Queens Plaza,-73.937243,40.748973,1680.4555859072025
12:19:30,1,G22,Court Sq,-73.943832,40.746554,1442.594051152598
12:19:30,1,G24,21 St,-73.949724,40.744065,1376.2348361355332
12:19:30,1,G26,Greenpoint Av,-73.954449,40.731352,1181.41906250519
12:19:30,1,G28,Nassau Av,-73.951277,40.724635,1083.9547125950642
12:14:30,1,G29,Metropolitan Av,-73.951418,40.712792,943.9326230428252
12:04:30,1,G30,Broadway,-73.950308,40.706092,1060.9670036000273
12:04:30,1,G31,Flushing Av,-73.950234,40.700377,1150.9865649515389
12:04:30,1,G32,Myrtle-Willoughby Avs,-73.949046,40.694568,1228.0364165835865
13:23:00,1,G33,Bedford-Nostrand Avs,-73.953522,40.689627,1339.4501479268702
13:23:00,1,G34,Classon Av,-73.96007,40.688873,1418.2141864974885
13:23:00,1,G35,Clinton-Washington Avs,-73.966839,40.688089,1470.290545208479
13:23:00,1,G36,Fulton St,-73.975375,40.687119,1379.4847032840803
13:08:00,1,H01,Aqueduct Racetrack,-73.834058,40.668234,1247.0940872387305
12:28:00,1,H02,Aqueduct-N Conduit Av,-73.834058,40.668234,1308.2336236090305
12:28:00,1,H03,Howard Beach-JFK Airport,-73.830301,40.660476,1424.8405982973732
12:28:00,1,H04,Broad Channel,-73.815925,40.608382,1890.2221549809606
12:28:00,1,H06,Beach 67 St,-73.796924,40.590927,2219.188666608867
13:08:00,1,H07,Beach 60 St,-73.788522,40.592374,2345.045413374117
13:08:00,1,H08,Beach 44 St,-73.776013,40.592943,2454.7216390910457
13:08:00,1,H09,Beach 36 St,-73.768175,40.595398,2555.9938613132676
13:08:00,1,H10,Beach 25 St,-73.761353,40.600066,2656.4343817593644
13:08:00,1,H11,Far Rockaway-Mott Av,-73.755405,40.603995,2746.733968536224
12:28:00,1,H12,Beach 90 St,-73.813641,40.588034,2160.2792978381035
12:28:00,1,H13,Beach 98 St,-73.820558,40.585307,2260.3830714230094
12:28:00,1,H14,Beach 105 St,-73.827559,40.583209,2350.0592618992
12:28:00,1,H15,Rockaway Park-Beach 116 St,-73.835592,40.580903,2453.6087124486507
13:38:00,1,J12,121 St,-73.828294,40.700492,1288.5612444128308
13:38:00,1,J13,111 St,-73.836345,40.697418,1449.626345083972
13:38:00,1,J14,104 St,-73.84433,40.695178,1108.5612444128308
13:38:00,1,J15,Woodhaven Blvd,-73.851576,40.693879,1018.5612444128309
13:38:00,1,J16,85 St-Forest Pkwy,-73.86001,40.692435,1030.9454517243125
13:38:00,1,J17,75 St-Elderts Ln,-73.867139,40.691324,838.5612444128309
13:38:00,1,J19,Cypress Hills,-73.87255,40.689941,863.3240925010114
13:38:00,1,J20,Crescent St,-73.873785,40.683194,688.5612444128309
13:38:00,1,J21,Norwood Av,-73.880039,40.68141,598.5612444128309
13:38:00,1,J22,Cleveland St,-73.884639,40.679947,599.2508793483858
13:38:00,1,J23,Van Siclen Av,-73.891688,40.678024,448.5612444128309
13:38:00,1,J24,Alabama Av,-73.898654,40.676992,388.5612444128309
12:48:00,1,J27,Broadway Junction,-73.904512,40.679498,285.24285714285713
12:08:00,1,J28,Chauncey St,-73.910456,40.682893,358.5612444128309
12:08:00,1,J29,Halsey St,-73.916559,40.68637,487.9160189486398
12:08:00,1,J30,Gates Av,-73.92227,40.68963,508.5612444128309
12:08:00,1,J31,Kosciuszko St,-73.928814,40.693342,675.1985987358738
12:04:30,0,L01,8 Av,-74.002578,40.739777,1326.0015965943226
12:04:30,0,L02,6 Av,-73.996786,40.737335,1226.868850345138
12:04:30,0,L03,14 St-Union Sq,-73.99073,40.734789,1135.3968707235952
12:04:30,0,L05,3 Av,-73.986122,40.732849,1071.9056521595385
12:04:30,0,L06,1 Av,-73.981628,40.730953,1034.0709779841561
12:04:30,0,L08,Bedford Av,-73.956872,40.717304,829.9943822394754
12:04:30,0,L10,Lorimer St,-73.950275,40.714063,730.7183388612303
12:04:30,0,L11,Graham Av,-73.944053,40.714565,688.6128312301752
12:04:30,0,L12,Grand St,-73.94067,40.711926,603.5150795195203
12:04:30,0,L13,Montrose Av,-73.93985,40.707739,557.0368823777101
12:04:30,0,L14,Morgan Av,-73.933147,40.706152,493.2302632991897
12:04:30,0,L15,Jefferson St,-73.922913,40.706607,404.04543862509246
12:04:30,0,L16,DeKalb Av,-73.918425,40.703811,339.44246263591424
12:04:30,0,L17,Myrtle-Wyckoff Avs,-73.911586,40.699814,261.3077275938266
12:04:30,0,L19,Halsey St,-73.904084,40.695602,193.4159908826081
12:04:30,0,L20,Wilson Av,-73.904046,40.688764,62.96425912137008
12:12:00,0,L21,Bushwick Av-Aberdeen St,-73.905249,40.682829,0.0
12:00:00,0,L22,Broadway Junction,-73.90324,40.678856,60.24285714285715
12:00:00,0,L24,Atlantic Av,-73.903097,40.675345,162.18123392715856
12:00:00,0,L25,Sutter Av,-73.901975,40.669367,241.1448539504158
12:00:00,0,L26,Livonia Av,-73.900571,40.664038,306.8734544938941
12:00:00,0,L27,New Lots Av,-73.899232,40.658733,360.6956689542503
12:00:00,0,L28,East 105 St,-73.899485,40.650573,470.92209059086616
12:00:00,0,L29,Canarsie-Rockaway Pkwy,-73.90185,40.646654,594.6962600570848
12:04:30,1,M01,Middle Village-Metropolitan Av,-73.889601,40.711396,885.8661351513443
12:04:30,1,M04,Fresh Pond Rd,-73.895877,40.706186,765.2843491212825
12:04:30,1,M05,Forest Av,-73.903077,40.704423,667.7647584998793
12:04:30,1,M06,Seneca Av,-73.90774,40.702762,572.9051216283709
12:38:00,1,M08,Myrtle-Wyckoff Avs,-73.912385,40.69943,486.3077275938266
12:14:30,1,M09,Knickerbocker Av,-73.919711,40.698664,586.7041183841192
12:14:30,1,M10,Central Av,-73.927397,40.697857,701.7247950758484
12:08:00,1,M11,Myrtle Av,-73.935657,40.697207,688.5612444128309
12:38:00,1,M12,Flushing Av,-73.941126,40.70026,884.3278545080021
12:38:00,1,M13,Lorimer St,-73.947408,40.703869,975.5663730265206
12:08:00,1,M14,Hewes St,-73.953431,40.70687,1071.2280719833016
12:08:00,1,M16,Marcy Av,-73.957757,40.708359,948.5612444128308
12:08:00,1,M18,Delancey St-Essex St,-73.987437,40.718315,1368.6920614439323
12:08:00,1,M19,Bowery,-73.993915,40.72028,1451.5492043010752
12:08:00,1,M20,Canal St,-73.999892,40.718092,1550.3984106502814
12:08:00,1,M21,Chambers St,-74.003401,40.713243,1657.6523789042499
12:08:00,1,M22,Fulton St,-74.007582,40.710374,1722.2961499097082
12:08:00,1,M23,Broad St,-74.011056,40.706476,1786.479823379096
12:24:00,2,N02,8 Av,-74.011719,40.635064,2674.5493215010047
12:24:00,2,N03,Fort Hamilton Pkwy,-74.005351,40.631386,2771.7714876578557
12:24:00,2,N04,New Utrecht Av,-73.996353,40.624842,2888.8830362142867
12:24:00,2,N05,18 Av,-73.990414,40.620671,2984.853313625119
12:24:00,2,N06,20 Av,-73.985026,40.61741,3072.2898215616265
12:24:00,2,N07,Bay Pkwy,-73.981848,40.611815,3170.061344740435
12:24:00,2,N08,Kings Hwy,-73.980353,40.603923,3240.0524267871947
12:24:00,2,N09,Avenue U,-73.979137,40.597473,3142.141263724658
12:24:00,2,N10,86 St,-73.97823,40.592721,3061.6224301888137
12:29:30,1,Q01,Canal St,-74.00046,40.718383,1633.9719744150877
12:04:30,1,Q03,72 St,-73.958424,40.768799,2146.221361944311
12:04:30,1,Q04,86 St,-73.951787,40.777891,2271.260796906053
12:04:30,1,Q05,96 St,-73.947152,40.784318,2364.259260807743
12:09:30,2,R01,Astoria-Ditmars Blvd,-73.912034,40.775036,2394.761061180217
12:09:30,2,R03,Astoria Blvd,-73.917843,40.770258,2298.465714551537
12:09:30,2,R04,30 Av,-73.921479,40.766779,2191.768774768714
12:09:30,2,R05,Broadway,-73.925508,40.76182,2096.3878223877614
12:09:30,2,R06,36 Av,-73.929575,40.756804,1983.9065970913189
12:09:30,2,R08,39 Av-Dutch Kills,-73.932755,40.752882,1866.3616869116781
12:09:30,2,R09,Queensboro Plaza,-73.940202,40.750582,1703.9169107922753
12:54:30,1,R11,Lexington Av/59 St,-73.967258,40.76266,1969.3268703613721
12:54:30,1,R13,5 Av/59 St,-73.973347,40.764811,2022.0669564059597
12:04:30,1,R14,57 St-7 Av,-73.980658,40.764664,1816.2640380430962
12:04:30,1,R15,49 St,-73.984139,40.759901,1764.4878918337236
12:04:30,1,R16,Times Sq-42 St,-73.986754,40.754672,1633.130226812511
12:04:30,1,R17,34 St-Herald Sq,-73.98795,40.749567,1530.1504769614091
12:04:30,1,R18,28 St,-73.988691,40.745494,1534.2104141286243
12:04:30,1,R19,23 St,-73.989344,40.741303,1449.1599190791192
12:09:30,1,R20,14 St-Union Sq,-73.990568,40.735736,1360.0265198696331
12:09:30,1,R21,8 St-NYU,-73.992629,40.730328,1470.5781977219822
12:09:30,1,R22,Prince St,-73.997702,40.724329,1577.0178290805911
12:09:30,1,R23,Canal St,-74.001775,40.719527,1684.5623065892464
12:38:00,2,R24,City Hall,-74.006978,40.713282,1832.4768239068587
12:08:00,2,R25,Cortlandt St,-74.011029,40.710668,1840.59594677868
12:38:00,2,R26,Rector St,-74.013342,40.70722,1697.8907657456791
12:38:00,2,R27,Whitehall St-South Ferry,-74.012994,40.703087,1631.4216581941919
12:38:00,2,R28,Court St,-73.991777,40.6941,1375.5893620270906
12:08:00,2,R29,Jay St-MetroTech,-73.985942,40.69218,1288.5893620270906
12:53:00,2,R30,DeKalb Av,-73.981824,40.690635,1396.7893620270906
12:08:00,2,R31,Atlantic Av-Barclays Ctr,-73.97881,40.683666,1556.0893620270908
12:08:00,2,R32,Union St,-73.98311,40.677316,1691.3893620270908
12:08:00,2,R33,4 Av-9 St,-73.988302,40.670847,1804.4002296227634
12:08:00,2,R34,Prospect Av,-73.992872,40.665414,1903.4893620270907
12:08:00,2,R35,25 St,-73.998091,40.660397,1969.5946251849853
12:16:00,2,R36,36 St,-74.003549,40.655144,2088.219625184985
12:08:00,2,R39,45 St,-74.010006,40.648939,2274.0215029440146
12:08:00,2,R40,53 St,-74.014034,40.645069,2376.2355774561374
12:24:00,2,R41,59 St,-74.017881,40.641362,2474.061730448143
12:08:00,2,R42,Bay Ridge Av,-74.023377,40.634967,2637.32708418913
12:08:00,2,R43,77 St,-74.02551,40.629742,2719.9357512935294
12:08:00,2,R44,86 St,-74.028398,40.622687,2868.619630786058
12:08:00,2,R45,Bay Ridge-95 St,-74.030876,40.616622,2960.6269300561316
12:38:00,2,S01,Franklin Av,-73.955827,40.680596,922.4559469170146
12:38:00,2,S03,Park Pl,-73.957624,40.674772,1038.7962246947923
12:38:00,2,S04,Botanic Garden,-73.959245,40.670343,1163.3720261763942
