start_time,ntransfers,stop_id,stop_name,stop_lon,stop_lat,duration
12:57:30,1,101,Van Cortlandt Park-242 St,-73.898583,40.889248,4051.91305281055
12:57:30,1,103,238 St,-73.90087,40.884667,3945.1623046275663
12:57:30,1,104,231 St,-73.904834,40.878856,3850.3271982445876
12:57:30,1,106,Marble Hill-225 St,-73.909831,40.874561,3756.8553317331402
12:57:30,1,107,215 St,-73.915279,40.869444,3648.730768287273
12:57:30,1,108,207 St,-73.918822,40.864621,3569.7459729656357
12:57:30,1,109,Dyckman St,-73.925536,40.860531,3471.7093459081443
12:57:30,1,110,191 St,-73.929412,40.855225,3381.4902982890967
12:57:30,1,111,181 St,-73.933596,40.849505,3286.245709544508
12:57:30,1,112,168 St-Washington Hts,-73.940133,40.840556,3165.3953841648986
12:57:30,1,113,157 St,-73.94489,40.834041,3157.9123766098887
12:57:30,1,114,145 St,-73.95036,40.826551,3042.2477292710746
12:57:30,1,115,137 St-City College,-73.953676,40.822008,2941.204946211438
12:57:30,1,116,125 St,-73.958372,40.815581,2842.443814293002
12:57:30,1,117,116 St-Columbia University,-73.96411,40.807722,2724.2877449288408
12:57:30,1,118,Cathedral Pkwy (110 St),-73.966847,40.803967,2646.2569314530806
12:57:30,1,119,103 St,-73.968379,40.799446,2566.9387496348986
12:57:30,1,120,96 St,-73.972323,40.793919,2318.647424524791
13:19:00,1,121,86 St,-73.976218,40.788644,2352.7991477613627
13:19:00,1,122,79 St,-73.979917,40.783934,2274.0240866366685
12:57:30,1,123,72 St,-73.98197,40.778453,2143.1157924142117
13:19:00,1,124,66 St-Lincoln Center,-73.982209,40.77344,2199.072842861173
13:19:00,1,125,59 St-Columbus Circle,-73.981929,40.768247,2117.9748725254976
12:57:30,1,126,50 St,-73.983849,40.761728,2009.3474215451058
12:57:30,1,127,Times Sq-42 St,-73.987495,40.75529,1897.1503269239831
12:57:30,1,128,34 St-Penn Station,-73.991057,40.750373,1794.072042197261
12:57:30,1,129,28 St,-73.993365,40.747215,1827.729449354529
12:57:30,1,130,23 St,-73.995657,40.744081,1759.1022189433575
12:57:30,1,131,18 St,-73.997871,40.74104,1690.661705724073
12:57:30,1,132,14 St,-74.000201,40.737826,1614.5846020058734
12:19:00,1,133,Christopher St-Sheridan Sq,-74.002906,40.733422,1705.5377723332665
12:19:00,1,134,Houston St,-74.005367,40.728251,1785.5373658292015
12:19:00,1,135,Canal St,-74.006277,40.722854,1875.2949784966802
12:19:00,1,136,Franklin St,-74.006886,40.719318,1940.4502277873166
12:57:30,1,137,Chambers St,-74.009266,40.715478,1742.2420819959978
12:57:30,1,138,WTC Cortlandt,-74.012188,40.711835,2025.9421265957371
12:57:30,1,139,Rector St,-74.013783,40.707513,2105.2406934747182
12:57:30,1,142,South Ferry,-74.013664,40.702068,2043.0692126014424
13:49:00,1,201,Wakefield-241 St,-73.85062,40.903125,4908.124359866173
13:49:00,1,204,Nereid Av,-73.854376,40.898379,4679.860311527805
13:49:00,1,205,233 St,-73.857473,40.893193,4547.860311527805
13:49:00,1,206,225 St,-73.860341,40.888022,4451.860311527806
13:49:00,1,207,219 St,-73.862633,40.883895,4369.860311527806
13:49:00,1,208,Gun Hill Rd,-73.866256,40.87785,4261.360311527806
13:49:00,1,209,Burke Av,-73.867164,40.871356,4326.716758361143
13:49:00,1,210,Allerton Av,-73.867352,40.865462,4236.291471004821
13:49:00,1,211,Pelham Pkwy,-73.867615,40.857192,4124.38342502781
13:49:00,1,212,Bronx Park East,-73.868457,40.848828,3997.2334250278095
13:49:00,1,213,E 180 St,-73.873488,40.841894,3793.6358597578287
13:09:00,1,214,West Farms Sq-E Tremont Av,-73.880049,40.840295,3717.8730124842773
13:09:00,1,215,174 St,-73.887734,40.837288,3591.833648366185
13:09:00,1,216,Freeman St,-73.891865,40.829993,3469.3257595607756
13:09:00,1,217,Simpson St,-73.893064,40.824073,3356.1130729936112
13:49:00,1,218,Intervale Av,-73.896736,40.822181,3281.4486384698016
13:49:00,1,219,Prospect Av,-73.90177,40.819585,3197.8832595693557
13:09:00,1,220,Jackson Av,-73.907807,40.81649,3098.1567259403832
13:49:00,1,221,3 Av-149 St,-73.917757,40.816109,2959.18531831575
13:09:00,1,222,149 St-Grand Concourse,-73.926718,40.81841,2827.525869496852
12:57:30,1,224,135 St,-73.94077,40.814229,2856.555329091936
12:57:30,1,225,125 St,-73.945495,40.807754,2745.6033708673926
12:57:30,1,226,116 St,-73.949625,40.802098,2646.460136195088
12:57:30,1,227,Central Park North (110 St),-73.951822,40.799075,2577.078578166471
12:57:30,1,228,Park Place,-74.008811,40.713051,1653.0359259473219
12:57:30,1,229,Fulton St,-74.006571,40.709416,1538.1632745903282
13:09:00,1,230,Wall St,-74.0091,40.706821,1613.5783689299506
13:09:00,1,231,Clark St,-73.993086,40.697466,1802.7919678310495
12:09:00,1,232,Borough Hall,-73.989998,40.693219,1847.1313981587566
12:09:00,1,233,Hoyt St,-73.985065,40.690545,1934.8892928955988
12:09:00,1,234,Nevins St,-73.980492,40.688246,1946.3039014139563
12:09:00,1,235,Atlantic Av-Barclays Ctr,-73.977666,40.684359,2012.6313981587568
12:09:00,1,236,Bergen St,-73.975098,40.680829,2091.653607393123
12:09:00,1,237,Grand Army Plaza,-73.971046,40.675235,2143.878542462625
12:09:00,1,238,Eastern Pkwy-Brooklyn Museum,-73.964375,40.671987,2041.6485176591116
12:19:30,2,239,Franklin Av-Medgar Evers College,-73.958131,40.670682,1932.5688212644245
12:09:00,1,241,President St-Medgar Evers College,-73.950683,40.667883,2093.7454949814073
12:09:00,1,242,Sterling St,-73.95085,40.662742,2189.7551267094527
12:09:00,1,243,Winthrop St,-73.9502,40.656652,2278.427276454206
12:09:00,1,244,Church Av,-73.949575,40.650843,2357.7578391140523
12:09:00,1,245,Beverly Rd,-73.948959,40.645098,2438.120760462367
12:09:00,1,246,Newkirk Av-Little Haiti,-73.948411,40.639967,2524.3756844916297
12:09:00,1,247,Flatbush Av-Brooklyn College,-73.947642,40.632836,2659.524911602213
12:19:30,2,248,Nostrand Av,-73.950466,40.669847,1903.5687227013702
13:40:30,2,249,Kingston Av,-73.942161,40.669399,1800.7475688552165
13:40:30,2,250,Crown Hts-Utica Av,-73.932942,40.668897,1717.1693375626994
13:40:30,2,251,Sutter Av-Rutland Rd,-73.92261,40.664717,1617.4534596822105
13:40:30,2,252,Saratoga Av,-73.916327,40.661453,1511.7131999419507
13:40:30,2,253,Rockaway Av,-73.908946,40.662549,1419.7809418774348
13:21:00,2,254,Junius St,-73.902447,40.663515,1338.5982495697424
13:21:00,2,255,Pennsylvania Av,-73.894895,40.664635,1448.2824420290472
13:21:00,2,256,Van Siclen Av,-73.889395,40.665449,1528.3117463044034
13:21:00,2,257,New Lots Av,-73.884079,40.666235,1623.0610943793208
13:09:00,1,301,Harlem-148 St,-73.93647,40.82388,3113.244805745883
13:09:00,1,302,145 St,-73.936245,40.820421,2996.6847840185605
12:57:30,1,401,Woodlawn,-73.878751,40.886037,4153.087882916518
12:57:30,1,402,Mosholu Pkwy,-73.884655,40.87975,3995.6395116549006
12:57:30,1,405,Bedford Park Blvd-Lehman College,-73.890064,40.873412,3880.2506556975795
12:57:30,1,406,Kingsbridge Rd,-73.897174,40.86776,3763.8780194350657
12:57:30,1,407,Fordham Rd,-73.901034,40.862803,3666.9557972128437
12:57:30,1,408,183 St,-73.903879,40.858407,3582.3590051774454
12:57:30,1,409,Burnside Av,-73.907684,40.853453,3481.081511571307
12:57:30,1,410,176 St,-73.911794,40.84848,3410.4173026953686
12:57:30,1,411,Mt Eden Av,-73.914685,40.844434,3331.070363919858
12:57:30,1,412,170 St,-73.917791,40.840075,3250.8639797701608
12:57:30,1,413,167 St,-73.9214,40.835537,3161.735432190862
12:57:30,1,414,161 St-Yankee Stadium,-73.925831,40.827994,2983.1800444768637
12:57:30,1,415,149 St-Grand Concourse,-73.927351,40.818375,2805.265861537501
12:57:30,1,416,138 St-Grand Concourse,-73.929849,40.813224,2643.6894578873535
12:19:00,1,418,Fulton St,-74.009509,40.710368,1383.4334855860063
12:19:00,1,419,Wall St,-74.011862,40.707557,1463.247644878042
12:19:00,1,420,Bowling Green,-74.014065,40.704817,1542.608610935483
12:48:00,1,423,Borough Hall,-73.990151,40.692404,1807.0625450309774
13:49:00,1,501,Eastchester-Dyre Av,-73.830834,40.8883,4516.891228104975
13:49:00,1,502,Baychester Av,-73.838591,40.878663,4386.217302923512
13:49:00,1,503,Gun Hill Rd,-73.846384,40.869526,4243.635859757828
13:49:00,1,504,Pelham Pkwy,-73.855359,40.858985,4093.6358597578287
13:49:00,1,505,Morris Park,-73.860495,40.854364,4003.6358597578287
13:27:00,1,601,Pelham Bay Park,-73.828121,40.852462,4256.591731306941
13:27:00,1,602,Buhre Av,-73.832569,40.84681,4079.3285734122046
13:27:00,1,603,Middletown Rd,-73.836322,40.843863,4009.0354699639292
13:27:00,1,604,Westchester Sq-E Tremont Av,-73.842952,40.839892,3876.858999375694
13:27:00,1,606,Zerega Av,-73.847036,40.836488,3789.8089993756944
13:27:00,1,607,Castle Hill Av,-73.851222,40.834255,3720.56309773635
12:57:30,1,608,Parkchester,-73.860816,40.833226,3535.149304632902
12:57:30,1,609,St Lawrence Av,-73.867618,40.831509,3779.0096372957
12:57:30,1,610,Morrison Av-Soundview,-73.874516,40.829521,3677.8585933152467
12:57:30,1,611,Elder Av,-73.879159,40.828584,3605.1331888552554
12:57:30,1,612,Whitlock Av,-73.886283,40.826525,3492.4284269504938
12:57:30,1,613,Hunts Point Av,-73.890549,40.820948,3262.749304632902
12:09:00,1,614,Longwood Av,-73.896435,40.816104,3381.840600026408
12:09:00,1,615,E 149 St,-73.904098,40.812118,3279.0698179309825
12:09:00,1,616,E 143 St-St Mary's St,-73.907657,40.808719,3202.3957218438104
12:09:00,1,617,Cypress Av,-73.914042,40.805368,3090.980771636957
12:09:00,1,618,Brook Av,-73.91924,40.807566,3015.3618225264895
12:57:30,1,619,3 Av-138 St,-73.926138,40.810476,2895.10391456198
12:57:30,1,621,125 St,-73.937594,40.804138,2460.705883642938
13:09:00,1,622,116 St,-73.941617,40.798629,2750.318693164173
12:57:30,1,623,110 St,-73.94425,40.79502,2669.7683575937035
12:57:30,1,624,103 St,-73.947478,40.7906,2590.7286224943655
12:57:30,1,625,96 St,-73.95107,40.785672,2500.9588856522605
12:57:30,1,626,86 St,-73.955589,40.779492,2152.385337479089
12:57:30,1,627,77 St,-73.959874,40.77362,2298.8098275525554
12:57:30,1,628,68 St-Hunter College,-73.96387,40.768141,2205.2726597086266
12:57:30,1,629,59 St,-73.967967,40.762526,1952.330639924391
12:57:30,1,630,51 St,-73.97192,40.757107,1995.618472549821
12:57:30,1,631,Grand Central-42 St,-73.976848,40.751776,1785.4837469070944
12:57:30,1,632,33 St,-73.982076,40.746081,1756.1304585962096
12:57:30,1,633,28 St,-73.984264,40.74307,1688.4280776438286
12:57:30,1,634,23 St,-73.986599,40.739864,1622.1263024958994
12:57:30,1,635,14 St-Union Sq,-73.989951,40.734673,1488.3602206245544
12:57:30,1,636,Astor Pl,-73.99107,40.730054,1407.8166849266968
12:27:00,1,637,Bleecker St,-73.994659,40.725915,1311.9774576837367
12:27:00,1,638,Spring St,-73.997141,40.722301,1290.6317482603115
12:27:00,1,639,Canal St,-74.000193,40.718803,1229.052031887299
12:27:00,1,640,Brooklyn Bridge-City Hall,-74.004131,40.713065,1204.77103299435
12:39:00,1,701,Flushing-Main St,-73.83003,40.7596,2980.125232637878
12:39:00,1,702,Mets-Willets Point,-73.845625,40.754622,2815.102578916195
12:39:00,1,705,111 St,-73.855334,40.75173,2879.323014378701
12:39:00,1,706,103 St-Corona Plaza,-73.8627,40.749865,2800.415644534211
12:39:00,1,707,Junction Blvd,-73.869527,40.749145,2596.241531080204
12:39:00,1,708,90 St-Elmhurst Av,-73.876613,40.748408,2672.8515247849036
12:39:00,1,709,82 St-Jackson Hts,-73.883697,40.747659,2585.183959299542
12:09:00,1,710,74 St-Broadway,-73.891394,40.746848,2424.346481822064
12:09:00,1,711,69 St,-73.896403,40.746325,2355.4099953355776
12:09:00,1,712,61 St-Woodside,-73.902984,40.74563,2273.4904728095858
12:09:00,1,713,52 St,-73.912549,40.744149,2178.9003859789054
12:09:00,1,714,46 St-Bliss St,-73.918435,40.743132,2118.170717304207
12:09:00,1,715,40 St-Lowery St,-73.924016,40.743781,2050.056462679615
12:09:00,1,716,33 St-Rawson St,-73.930997,40.744587,1971.3125232856758
12:09:00,1,718,Queensboro Plaza,-73.940202,40.750582,1831.3339424929857
12:09:00,1,719,Court Sq,-73.945264,40.747023,1736.1975788566222
12:09:00,1,720,Hunters Point Av,-73.948916,40.742216,1831.2845353783612
12:09:00,1,721,Vernon Blvd-Jackson Av,-73.953581,40.742626,1858.2845353783612
12:09:00,1,723,Grand Central-42 St,-73.976041,40.751431,1923.7602662155682
12:09:00,1,724,5 Av,-73.981963,40.753821,1897.3218665394747
12:09:00,1,725,Times Sq-42 St,-73.987691,40.755477,1897.1503269239831
12:09:00,1,726,34 St-Hudson Yards,-74.00191,40.755882,2041.7525167050048
12:09:00,2,901,Grand Central-42 St,-73.979189,40.752769,1863.7602662155682
12:09:00,2,902,Times Sq-42 St,-73.986229,40.755983,1837.1503269239831
13:19:00,0,A02,Inwood-207 St,-73.919899,40.868072,3510.2889847338074
13:19:00,0,A03,Dyckman St,-73.927271,40.865491,3410.5501579181646
13:19:00,0,A05,190 St,-73.93418,40.859022,3280.170146935188
13:19:00,0,A06,181 St,-73.937969,40.851695,3167.285235040915
13:19:00,0,A07,175 St,-73.939704,40.847391,3074.5002295282356
13:19:00,0,A09,168 St,-73.939561,40.840719,2939.906252952664
12:09:00,0,A10,163 St-Amsterdam Av,-73.939892,40.836013,2973.518728109103
12:09:00,0,A11,155 St,-73.941514,40.830518,2888.6489011715557
12:09:00,0,A12,145 St,-73.944216,40.824783,2694.0947548874346
12:09:00,0,A14,135 St,-73.947649,40.817894,2605.2257018432106
13:09:00,0,A15,125 St,-73.952343,40.811109,2479.8301462876548
12:09:00,0,A16,116 St,-73.954882,40.805085,2617.768566912513
13:19:00,0,A17,Cathedral Pkwy (110 St),-73.958161,40.800603,2669.159283714678
13:19:00,0,A18,103 St,-73.961454,40.796092,2582.730070231532
13:19:00,0,A19,96 St,-73.964696,40.791642,2495.60309803018
13:19:00,0,A20,86 St,-73.968916,40.785868,2394.7954057224874
13:19:00,0,A21,81 St-Museum of Natural History,-73.972143,40.781433,2296.320803751297
13:19:00,0,A22,72 St,-73.97641,40.775594,2204.457924963418
13:09:00,0,A24,59 St-Columbus Circle,-73.981736,40.768296,1978.8197124600877
13:09:00,0,A25,50 St,-73.985984,40.762456,1959.8866609534555
13:09:00,0,A27,42 St-Port Authority Bus Terminal,-73.989735,40.757308,1814.2883937787692
12:19:00,1,A28,34 St-Penn Station,-73.993391,40.752287,1712.4921279907405
12:57:30,1,A30,23 St,-73.998041,40.745906,1652.9179631666643
12:57:30,1,A31,14 St,-74.00169,40.740893,1563.717348255058
12:09:00,1,A32,W 4 St-Wash Sq,-74.000495,40.732338,1496.4026877681129
13:39:00,1,A33,Spring St,-74.003739,40.726227,1609.5864063994543
13:09:00,1,A34,Canal St,-74.005229,40.720824,1648.4512553361863
12:09:00,1,A36,Chambers St,-74.008585,40.714111,1525.2201340547217
12:09:00,1,A38,Fulton St,-74.007691,40.710197,1425.909175936535
12:09:00,1,A40,High St,-73.990531,40.699337,1624.047664107337
12:09:00,1,A41,Jay St-MetroTech,-73.987342,40.692338,1385.1313981587568
12:19:00,1,A42,Hoyt-Schermerhorn Sts,-73.985001,40.688484,1570.534668813928
12:09:00,1,A43,Lafayette Av,-73.973946,40.686113,1581.2741572562952
12:02:00,2,A44,Clinton-Washington Avs,-73.965838,40.683263,1496.2741572562952
12:02:00,2,A45,Franklin Av,-73.956848,40.68138,1390.555182076151
12:19:00,1,A46,Nostrand Av,-73.950426,40.680438,1225.2875701678931
13:57:00,1,A47,Kingston-Throop Avs,-73.940858,40.679921,1210.9331702023662
12:19:00,1,A48,Utica Av,-73.930729,40.679364,1057.2189521256666
12:02:00,2,A49,Ralph Av,-73.920786,40.678822,1012.5687906208624
12:02:00,2,A50,Rockaway Av,-73.911946,40.67834,915.9046568822604
12:09:00,1,A51,Broadway Junction,-73.905316,40.678334,826.6604795719675
12:09:00,1,A52,Liberty Av,-73.896548,40.674542,964.6761746392319
12:09:00,1,A53,Van Siclen Av,-73.890358,40.67271,1060.8346200801886
12:09:00,1,A54,Shepherd Av,-73.88075,40.67413,1162.3327389665694
13:49:00,1,A55,Euclid Av,-73.872106,40.675377,1143.987934290747
13:49:00,1,A57,Grant Av,-73.86505,40.677044,1274.1946158052237
13:49:00,1,A59,80 St,-73.858992,40.679371,1371.7012596114816
13:49:00,1,A60,88 St,-73.85147,40.679843,1470.8909000224405
13:49:00,1,A61,Rockaway Blvd,-73.843853,40.680429,1564.3148177249695
13:39:00,1,A63,104 St,-73.837683,40.681711,1655.362768901953
13:39:00,1,A64,111 St,-73.832163,40.684331,1746.4981479633248
13:39:00,1,A65,Ozone Park-Lefferts Blvd,-73.825798,40.685951,1857.3766076504487
12:39:00,0,B04,21 St-Queensbridge,-73.942836,40.754203,2432.4170617021227
12:39:00,0,B06,Roosevelt Island,-73.95326,40.759145,2252.020395035456
12:39:00,0,B08,Lexington Av/63 St,-73.966113,40.764629,2159.8035957017382
12:39:00,0,B10,57 St,-73.97745,40.763972,1990.2691594506127
13:49:00,0,B12,9 Av,-73.994324,40.646292,2669.531145031696
13:49:00,0,B13,Fort Hamilton Pkwy,-73.994304,40.640914,2771.3460386487172
13:49:00,0,B14,50 St,-73.994791,40.63626,2852.1059818305353
13:49:00,0,B15,55 St,-73.995476,40.631435,2955.134431332669
13:49:00,0,B16,62 St,-73.996895,40.626472,3020.0828134590174
13:49:00,0,B17,71 St,-73.998864,40.619589,3122.9801030453227
13:49:00,0,B18,79 St,-74.00061,40.613501,3227.4308876387604
13:49:00,0,B19,18 Av,-74.001736,40.607954,3311.9144590673322
13:49:00,0,B20,20 Av,-73.998168,40.604556,3397.1260387671177
13:49:00,0,B21,Bay Pkwy,-73.993728,40.601875,3478.283971286859
13:49:00,0,B22,25 Av,-73.986829,40.597704,3605.090122932066
13:49:00,0,B23,Bay 50 St,-73.983765,40.588841,3584.739540482382
12:09:00,0,D01,Norwood-205 St,-73.878855,40.874811,3994.035721943715
12:09:00,0,D03,Bedford Park Blvd,-73.887138,40.873244,3825.335967621575
12:09:00,0,D04,Kingsbridge Rd,-73.893509,40.866978,3706.79558300619
12:09:00,0,D05,Fordham Rd,-73.897749,40.861296,3606.6626971001497
12:09:00,0,D06,182-183 Sts,-73.900741,40.856093,3521.4899098199335
13:09:00,0,D07,Tremont Av,-73.905227,40.85041,3437.889536337207
13:09:00,0,D08,174-175 Sts,-73.910136,40.8459,3410.9712624809586
13:09:00,0,D09,170 St,-73.9134,40.839306,3305.4274529571494
13:09:00,0,D10,167 St,-73.91844,40.833771,3198.18924075648
13:09:00,0,D11,161 St-Yankee Stadium,-73.925651,40.827905,3049.410529271887
13:09:00,0,D12,155 St,-73.938209,40.830135,2915.9351530748963
13:09:00,0,D13,145 St,-73.944216,40.824783,2768.0233362781087
13:09:00,0,D14,7 Av,-73.981637,40.762862,1986.0806994352042
12:09:00,0,D15,47-50 Sts-Rockefeller Ctr,-73.981329,40.758663,1766.617138617976
12:09:00,0,D16,42 St-Bryant Pk,-73.984569,40.754222,1672.3218665394747
12:09:00,0,D17,34 St-Herald Sq,-73.987823,40.749719,1592.3989918681336
12:27:00,0,D18,23 St,-73.992821,40.742878,1471.8074183513668
12:27:00,0,D19,14 St,-73.996209,40.738228,1379.7452027990223
12:09:00,0,D20,W 4 St-Wash Sq,-74.000495,40.732338,1262.4632928172462
12:27:00,0,D21,Broadway-Lafayette St,-73.996204,40.725297,1099.7488853151149
12:48:00,0,D22,Grand St,-73.993753,40.718267,1484.4368886212562
12:09:00,0,D24,Atlantic Av-Barclays Ctr,-73.97689,40.68446,1959.4271924252562
12:09:00,0,D25,7 Av,-73.972367,40.67705,2107.1290930143414
12:09:00,0,D26,Prospect Park,-73.962246,40.661614,1818.407107311556
12:09:00,0,D27,Parkside Av,-73.961495,40.655292,2164.494519432644
12:09:00,0,D28,Church Av,-73.962982,40.650527,2044.0654594574182
12:09:00,0,D29,Beverley Rd,-73.964492,40.644031,2151.161877661112
12:09:00,0,D30,Cortelyou Rd,-73.963891,40.640927,2229.2989076164977
12:09:00,0,D31,Newkirk Plaza,-73.962793,40.635082,2222.809459457418
12:09:00,0,D32,Avenue H,-73.961639,40.62927,2336.134238501332
12:09:00,0,D33,Avenue J,-73.960803,40.625039,2433.0187798740067
12:09:00,0,D34,Avenue M,-73.959399,40.617618,2543.825129080356
12:19:00,0,D35,Kings Hwy,-73.957734,40.60867,2488.2048316908185
13:49:00,0,D37,Avenue U,-73.955929,40.5993,2707.553074805685
13:49:00,0,D38,Neck Rd,-73.955161,40.595246,2811.6508321374845
12:19:00,0,D39,Sheepshead Bay,-73.954155,40.586896,2757.3652377821895
13:49:00,0,D40,Brighton Beach,-73.961376,40.577621,2918.672137885176
13:49:00,0,D41,Ocean Pkwy,-73.968501,40.576312,3107.4170650103742
13:49:00,0,D42,W 8 St-NY Aquarium,-73.975939,40.576127,3221.9667454287355
13:49:00,0,D43,Coney Island-Stillwell Av,-73.981233,40.577422,3310.732702875544
12:09:00,1,E01,World Trade Center,-74.009781,40.712582,1716.3689765858562
12:27:00,0,F01,Jamaica-179 St,-73.783817,40.712646,2954.93560121883
13:39:00,0,F02,169 St,-73.793604,40.71047,2864.93560121883
13:39:00,0,F03,Parsons Blvd,-73.803326,40.707564,2701.2003768203185
13:39:00,0,F04,Sutphin Blvd,-73.810708,40.70546,2611.2003768203185
13:39:00,0,F05,Briarwood,-73.820574,40.709179,2369.93560121883
12:57:30,0,F06,Kew Gardens-Union Tpke,-73.831008,40.714441,2480.481134155494
12:57:30,0,F07,75 Av,-73.837324,40.718331,2621.129914643299
13:19:00,0,F09,Court Sq-23 St,-73.946,40.747846,1736.1975788566222
13:19:00,0,F11,Lexington Av/53 St,-73.969055,40.757552,1939.7690074280508
13:19:00,0,F12,5 Av/53 St,-73.975224,40.760167,1918.147750862874
12:27:00,0,F14,2 Av,-73.989938,40.723402,1148.3120661108276
12:27:00,0,F15,Delancey St-Essex St,-73.988114,40.718611,1034.8456838730426
12:09:00,1,F16,East Broadway,-73.990173,40.713715,1129.8694933968522
12:09:00,1,F18,York St,-73.986751,40.701397,1281.2980648254236
12:09:00,1,F20,Bergen St,-73.990862,40.686145,1630.579766105811
12:09:00,1,F21,Carroll St,-73.995048,40.680303,1735.3692397900215
12:09:00,1,F22,Smith-9 Sts,-73.995959,40.67358,1886.1286311357183
12:09:00,1,F23,4 Av-9 St,-73.989779,40.670272,1969.4952978023848
12:09:00,1,F24,7 Av,-73.980305,40.666271,1829.8456838730426
12:09:00,1,F25,15 St-Prospect Park,-73.979493,40.660365,1992.2151937720882
12:09:00,1,F26,Fort Hamilton Pkwy,-73.975776,40.650782,2164.9877056204296
12:09:00,1,F27,Church Av,-73.979678,40.644041,2069.8456838730426
12:09:00,1,F29,Ditmas Av,-73.978172,40.636119,2189.8456838730426
12:09:00,1,F30,18 Av,-73.976971,40.629755,2309.8456838730426
12:09:00,1,F31,Avenue I,-73.976127,40.625322,2369.8456838730426
12:09:00,1,F32,Bay Pkwy,-73.975264,40.620769,2429.8456838730426
12:09:00,1,F33,Avenue N,-73.974197,40.61514,2549.8456838730426
12:09:00,1,F34,Avenue P,-73.973022,40.608944,2639.8456838730426
12:09:00,1,F35,Kings Hwy,-73.972361,40.603217,2816.2458000170604
12:09:00,1,F36,Avenue U,-73.973357,40.596063,2924.2219904932513
12:09:00,1,F38,Avenue X,-73.97425,40.58962,3026.1981809694416
13:19:00,0,F39,Neptune Av,-73.974574,40.581011,3147.031514302775
13:39:00,0,G05,Jamaica Center-Parsons/Archer,-73.801109,40.702147,1926.1158628422313
13:39:00,0,G06,Sutphin Blvd-Archer Av-JFK Airport,-73.807969,40.700486,1866.1158628422313
12:57:30,0,G07,Jamaica-Van Wyck,-73.816859,40.702566,2232.2700722085915
12:57:30,0,G08,Forest Hills-71 Av,-73.844521,40.721691,2705.267129779126
13:09:00,0,G09,67 Av,-73.852719,40.726523,2854.257062222833
13:19:00,0,G10,63 Dr-Rego Park,-73.861604,40.729846,2821.2973810502467
13:19:00,0,G11,Woodhaven Blvd,-73.869229,40.733106,2709.1719197956345
13:19:00,0,G12,Grand Av-Newtown,-73.877223,40.737015,2591.0687890405698
13:19:00,0,G13,Elmhurst Av,-73.882017,40.742454,2485.4776288195753
13:19:00,0,G14,Jackson Hts-Roosevelt Av,-73.891338,40.746644,2339.0945448719103
13:19:00,0,G15,65 St,-73.898453,40.749669,2426.2102024627657
13:19:00,0,G16,Northern Blvd,-73.906006,40.752885,2331.880305555549
12:27:00,0,G18,46 St,-73.913333,40.756312,2241.880305555549
12:27:00,0,G19,Steinway St,-73.92074,40.756879,2124.973089060704
12:27:00,0,G20,36 St,-73.928781,40.752039,2004.973089060704
13:19:00,0,G21,Queens Plaza,-73.937243,40.748973,1859.5649257953978
12:02:00,2,G22,Court Sq,-73.943832,40.746554,1621.7033910407931
12:02:00,2,G24,21 St,-73.949724,40.744065,1555.3441760237283
12:02:00,2,G26,Greenpoint Av,-73.954449,40.731352,1360.528402393385
12:02:00,2,G28,Nassau Av,-73.951277,40.724635,1263.0640524832593
12:02:00,2,G29,Metropolitan Av,-73.951418,40.712792,1123.0419629310204
12:02:00,2,G30,Broadway,-73.950308,40.706092,1240.0763434882226
12:02:00,2,G31,Flushing Av,-73.950234,40.700377,1330.0959048397342
12:02:00,2,G32,Myrtle-Willoughby Avs,-73.949046,40.694568,1407.1457564717816
12:02:00,2,G33,Bedford-Nostrand Avs,-73.953522,40.689627,1518.5594878150655
12:02:00,2,G34,Classon Av,-73.96007,40.688873,1597.3235263856836
12:02:00,2,G35,Clinton-Washington Avs,-73.966839,40.688089,1685.0799718053217
12:02:00,2,G36,Fulton St,-73.975375,40.687119,1783.6491352826317
13:49:00,1,H01,Aqueduct Racetrack,-73.834058,40.668234,1775.1933223978667
13:49:00,1,H02,Aqueduct-N Conduit Av,-73.834058,40.668234,1849.6512460381407
13:49:00,1,H03,Howard Beach-JFK Airport,-73.830301,40.660476,1952.9398334565094
13:49:00,1,H04,Broad Channel,-73.815925,40.608382,2418.3213901400964
13:49:00,1,H06,Beach 67 St,-73.796924,40.590927,2747.2879017680034
13:49:00,1,H07,Beach 60 St,-73.788522,40.592374,2873.144648533253
13:49:00,1,H08,Beach 44 St,-73.776013,40.592943,2982.820874250182
13:49:00,1,H09,Beach 36 St,-73.768175,40.595398,3084.093096472404
13:49:00,1,H10,Beach 25 St,-73.761353,40.600066,3184.533616918501
13:49:00,1,H11,Far Rockaway-Mott Av,-73.755405,40.603995,3274.8332036953607
13:49:00,1,H12,Beach 90 St,-73.813641,40.588034,2688.3785329972393
13:49:00,1,H13,Beach 98 St,-73.820558,40.585307,2788.482306582145
13:49:00,1,H14,Beach 105 St,-73.827559,40.583209,2878.158497058336
13:49:00,1,H15,Rockaway Park-Beach 116 St,-73.835592,40.580903,2981.707947607786
13:39:00,0,J12,121 St,-73.828294,40.700492,1626.1158628422313
13:39:00,0,J13,111 St,-73.836345,40.697418,1787.1809635133723
13:39:00,0,J14,104 St,-73.84433,40.695178,1446.1158628422313
13:39:00,0,J15,Woodhaven Blvd,-73.851576,40.693879,1356.1158628422313
13:39:00,0,J16,85 St-Forest Pkwy,-73.86001,40.692435,1390.300373211804
13:39:00,0,J17,75 St-Elderts Ln,-73.867139,40.691324,1176.1158628422313
13:39:00,0,J19,Cypress Hills,-73.87255,40.689941,1222.6790139885031
13:39:00,0,J20,Crescent St,-73.873785,40.683194,1026.1158628422313
13:39:00,0,J21,Norwood Av,-73.880039,40.68141,936.1158628422311
13:39:00,0,J22,Cleveland St,-73.884639,40.679947,995.4783314580898
13:39:00,0,J23,Van Siclen Av,-73.891688,40.678024,786.1158628422311
13:39:00,0,J24,Alabama Av,-73.898654,40.676992,723.9084795719674
13:39:00,0,J27,Broadway Junction,-73.904512,40.679498,601.6604795719675
13:39:00,0,J28,Chauncey St,-73.910456,40.682893,502.03647957196745
13:39:00,0,J29,Halsey St,-73.916559,40.68637,462.62407131596837
13:39:00,0,J30,Gates Av,-73.92227,40.68963,349.5404795719674
13:39:00,0,J31,Kosciuszko St,-73.928814,40.693342,281.27881157727955
12:52:30,1,L01,8 Av,-74.002578,40.739777,1503.717348255058
12:52:30,1,L02,6 Av,-73.996786,40.737335,1404.5846020058734
12:52:30,1,L03,14 St-Union Sq,-73.99073,40.734789,1313.1126223843303
12:52:30,1,L05,3 Av,-73.986122,40.732849,1251.0149920477336
12:52:30,1,L06,1 Av,-73.981628,40.730953,1213.1803178723515
12:52:30,1,L08,Bedford Av,-73.956872,40.717304,1009.1037221276707
12:52:30,1,L10,Lorimer St,-73.950275,40.714063,909.8276787494256
12:52:30,1,L11,Graham Av,-73.944053,40.714565,867.7221711183705
12:52:30,1,L12,Grand St,-73.94067,40.711926,782.6244194077155
12:52:30,1,L13,Montrose Av,-73.93985,40.707739,736.1462222659053
12:52:30,1,L14,Morgan Av,-73.933147,40.706152,672.3396031873849
12:52:30,1,L15,Jefferson St,-73.922913,40.706607,581.7611902858278
12:52:30,1,L16,DeKalb Av,-73.918425,40.703811,517.1582142966495
12:02:00,1,L17,Myrtle-Wyckoff Avs,-73.911586,40.699814,440.4170674820218
13:11:00,1,L19,Halsey St,-73.904084,40.695602,488.7007038456582
13:11:00,1,L20,Wilson Av,-73.904046,40.688764,609.0508583255759
13:11:00,1,L21,Bushwick Av-Aberdeen St,-73.905249,40.682829,701.7247950758484
13:11:00,1,L22,Broadway Junction,-73.90324,40.678856,761.9676522187056
13:11:00,1,L24,Atlantic Av,-73.903097,40.675345,866.369982581968
13:11:00,1,L25,Sutter Av,-73.901975,40.669367,942.8696490262643
13:11:00,1,L26,Livonia Av,-73.900571,40.664038,1008.5982495697424
13:11:00,1,L27,New Lots Av,-73.899232,40.658733,1062.4204640300986
13:11:00,1,L28,East 105 St,-73.899485,40.650573,1172.6468856667143
12:02:00,1,L29,Canarsie-Rockaway Pkwy,-73.90185,40.646654,1296.4210551329331
12:02:00,0,M01,Middle Village-Metropolitan Av,-73.889601,40.711396,610.3134443379018
12:02:00,0,M04,Fresh Pond Rd,-73.895877,40.706186,494.3936890094776
12:02:00,0,M05,Forest Av,-73.903077,40.704423,382.77764171571545
12:02:00,0,M06,Seneca Av,-73.90774,40.702762,287.9180048442071
12:02:00,0,M08,Myrtle-Wyckoff Avs,-73.912385,40.69943,215.31099514994904
12:02:00,0,M09,Knickerbocker Av,-73.919711,40.698664,87.02339986235376
12:27:00,0,M10,Central Av,-73.927397,40.697857,0.0
12:09:00,0,M11,Myrtle Av,-73.935657,40.697207,116.11585807385953
12:09:00,0,M12,Flushing Av,-73.941126,40.70026,243.70908497023146
12:09:00,0,M13,Lorimer St,-73.947408,40.703869,341.9256998770637
12:09:00,0,M14,Hewes St,-73.953431,40.70687,442.80762081408307
12:09:00,0,M16,Marcy Av,-73.957757,40.708359,433.51235053970936
12:09:00,0,M18,Delancey St-Essex St,-73.987437,40.718315,809.8456838730426
12:19:00,0,M19,Bowery,-73.993915,40.72028,892.7028267301855
12:19:00,0,M20,Canal St,-73.999892,40.718092,991.552033079392
12:19:00,0,M21,Chambers St,-74.003401,40.713243,1098.8060013333602
12:19:00,0,M22,Fulton St,-74.007582,40.710374,1200.909175936535
12:19:00,0,M23,Broad St,-74.011056,40.706476,1265.0928494059224
12:09:00,0,N02,8 Av,-74.011719,40.635064,2769.9049347688383
12:09:00,0,N03,Fort Hamilton Pkwy,-74.005351,40.631386,2917.3757656468583
12:09:00,0,N04,New Utrecht Av,-73.996353,40.624842,3057.386353882152
12:09:00,0,N05,18 Av,-73.990414,40.620671,3152.3804646006442
12:09:00,0,N06,20 Av,-73.985026,40.61741,3234.371025072621
12:09:00,0,N07,Bay Pkwy,-73.981848,40.611815,3334.156445413597
12:09:00,0,N08,Kings Hwy,-73.980353,40.603923,3447.710174127631
12:09:00,0,N09,Avenue U,-73.979137,40.597473,3545.6213371901677
12:09:00,0,N10,86 St,-73.97823,40.592721,3589.7216653479504
13:57:00,2,Q01,Canal St,-74.00046,40.718383,1229.052031887299
12:09:00,0,Q03,72 St,-73.958424,40.768799,2290.241462055783
12:09:00,0,Q04,86 St,-73.951787,40.777891,2415.280897017525
12:09:00,0,Q05,96 St,-73.947152,40.784318,2508.279360919215
12:09:00,1,R01,Astoria-Ditmars Blvd,-73.912034,40.775036,2573.8704010684123
12:09:00,1,R03,Astoria Blvd,-73.917843,40.770258,2477.5750544397324
12:09:00,1,R04,30 Av,-73.921479,40.766779,2370.878114656909
12:09:00,1,R05,Broadway,-73.925508,40.76182,2275.4971622759567
12:09:00,1,R06,36 Av,-73.929575,40.756804,2163.015936979514
12:09:00,1,R08,39 Av-Dutch Kills,-73.932755,40.752882,2045.4710267998735
12:09:00,1,R09,Queensboro Plaza,-73.940202,40.750582,1883.0262506804704
12:09:00,1,R11,Lexington Av/59 St,-73.967258,40.76266,2148.4362102495675
12:09:00,1,R13,5 Av/59 St,-73.973347,40.764811,2165.0379229690802
12:09:00,1,R14,57 St-7 Av,-73.980658,40.764664,1960.2841381545684
12:09:00,1,R15,49 St,-73.984139,40.759901,1907.458858396844
12:09:00,1,R16,Times Sq-42 St,-73.986754,40.754672,1777.1503269239831
12:02:00,2,R17,34 St-Herald Sq,-73.98795,40.749567,1674.1705770728813
12:02:00,2,R18,28 St,-73.988691,40.745494,1713.3197540168196
12:57:30,2,R19,23 St,-73.989344,40.741303,1628.2692589673145
12:39:00,1,R20,14 St-Union Sq,-73.990568,40.735736,1502.9974864327537
12:09:00,2,R21,8 St-NYU,-73.992629,40.730328,1548.2647780720918
12:19:00,1,R22,Prince St,-73.997702,40.724329,1451.732268748883
12:19:00,1,R23,Canal St,-74.001775,40.719527,1349.052031887299
12:09:00,1,R24,City Hall,-74.006978,40.713282,1496.9665492049114
12:09:00,1,R25,Cortlandt St,-74.011029,40.710668,1621.9724143075507
12:09:00,1,R26,Rector St,-74.013342,40.70722,1727.364355699492
12:09:00,0,R27,Whitehall St-South Ferry,-74.012994,40.703087,1822.978954239638
12:09:00,0,R28,Court St,-73.991777,40.6941,1607.1313981587566
12:09:00,0,R29,Jay St-MetroTech,-73.985942,40.69218,1520.1313981587568
12:09:00,2,R30,DeKalb Av,-73.981824,40.690635,1628.3313981587569
13:49:00,0,R31,Atlantic Av-Barclays Ctr,-73.97881,40.683666,1787.6313981587568
12:09:00,0,R32,Union St,-73.98311,40.677316,1922.931398158757
12:09:00,0,R33,4 Av-9 St,-73.988302,40.670847,2040.9813981587572
12:09:00,0,R34,Prospect Av,-73.992872,40.665414,2135.0313981587574
12:09:00,0,R35,25 St,-73.998091,40.660397,2201.136661316652
13:49:00,0,R36,36 St,-74.003549,40.655144,2277.9395917559013
12:09:00,0,R39,45 St,-74.010006,40.648939,2473.821944697078
12:09:00,0,R40,53 St,-74.014034,40.645069,2598.433055808189
12:09:00,0,R41,59 St,-74.017881,40.641362,2596.381548149537
12:09:00,0,R42,Bay Ridge Av,-74.023377,40.634967,2760.8557969357453
12:09:00,0,R43,77 St,-74.02551,40.629742,2843.464464040145
12:09:00,0,R44,86 St,-74.028398,40.622687,3027.916399121293
13:49:00,0,R45,Bay Ridge-95 St,-74.030876,40.616622,3096.4981382517276
12:02:00,3,S01,Franklin Av,-73.955827,40.680596,1450.555182076151
12:02:00,3,S03,Park Pl,-73.957624,40.674772,1566.8954598539287
12:02:00,3,S04,Botanic Garden,-73.959245,40.670343,1691.4712613355305
