start_time,ntransfers,stop_id,stop_name,stop_lon,stop_lat,duration
13:03:00,1,101,Van Cortlandt Park-242 St,-73.898583,40.889248,3751.933530153881
13:03:00,1,103,238 St,-73.90087,40.884667,3645.1827819708965
13:03:00,1,104,231 St,-73.904834,40.878856,3550.347675587918
13:03:00,1,106,Marble Hill-225 St,-73.909831,40.874561,3456.8758090764704
13:03:00,1,107,215 St,-73.915279,40.869444,3348.751245630603
13:03:00,1,108,207 St,-73.918822,40.864621,3269.766450308966
13:03:00,1,109,Dyckman St,-73.925536,40.860531,3171.7298232514745
13:03:00,1,110,191 St,-73.929412,40.855225,3081.510775632427
13:03:00,1,111,181 St,-73.933596,40.849505,2986.2661868878386
13:03:00,1,112,168 St-Washington Hts,-73.940133,40.840556,2865.4158615082288
13:03:00,1,113,157 St,-73.94489,40.834041,2904.0113622039958
13:03:00,1,114,145 St,-73.95036,40.826551,2788.3467148651816
13:03:00,1,115,137 St-City College,-73.953676,40.822008,2687.303931805545
13:03:00,1,116,125 St,-73.958372,40.815581,2588.5427998871096
13:03:00,1,117,116 St-Columbia University,-73.96411,40.807722,2470.386730522948
13:03:00,1,118,Cathedral Pkwy (110 St),-73.966847,40.803967,2392.3559170471876
13:03:00,1,119,103 St,-73.968379,40.799446,2313.037735229006
13:03:00,1,120,96 St,-73.972323,40.793919,2064.746410118898
13:24:30,1,121,86 St,-73.976218,40.788644,2098.89813335547
13:24:30,1,122,79 St,-73.979917,40.783934,2020.1230722307757
13:03:00,1,123,72 St,-73.98197,40.778453,1882.8872495004775
13:24:30,1,124,66 St-Lincoln Center,-73.982209,40.77344,1936.2313870592895
13:24:30,1,125,59 St-Columbus Circle,-73.981929,40.768247,1855.1334167236141
13:03:00,1,126,50 St,-73.983849,40.761728,1746.5059657432219
13:03:00,1,127,Times Sq-42 St,-73.987495,40.75529,1634.3088711220992
13:03:00,1,128,34 St-Penn Station,-73.991057,40.750373,1534.6870939113408
13:03:00,1,129,28 St,-73.993365,40.747215,1581.0544245766182
13:03:00,1,130,23 St,-73.995657,40.744081,1512.427194165447
13:03:00,1,131,18 St,-73.997871,40.74104,1443.9866809461623
13:03:00,1,132,14 St,-74.000201,40.737826,1367.9095772279627
12:24:30,1,133,Christopher St-Sheridan Sq,-74.002906,40.733422,1451.6367579273735
12:24:30,1,134,Houston St,-74.005367,40.728251,1531.6363514233085
12:24:30,1,135,Canal St,-74.006277,40.722854,1621.3939640907872
13:11:00,1,136,Franklin St,-74.006886,40.719318,1686.5492133814234
13:21:00,1,137,Chambers St,-74.009266,40.715478,1490.0870732717456
13:41:00,1,138,WTC Cortlandt,-74.012188,40.711835,1773.787117871485
13:41:00,1,139,Rector St,-74.013783,40.707513,1853.0856847504658
13:41:00,1,142,South Ferry,-74.013664,40.702068,1780.3078984299866
13:54:30,1,201,Wakefield-241 St,-73.85062,40.903125,4618.142023535697
13:54:30,1,204,Nereid Av,-73.854376,40.898379,4389.877975197329
13:54:30,1,205,233 St,-73.857473,40.893193,4257.877975197329
13:54:30,1,206,225 St,-73.860341,40.888022,4161.877975197329
13:54:30,1,207,219 St,-73.862633,40.883895,4079.8779751973293
13:54:30,1,208,Gun Hill Rd,-73.866256,40.87785,3971.3779751973293
13:54:30,1,209,Burke Av,-73.867164,40.871356,4048.8779751973293
13:54:30,1,210,Allerton Av,-73.867352,40.865462,3984.505352771741
13:54:30,1,211,Pelham Pkwy,-73.867615,40.857192,3872.59730679473
13:54:30,1,212,Bronx Park East,-73.868457,40.848828,3745.4473067947292
13:54:30,1,213,E 180 St,-73.873488,40.841894,3549.181922179345
12:02:30,1,214,West Farms Sq-E Tremont Av,-73.880049,40.840295,3427.8906761538005
12:02:30,1,215,174 St,-73.887734,40.837288,3301.8513120357084
12:02:30,1,216,Freeman St,-73.891865,40.829993,3179.343423230299
12:02:30,1,217,Simpson St,-73.893064,40.824073,3066.1307366631345
13:54:30,1,218,Intervale Av,-73.896736,40.822181,2991.466302139325
13:54:30,1,219,Prospect Av,-73.90177,40.819585,2907.900923238879
12:02:30,1,220,Jackson Av,-73.907807,40.81649,2808.1743896099065
13:54:30,1,221,3 Av-149 St,-73.917757,40.816109,2669.2029819852733
12:02:30,1,222,149 St-Grand Concourse,-73.926718,40.81841,2537.5435331663757
13:03:00,1,224,135 St,-73.94077,40.814229,2602.6543146860427
13:03:00,1,225,125 St,-73.945495,40.807754,2491.7023564614997
13:03:00,1,226,116 St,-73.949625,40.802098,2392.5591217891947
13:03:00,1,227,Central Park North (110 St),-73.951822,40.799075,2323.177563760578
13:21:00,1,228,Park Place,-74.008811,40.713051,1400.88091722307
13:21:00,1,229,Fulton St,-74.006571,40.709416,1283.658014191424
13:21:00,1,230,Wall St,-74.0091,40.706821,1359.2312359487462
13:21:00,1,231,Clark St,-73.993086,40.697466,1550.6369591067976
13:21:00,1,232,Borough Hall,-73.989998,40.693219,1575.5221841442724
13:21:00,1,233,Hoyt St,-73.985065,40.690545,1663.2800788811146
13:21:00,1,234,Nevins St,-73.980492,40.688246,1656.3215650834798
13:21:00,1,235,Atlantic Av-Barclays Ctr,-73.977666,40.684359,1741.0221841442726
12:02:30,1,236,Bergen St,-73.975098,40.680829,1820.0443933786385
12:02:30,1,237,Grand Army Plaza,-73.971046,40.675235,1935.0268597725599
12:02:30,1,238,Eastern Pkwy-Brooklyn Museum,-73.964375,40.671987,2042.1693495857332
13:54:30,1,239,Franklin Av-Medgar Evers College,-73.958131,40.670682,2004.1861390879524
12:53:30,1,241,President St-Medgar Evers College,-73.950683,40.667883,2193.004712202548
12:53:30,1,242,Sterling St,-73.95085,40.662742,2289.0143439305934
12:53:30,1,243,Winthrop St,-73.9502,40.656652,2377.686493675347
12:53:30,1,244,Church Av,-73.949575,40.650843,2457.017056335193
12:53:30,1,245,Beverly Rd,-73.948959,40.645098,2537.3799776835076
12:53:30,1,246,Newkirk Av-Little Haiti,-73.948411,40.639967,2623.6349017127704
12:53:30,1,247,Flatbush Av-Brooklyn College,-73.947642,40.632836,2758.7841288233535
12:53:30,1,248,Nostrand Av,-73.950466,40.669847,2027.628352804209
12:21:00,2,249,Kingston Av,-73.942161,40.669399,1924.8071989580556
12:21:00,2,250,Crown Hts-Utica Av,-73.932942,40.668897,1841.2289676655387
12:21:00,2,251,Sutter Av-Rutland Rd,-73.92261,40.664717,1747.0042795087666
12:21:00,2,252,Saratoga Av,-73.916327,40.661453,1641.02007650105
12:21:00,2,253,Rockaway Av,-73.908946,40.662549,1548.3810079370137
12:21:00,2,254,Junius St,-73.902447,40.663515,1464.121292911107
12:41:00,2,255,Pennsylvania Av,-73.894895,40.664635,1571.7565964292069
12:41:00,2,256,Van Siclen Av,-73.889395,40.665449,1651.0393727788212
12:41:00,2,257,New Lots Av,-73.884079,40.666235,1728.0400213376317
12:02:30,1,301,Harlem-148 St,-73.93647,40.82388,2859.3437913399894
12:02:30,1,302,145 St,-73.936245,40.820421,2742.783769612667
13:03:00,1,401,Woodlawn,-73.878751,40.886037,3959.584065587374
13:03:00,1,402,Mosholu Pkwy,-73.884655,40.87975,3802.1356943257574
13:03:00,1,405,Bedford Park Blvd-Lehman College,-73.890064,40.873412,3686.746838368437
13:03:00,1,406,Kingsbridge Rd,-73.897174,40.86776,3570.374202105923
13:03:00,1,407,Fordham Rd,-73.901034,40.862803,3473.4519798837005
13:03:00,1,408,183 St,-73.903879,40.858407,3388.855187848302
13:03:00,1,409,Burnside Av,-73.907684,40.853453,3287.5776942421644
13:03:00,1,410,176 St,-73.911794,40.84848,3216.9134853662254
13:03:00,1,411,Mt Eden Av,-73.914685,40.844434,3137.566546590715
13:03:00,1,412,170 St,-73.917791,40.840075,3057.3601624410176
13:03:00,1,413,167 St,-73.9214,40.835537,2968.231614861719
13:03:00,1,414,161 St-Yankee Stadium,-73.925831,40.827994,2789.676227147721
13:03:00,1,415,149 St-Grand Concourse,-73.927351,40.818375,2611.762044208358
12:02:30,1,416,138 St-Grand Concourse,-73.929849,40.813224,2353.7071215568767
13:11:00,1,418,Fulton St,-74.009509,40.710368,1093.45114925553
13:11:00,1,419,Wall St,-74.011862,40.707557,1173.2653085475656
13:11:00,1,420,Bowling Green,-74.014065,40.704817,1252.6262746050068
13:11:00,1,423,Borough Hall,-73.990151,40.692404,1517.080208700501
13:54:30,1,501,Eastchester-Dyre Av,-73.830834,40.8883,4265.1051098718945
13:54:30,1,502,Baychester Av,-73.838591,40.878663,4134.431184690432
13:54:30,1,503,Gun Hill Rd,-73.846384,40.869526,4005.4191430921833
13:54:30,1,504,Pelham Pkwy,-73.855359,40.858985,3866.788696663874
13:54:30,1,505,Morris Park,-73.860495,40.854364,3776.788696663874
13:41:00,1,601,Pelham Bay Park,-73.828121,40.852462,3966.6093949764654
13:41:00,1,602,Buhre Av,-73.832569,40.84681,3789.3462370817288
13:41:00,1,603,Middletown Rd,-73.836322,40.843863,3719.053133633453
13:41:00,1,604,Westchester Sq-E Tremont Av,-73.842952,40.839892,3586.876663045218
13:41:00,1,606,Zerega Av,-73.847036,40.836488,3499.8266630452176
13:41:00,1,607,Castle Hill Av,-73.851222,40.834255,3430.580761405873
13:03:00,1,608,Parkchester,-73.860816,40.833226,3245.166968302425
13:03:00,1,609,St Lawrence Av,-73.867618,40.831509,3489.0273009652233
13:03:00,1,610,Morrison Av-Soundview,-73.874516,40.829521,3387.87625698477
13:03:00,1,611,Elder Av,-73.879159,40.828584,3315.1508525247787
13:03:00,1,612,Whitlock Av,-73.886283,40.826525,3202.446090620017
13:03:00,1,613,Hunts Point Av,-73.890549,40.820948,2972.766968302425
12:02:30,1,614,Longwood Av,-73.896435,40.816104,3091.858263695931
12:02:30,1,615,E 149 St,-73.904098,40.812118,2989.0874816005053
12:02:30,1,616,E 143 St-St Mary's St,-73.907657,40.808719,2912.4133855133337
12:02:30,1,617,Cypress Av,-73.914042,40.805368,2800.99843530648
12:02:30,1,618,Brook Av,-73.91924,40.807566,2725.3794861960127
13:03:00,1,619,3 Av-138 St,-73.926138,40.810476,2605.1215782315035
12:02:30,1,621,125 St,-73.937594,40.804138,2170.7235473124615
12:02:30,1,622,116 St,-73.941617,40.798629,2382.92510171268
13:03:00,1,623,110 St,-73.94425,40.79502,2302.3747661422103
13:03:00,1,624,103 St,-73.947478,40.7906,2223.3350310428723
13:03:00,1,625,96 St,-73.95107,40.785672,2133.5652942007673
12:02:30,1,626,86 St,-73.955589,40.779492,1862.4030011486122
13:03:00,1,627,77 St,-73.959874,40.77362,1931.4162361010626
13:03:00,1,628,68 St-Hunter College,-73.96387,40.768141,1837.8790682571337
12:02:30,1,629,59 St,-73.967967,40.762526,1662.3483035939148
13:03:00,1,630,51 St,-73.97192,40.757107,1628.2248810983278
12:02:30,1,631,Grand Central-42 St,-73.976848,40.751776,1495.5014105766184
13:03:00,1,632,33 St,-73.982076,40.746081,1388.7368671447161
13:03:00,1,633,28 St,-73.984264,40.74307,1321.0344861923352
13:03:00,1,634,23 St,-73.986599,40.739864,1254.7327110444062
13:03:00,1,635,14 St-Union Sq,-73.989951,40.734673,1120.9666291730612
13:03:00,1,636,Astor Pl,-73.99107,40.730054,1040.4230934752036
12:32:30,1,637,Bleecker St,-73.994659,40.725915,944.5838662322436
12:32:30,1,638,Spring St,-73.997141,40.722301,1015.1096394281199
12:32:30,1,639,Canal St,-74.000193,40.718803,973.0600856928244
13:21:00,1,640,Brooklyn Bridge-City Hall,-74.004131,40.713065,914.7886966638739
12:44:30,1,701,Flushing-Main St,-73.83003,40.7596,3217.436915233453
12:44:30,1,702,Mets-Willets Point,-73.845625,40.754622,3052.4142615117703
12:44:30,1,705,111 St,-73.855334,40.75173,3106.4593410291245
12:44:30,1,706,103 St-Corona Plaza,-73.8627,40.749865,3027.5519711846346
12:44:30,1,707,Junction Blvd,-73.869527,40.749145,2826.866231487036
12:44:30,1,708,90 St-Elmhurst Av,-73.876613,40.748408,2910.163207380479
12:44:30,1,709,82 St-Jackson Hts,-73.883697,40.747659,2822.495641895117
12:14:30,1,710,74 St-Broadway,-73.891394,40.746848,2661.6581644176395
12:14:30,1,711,69 St,-73.896403,40.746325,2592.721677931153
12:14:30,1,712,61 St-Woodside,-73.902984,40.74563,2510.802155405161
12:14:30,1,713,52 St,-73.912549,40.744149,2416.212068574481
12:14:30,1,714,46 St-Bliss St,-73.918435,40.743132,2355.482399899782
12:14:30,1,715,40 St-Lowery St,-73.924016,40.743781,2287.3681452751903
12:14:30,1,716,33 St-Rawson St,-73.930997,40.744587,2208.624205881251
12:14:30,1,718,Queensboro Plaza,-73.940202,40.750582,2040.8135999080887
12:14:30,1,719,Court Sq,-73.945264,40.747023,1945.6772362717252
12:14:30,1,720,Hunters Point Av,-73.948916,40.742216,1850.5902797499862
12:14:30,1,721,Vernon Blvd-Jackson Av,-73.953581,40.742626,1815.8774479811918
12:14:30,1,723,Grand Central-42 St,-73.976041,40.751431,1600.2465754979705
12:14:30,1,724,5 Av,-73.981963,40.753821,1529.9282750879815
12:14:30,1,725,Times Sq-42 St,-73.987691,40.755477,1587.7931399528463
12:14:30,1,726,34 St-Hudson Yards,-74.00191,40.755882,1719.1931399528464
12:02:30,2,901,Grand Central-42 St,-73.979189,40.752769,1572.4977607496855
12:14:30,2,902,Times Sq-42 St,-73.986229,40.755983,1574.3088711220992
13:24:30,0,A02,Inwood-207 St,-73.919899,40.868072,3210.3094620771376
13:24:30,0,A03,Dyckman St,-73.927271,40.865491,3110.5706352614948
13:24:30,0,A05,190 St,-73.93418,40.859022,2980.1906242785185
13:24:30,0,A06,181 St,-73.937969,40.851695,2867.305712384245
13:24:30,0,A07,175 St,-73.939704,40.847391,2774.520706871566
13:24:30,0,A09,168 St,-73.939561,40.840719,2639.9267302959943
12:14:30,0,A10,163 St-Amsterdam Av,-73.939892,40.836013,2673.539205452433
12:14:30,0,A11,155 St,-73.941514,40.830518,2588.669378514886
12:14:30,0,A12,145 St,-73.944216,40.824783,2394.115232230765
12:14:30,0,A14,135 St,-73.947649,40.817894,2305.2461791865408
13:14:30,0,A15,125 St,-73.952343,40.811109,2179.8506236309854
12:14:30,0,A16,116 St,-73.954882,40.805085,2317.7890442558432
13:24:30,0,A17,Cathedral Pkwy (110 St),-73.958161,40.800603,2337.4973389688134
13:24:30,0,A18,103 St,-73.961454,40.796092,2250.8825774926654
13:24:30,0,A19,96 St,-73.964696,40.791642,2161.715910825999
13:24:30,0,A20,86 St,-73.968916,40.785868,2059.974033569681
13:24:30,0,A21,81 St-Museum of Natural History,-73.972143,40.781433,1960.6964567161547
13:24:30,0,A22,72 St,-73.97641,40.775594,1868.37340771434
13:14:30,0,A24,59 St-Columbus Circle,-73.981736,40.768296,1678.8401898034178
13:14:30,0,A25,50 St,-73.985984,40.762456,1679.393893692442
13:14:30,0,A27,42 St-Port Authority Bus Terminal,-73.989735,40.757308,1514.3088711220992
12:24:30,1,A28,34 St-Penn Station,-73.993391,40.752287,1412.5126053340705
13:03:00,1,A30,23 St,-73.998041,40.745906,1347.686267541937
13:03:00,1,A31,14 St,-74.00169,40.740893,1248.089058687269
12:14:30,1,A32,W 4 St-Wash Sq,-74.000495,40.732338,1129.00909631662
13:44:30,1,A33,Spring St,-74.003739,40.726227,1242.1928149479613
13:14:30,1,A34,Canal St,-74.005229,40.720824,1301.8425296326345
13:31:00,1,A36,Chambers St,-74.008585,40.714111,1288.0651253304698
13:31:00,1,A38,Fulton St,-74.007691,40.710197,1188.7541672122827
13:21:00,1,A40,High St,-73.990531,40.699337,1377.8072032538037
12:32:30,0,A41,Jay St-MetroTech,-73.987342,40.692338,1113.5221841442724
12:01:00,1,A42,Hoyt-Schermerhorn Sts,-73.985001,40.688484,1370.1244622505603
12:02:30,0,A43,Lafayette Av,-73.973946,40.686113,1523.020196078543
12:02:30,0,A44,Clinton-Washington Avs,-73.965838,40.683263,1591.0645941530988
12:01:00,1,A45,Franklin Av,-73.956848,40.68138,1489.8143992972919
12:01:00,1,A46,Nostrand Av,-73.950426,40.680438,1337.53221978182
13:55:30,1,A47,Kingston-Throop Avs,-73.940858,40.679921,1297.2071060530034
12:01:00,1,A48,Utica Av,-73.930729,40.679364,1169.4636017395937
12:11:00,1,A49,Ralph Av,-73.920786,40.678822,1089.1372122060698
12:11:00,1,A50,Rockaway Av,-73.911946,40.67834,992.4730784674679
12:01:00,1,A51,Broadway Junction,-73.905316,40.678334,903.2289011571748
12:01:00,1,A52,Liberty Av,-73.896548,40.674542,1041.2445962244394
12:01:00,1,A53,Van Siclen Av,-73.890358,40.67271,1137.4030416653961
12:01:00,1,A54,Shepherd Av,-73.88075,40.67413,1238.901160551777
12:01:00,1,A55,Euclid Av,-73.872106,40.675377,1256.2325839046741
13:45:00,1,A57,Grant Av,-73.86505,40.677044,1386.4392654191508
13:45:00,1,A59,80 St,-73.858992,40.679371,1483.945909225409
13:45:00,1,A60,88 St,-73.85147,40.679843,1583.1355496363678
13:45:00,1,A61,Rockaway Blvd,-73.843853,40.680429,1676.5594673388969
12:41:00,1,A63,104 St,-73.837683,40.681711,1767.6074185158802
13:01:00,1,A64,111 St,-73.832163,40.684331,1858.742797577252
13:01:00,1,A65,Ozone Park-Lefferts Blvd,-73.825798,40.685951,1969.6212572643758
12:44:30,0,B04,21 St-Queensbridge,-73.942836,40.754203,2129.9282750879815
12:44:30,0,B06,Roosevelt Island,-73.95326,40.759145,1978.7243431409702
12:44:30,0,B08,Lexington Av/63 St,-73.966113,40.764629,1859.9282750879815
12:44:30,0,B10,57 St,-73.97745,40.763972,1709.9282750879815
13:54:30,0,B12,9 Av,-73.994324,40.646292,2413.539198837221
13:54:30,0,B13,Fort Hamilton Pkwy,-73.994304,40.640914,2515.354092454242
13:54:30,0,B14,50 St,-73.994791,40.63626,2596.1140356360606
13:54:30,0,B15,55 St,-73.995476,40.631435,2699.1424851381944
13:54:30,0,B16,62 St,-73.996895,40.626472,2764.090867264543
13:54:30,0,B17,71 St,-73.998864,40.619589,2866.988156850848
13:54:30,0,B18,79 St,-74.00061,40.613501,2971.438941444286
13:54:30,0,B19,18 Av,-74.001736,40.607954,3055.922512872857
13:54:30,0,B20,20 Av,-73.998168,40.604556,3141.134092572643
13:54:30,0,B21,Bay Pkwy,-73.993728,40.601875,3222.2920250923844
13:54:30,0,B22,25 Av,-73.986829,40.597704,3349.0981767375915
13:54:30,0,B23,Bay 50 St,-73.983765,40.588841,3373.2065769195183
12:14:30,0,D01,Norwood-205 St,-73.878855,40.874811,3649.101425631144
12:14:30,0,D03,Bedford Park Blvd,-73.887138,40.873244,3480.401671309004
12:14:30,0,D04,Kingsbridge Rd,-73.893509,40.866978,3361.861286693619
12:14:30,0,D05,Fordham Rd,-73.897749,40.861296,3261.7284007875787
12:14:30,0,D06,182-183 Sts,-73.900741,40.856093,3176.5556135073625
13:14:30,0,D07,Tremont Av,-73.905227,40.85041,3092.9552400246357
13:14:30,0,D08,174-175 Sts,-73.910136,40.8459,3066.036966168388
13:14:30,0,D09,170 St,-73.9134,40.839306,2960.493156644579
13:14:30,0,D10,167 St,-73.91844,40.833771,2854.3502995017216
13:14:30,0,D11,161 St-Yankee Stadium,-73.925651,40.827905,2740.159548056635
13:14:30,0,D12,155 St,-73.938209,40.830135,2615.9556304182265
13:14:30,0,D13,145 St,-73.944216,40.824783,2446.339462084534
13:14:30,0,D14,7 Av,-73.981637,40.762862,1618.687107983711
12:14:30,0,D15,47-50 Sts-Rockefeller Ctr,-73.981329,40.758663,1399.2235471664828
12:14:30,0,D16,42 St-Bryant Pk,-73.984569,40.754222,1304.9282750879815
12:14:30,0,D17,34 St-Herald Sq,-73.987823,40.749719,1225.0054004166407
12:02:30,0,D18,23 St,-73.992821,40.742878,1104.4138268998738
12:02:30,0,D19,14 St,-73.996209,40.738228,1027.5017688763019
12:02:30,0,D20,W 4 St-Wash Sq,-74.000495,40.732338,895.0697013657531
12:02:30,0,D21,Broadway-Lafayette St,-73.996204,40.725297,732.3552938636218
12:53:30,0,D22,Grand St,-73.993753,40.718267,1117.043297169763
12:24:30,0,D24,Atlantic Av-Barclays Ctr,-73.97689,40.68446,1703.4352462307813
12:24:30,0,D25,7 Av,-73.972367,40.67705,1852.5509274647145
12:24:30,0,D26,Prospect Park,-73.962246,40.661614,1917.6663245326968
12:14:30,0,D27,Parkside Av,-73.961495,40.655292,2156.000909906712
12:24:30,0,D28,Church Av,-73.962982,40.650527,2143.324676678559
13:44:30,0,D29,Beverley Rd,-73.964492,40.644031,2250.4210948822533
13:54:30,0,D30,Cortelyou Rd,-73.963891,40.640927,2328.558124837639
12:24:30,0,D31,Newkirk Plaza,-73.962793,40.635082,2322.0686766785593
12:24:30,0,D32,Avenue H,-73.961639,40.62927,2435.3934557224734
12:24:30,0,D33,Avenue J,-73.960803,40.625039,2532.277997095148
12:24:30,0,D34,Avenue M,-73.959399,40.617618,2643.084346301497
12:24:30,0,D35,Kings Hwy,-73.957734,40.60867,2587.4640489119597
13:54:30,0,D37,Avenue U,-73.955929,40.5993,2806.812292026826
13:54:30,0,D38,Neck Rd,-73.955161,40.595246,2910.9100493586257
12:24:30,0,D39,Sheepshead Bay,-73.954155,40.586896,2856.6244550033307
13:54:30,0,D40,Brighton Beach,-73.961376,40.577621,3017.931355106317
13:54:30,0,D41,Ocean Pkwy,-73.968501,40.576312,3206.6762822315154
13:54:30,0,D42,W 8 St-NY Aquarium,-73.975939,40.576127,2983.324739312681
13:54:30,0,D43,Coney Island-Stillwell Av,-73.981233,40.577422,3099.199739312681
13:31:00,1,E01,World Trade Center,-74.009781,40.712582,1460.3770303913814
12:31:00,0,F01,Jamaica-179 St,-73.783817,40.712646,3012.048639533774
12:31:00,0,F02,169 St,-73.793604,40.71047,2922.048639533774
12:31:00,0,F03,Parsons Blvd,-73.803326,40.707564,2758.313415135262
12:31:00,0,F04,Sutphin Blvd,-73.810708,40.70546,2668.313415135262
12:31:00,0,F05,Briarwood,-73.820574,40.709179,2427.048639533774
13:01:00,0,F06,Kew Gardens-Union Tpke,-73.831008,40.714441,2537.5941724704376
13:01:00,0,F07,75 Av,-73.837324,40.718331,2678.2429529582428
13:24:30,0,F09,Court Sq-23 St,-73.946,40.747846,1853.5092614521973
13:24:30,0,F11,Lexington Av/53 St,-73.969055,40.757552,1649.9378328807688
13:24:30,0,F12,5 Av/53 St,-73.975224,40.760167,1550.754159411381
12:32:30,0,F14,2 Av,-73.989938,40.723402,876.7028520963432
12:32:30,0,F15,Delancey St-Essex St,-73.988114,40.718611,763.236469858558
12:14:30,1,F16,East Broadway,-73.990173,40.713715,858.2602793823676
12:32:30,0,F18,York St,-73.986751,40.701397,1009.6888508109391
12:32:30,0,F20,Bergen St,-73.990862,40.686145,1263.7474885485979
12:32:30,0,F21,Carroll St,-73.995048,40.680303,1420.3398549608116
12:32:30,0,F22,Smith-9 Sts,-73.995959,40.67358,1555.4398031741725
12:32:30,0,F23,4 Av-9 St,-73.989779,40.670272,1649.396517935549
12:32:30,0,F24,7 Av,-73.980305,40.666271,1558.2364698585582
12:32:30,0,F25,15 St-Prospect Park,-73.979493,40.660365,1720.605979757604
12:32:30,0,F26,Fort Hamilton Pkwy,-73.975776,40.650782,1893.3784916059453
12:32:30,0,F27,Church Av,-73.979678,40.644041,1798.2364698585582
12:32:30,0,F29,Ditmas Av,-73.978172,40.636119,1918.2364698585582
12:32:30,0,F30,18 Av,-73.976971,40.629755,2038.236469858558
12:32:30,0,F31,Avenue I,-73.976127,40.625322,2098.236469858558
12:32:30,0,F32,Bay Pkwy,-73.975264,40.620769,2158.236469858558
12:32:30,0,F33,Avenue N,-73.974197,40.61514,2278.236469858558
12:32:30,0,F34,Avenue P,-73.973022,40.608944,2368.236469858558
12:32:30,0,F35,Kings Hwy,-73.972361,40.603217,2544.636586002576
13:32:30,0,F36,Avenue U,-73.973357,40.596063,2652.612776478767
13:32:30,0,F38,Avenue X,-73.97425,40.58962,2754.5889669549574
13:24:30,0,F39,Neptune Av,-73.974574,40.581011,2875.422300288291
12:01:00,0,G05,Jamaica Center-Parsons/Archer,-73.801109,40.702147,1983.2289011571747
12:01:00,0,G06,Sutphin Blvd-Archer Av-JFK Airport,-73.807969,40.700486,1923.2289011571747
13:01:00,0,G07,Jamaica-Van Wyck,-73.816859,40.702566,2289.383110523535
13:01:00,0,G08,Forest Hills-71 Av,-73.844521,40.721691,2762.38016809407
13:24:30,0,G09,67 Av,-73.852719,40.726523,2911.3701005377766
13:24:30,0,G10,63 Dr-Rego Park,-73.861604,40.729846,3022.5705378349307
13:24:30,0,G11,Woodhaven Blvd,-73.869229,40.733106,2946.48360239121
13:24:30,0,G12,Grand Av-Newtown,-73.877223,40.737015,2828.3804716361456
13:24:30,0,G13,Elmhurst Av,-73.882017,40.742454,2722.789311415151
13:24:30,0,G14,Jackson Hts-Roosevelt Av,-73.891338,40.746644,2519.9282750879815
13:24:30,0,G15,65 St,-73.898453,40.749669,2543.521885058341
13:24:30,0,G16,Northern Blvd,-73.906006,40.752885,2449.1919881511244
12:02:30,0,G18,46 St,-73.913333,40.756312,2359.1919881511244
12:02:30,0,G19,Steinway St,-73.92074,40.756879,2242.284771656279
12:02:30,0,G20,36 St,-73.928781,40.752039,2122.284771656279
13:24:30,0,G21,Queens Plaza,-73.937243,40.748973,1976.876608390973
12:02:30,1,G22,Court Sq,-73.943832,40.746554,1913.5092614521973
12:02:30,1,G24,21 St,-73.949724,40.744065,1897.269875900792
12:02:30,1,G26,Greenpoint Av,-73.954449,40.731352,1702.4541022704486
12:02:30,1,G28,Nassau Av,-73.951277,40.724635,1604.9897523603229
12:04:30,2,G29,Metropolitan Av,-73.951418,40.712792,1464.967662808084
12:26:00,2,G30,Broadway,-73.950308,40.706092,1582.0020433652862
12:26:00,2,G31,Flushing Av,-73.950234,40.700377,1672.0216047167978
12:26:00,2,G32,Myrtle-Willoughby Avs,-73.949046,40.694568,1749.0714563488455
12:02:30,0,G33,Bedford-Nostrand Avs,-73.953522,40.689627,1860.485187692129
12:02:30,0,G34,Classon Av,-73.96007,40.688873,1812.0869121045394
12:02:30,0,G35,Clinton-Washington Avs,-73.966839,40.688089,1724.3304666849015
12:02:30,0,G36,Fulton St,-73.975375,40.687119,1625.7613032075913
12:51:00,1,H01,Aqueduct Racetrack,-73.834058,40.668234,1887.4379720117938
13:45:00,1,H02,Aqueduct-N Conduit Av,-73.834058,40.668234,1924.995895079863
13:45:00,1,H03,Howard Beach-JFK Airport,-73.830301,40.660476,2065.1844830704367
13:45:00,1,H04,Broad Channel,-73.815925,40.608382,2530.5660397540237
13:45:00,1,H06,Beach 67 St,-73.796924,40.590927,2858.237911190131
13:45:00,1,H07,Beach 60 St,-73.788522,40.592374,2966.839834267054
13:45:00,1,H08,Beach 44 St,-73.776013,40.592943,3078.3369385141586
13:45:00,1,H09,Beach 36 St,-73.768175,40.595398,3178.518140064546
13:45:00,1,H10,Beach 25 St,-73.761353,40.600066,3288.8122004345555
13:45:00,1,H11,Far Rockaway-Mott Av,-73.755405,40.603995,3366.6105197622865
12:11:00,1,H12,Beach 90 St,-73.813641,40.588034,2800.6231826111666
12:11:00,1,H13,Beach 98 St,-73.820558,40.585307,2900.7269561960725
12:11:00,1,H14,Beach 105 St,-73.827559,40.583209,2990.403146672263
12:11:00,1,H15,Rockaway Park-Beach 116 St,-73.835592,40.580903,3093.9525972217134
12:01:00,0,J12,121 St,-73.828294,40.700492,1683.2289011571747
12:01:00,0,J13,111 St,-73.836345,40.697418,1844.294001828316
12:01:00,0,J14,104 St,-73.84433,40.695178,1503.2289011571747
12:01:00,0,J15,Woodhaven Blvd,-73.851576,40.693879,1413.2289011571747
12:01:00,0,J16,85 St-Forest Pkwy,-73.86001,40.692435,1409.389335925171
12:01:00,0,J17,75 St-Elderts Ln,-73.867139,40.691324,1233.2289011571747
12:01:00,0,J19,Cypress Hills,-73.87255,40.689941,1241.76797670187
12:01:00,0,J20,Crescent St,-73.873785,40.683194,1083.2289011571747
12:01:00,0,J21,Norwood Av,-73.880039,40.68141,993.2289011571748
12:01:00,0,J22,Cleveland St,-73.884639,40.679947,1041.1963067311349
12:01:00,0,J23,Van Siclen Av,-73.891688,40.678024,843.2289011571748
12:01:00,0,J24,Alabama Av,-73.898654,40.676992,783.2289011571748
12:01:00,0,J27,Broadway Junction,-73.904512,40.679498,677.0051286136897
12:01:00,0,J28,Chauncey St,-73.910456,40.682893,578.5084521462315
12:01:00,0,J29,Halsey St,-73.916559,40.68637,487.6503540778808
12:01:00,0,J30,Gates Av,-73.92227,40.68963,398.1611076239801
12:01:00,0,J31,Kosciuszko St,-73.928814,40.693342,300.36777429064676
13:03:00,1,L01,8 Av,-74.002578,40.739777,1308.089058687269
12:53:30,1,L02,6 Av,-73.996786,40.737335,1255.6835875999805
12:53:30,1,L03,14 St-Union Sq,-73.99073,40.734789,1334.9276689546316
12:53:30,1,L05,3 Av,-73.986122,40.732849,1395.5045848015668
12:53:30,1,L06,1 Av,-73.981628,40.730953,1445.172474097999
12:26:00,1,L08,Bedford Av,-73.956872,40.717304,1351.0294220047344
12:26:00,1,L10,Lorimer St,-73.950275,40.714063,1251.7533786264892
12:26:00,1,L11,Graham Av,-73.944053,40.714565,1209.6478709954342
12:26:00,1,L12,Grand St,-73.94067,40.711926,1124.5501192847792
12:26:00,1,L13,Montrose Av,-73.93985,40.707739,1078.071922142969
12:26:00,1,L14,Morgan Av,-73.933147,40.706152,1014.2653030644486
12:26:00,1,L15,Jefferson St,-73.922913,40.706607,923.6868901628915
12:26:00,1,L16,DeKalb Av,-73.918425,40.703811,859.0839141737132
13:25:30,1,L17,Myrtle-Wyckoff Avs,-73.911586,40.699814,782.3427673590855
13:25:30,1,L19,Halsey St,-73.904084,40.695602,830.626403722722
13:25:30,1,L20,Wilson Av,-73.904046,40.688764,950.9765582026396
13:25:30,1,L21,Bushwick Av-Aberdeen St,-73.905249,40.682829,975.5663730265206
12:11:00,1,L22,Broadway Junction,-73.90324,40.678856,894.6440169727596
12:21:00,1,L24,Atlantic Av,-73.903097,40.675345,973.1911656868855
12:21:00,1,L25,Sutter Av,-73.901975,40.669367,1056.3699505474433
12:21:00,1,L26,Livonia Av,-73.900571,40.664038,1132.6578796725817
12:21:00,1,L27,New Lots Av,-73.899232,40.658733,1215.7763276950566
12:21:00,1,L28,East 105 St,-73.899485,40.650573,1326.0027493316722
12:11:00,1,L29,Canarsie-Rockaway Pkwy,-73.90185,40.646654,1437.0192637476678
13:55:30,0,M01,Middle Village-Metropolitan Av,-73.889601,40.711396,956.9011749166033
12:04:30,0,M04,Fresh Pond Rd,-73.895877,40.706186,836.3193888865414
13:55:30,0,M05,Forest Av,-73.903077,40.704423,729.9235635730176
12:04:30,0,M06,Seneca Av,-73.90774,40.702762,635.0639267015092
12:04:30,0,M08,Myrtle-Wyckoff Avs,-73.912385,40.69943,557.3427673590855
12:04:30,0,M09,Knickerbocker Av,-73.919711,40.698664,434.16932171965584
12:04:30,0,M10,Central Av,-73.927397,40.697857,341.9256998770637
12:01:00,0,M11,Myrtle Av,-73.935657,40.697207,183.11744228533465
12:01:00,0,M12,Flushing Av,-73.941126,40.70026,91.23851851851852
13:31:00,0,M13,Lorimer St,-73.947408,40.703869,0.0
12:02:30,0,M14,Hewes St,-73.953431,40.70687,92.25588235294117
12:02:30,0,M16,Marcy Av,-73.957757,40.708359,165.11904803341454
12:02:30,0,M18,Delancey St-Essex St,-73.987437,40.718315,538.236469858558
13:11:00,0,M19,Bowery,-73.993915,40.72028,645.832561109256
13:11:00,0,M20,Canal St,-73.999892,40.718092,747.3389326719656
13:11:00,0,M21,Chambers St,-74.003401,40.713243,854.7886966638739
13:11:00,0,M22,Fulton St,-74.007582,40.710374,948.7541672122827
13:11:00,0,M23,Broad St,-74.011056,40.706476,1013.6611439564689
13:54:30,0,N02,8 Av,-74.011719,40.635064,2513.9129885743637
13:54:30,0,N03,Fort Hamilton Pkwy,-74.005351,40.631386,2661.3838194523837
13:54:30,0,N04,New Utrecht Av,-73.996353,40.624842,2801.3944076876774
13:54:30,0,N05,18 Av,-73.990414,40.620671,2896.3885184061696
13:54:30,0,N06,20 Av,-73.985026,40.61741,2978.379078878146
13:54:30,0,N07,Bay Pkwy,-73.981848,40.611815,3078.1644992191223
13:54:30,0,N08,Kings Hwy,-73.980353,40.603923,3191.7182279331564
13:54:30,0,N09,Avenue U,-73.979137,40.597473,3289.629390995693
13:54:30,0,N10,86 St,-73.97823,40.592721,3370.1482245315374
13:11:00,1,Q01,Canal St,-74.00046,40.718383,973.0600856928244
13:14:30,0,Q03,72 St,-73.958424,40.768799,2034.2495158613078
13:14:30,0,Q04,86 St,-73.951787,40.777891,2159.28895082305
13:14:30,0,Q05,96 St,-73.947152,40.784318,2252.28741472474
12:02:30,1,R01,Astoria-Ditmars Blvd,-73.912034,40.775036,2783.350058483515
12:02:30,1,R03,Astoria Blvd,-73.917843,40.770258,2687.054711854835
12:02:30,1,R04,30 Av,-73.921479,40.766779,2580.3577720720123
12:02:30,1,R05,Broadway,-73.925508,40.76182,2484.9768196910595
12:02:30,1,R06,36 Av,-73.929575,40.756804,2372.495594394617
12:02:30,1,R08,39 Av-Dutch Kills,-73.932755,40.752882,2254.9506842149767
12:02:30,1,R09,Queensboro Plaza,-73.940202,40.750582,2092.5059080955734
12:02:30,1,R11,Lexington Av/59 St,-73.967258,40.76266,1891.8628654854706
12:02:30,1,R13,5 Av/59 St,-73.973347,40.764811,1909.0459767746056
12:14:30,1,R14,57 St-7 Av,-73.980658,40.764664,1704.2921919600938
12:14:30,1,R15,49 St,-73.984139,40.759901,1651.4669122023695
12:14:30,1,R16,Times Sq-42 St,-73.986754,40.754672,1521.1583807295083
13:11:00,1,R17,34 St-Herald Sq,-73.98795,40.749567,1418.1786308784065
13:11:00,1,R18,28 St,-73.988691,40.745494,1529.3139110549387
12:02:30,2,R19,23 St,-73.989344,40.741303,1449.7808776962831
13:11:00,1,R20,14 St-Union Sq,-73.990568,40.735736,1247.0055402382789
13:11:00,1,R21,8 St-NYU,-73.992629,40.730328,1292.272831877617
13:11:00,1,R22,Prince St,-73.997702,40.724329,1195.7403225544083
13:11:00,1,R23,Canal St,-74.001775,40.719527,1093.0600856928243
13:11:00,1,R24,City Hall,-74.006978,40.713282,1240.9746030104366
13:11:00,1,R25,Cortlandt St,-74.011029,40.710668,1365.9804681130759
13:11:00,1,R26,Rector St,-74.013342,40.70722,1471.3724095050175
13:11:00,1,R27,Whitehall St-South Ferry,-74.012994,40.703087,1566.9870080451633
12:02:30,1,R28,Court St,-73.991777,40.6941,1335.5221841442724
12:02:30,1,R29,Jay St-MetroTech,-73.985942,40.69218,1248.5221841442724
13:51:00,1,R30,DeKalb Av,-73.981824,40.690635,1356.7221841442724
13:54:30,0,R31,Atlantic Av-Barclays Ctr,-73.97881,40.683666,1516.0221841442726
13:54:30,0,R32,Union St,-73.98311,40.677316,1651.3221841442726
13:54:30,0,R33,4 Av-9 St,-73.988302,40.670847,1769.3721841442725
13:54:30,0,R34,Prospect Av,-73.992872,40.665414,1863.4221841442725
13:54:30,0,R35,25 St,-73.998091,40.660397,1929.527447302167
13:54:30,0,R36,36 St,-74.003549,40.655144,2021.9476455614267
13:54:30,0,R39,45 St,-74.010006,40.648939,2217.8299985026033
13:54:30,0,R40,53 St,-74.014034,40.645069,2336.168399573319
13:54:30,0,R41,59 St,-74.017881,40.641362,2340.3896019550625
13:54:30,0,R42,Bay Ridge Av,-74.023377,40.634967,2504.8638507412707
13:54:30,0,R43,77 St,-74.02551,40.629742,2587.4725178456697
13:54:30,0,R44,86 St,-74.028398,40.622687,2771.9244529268185
13:54:30,0,R45,Bay Ridge-95 St,-74.030876,40.616622,2840.506192057253
12:24:30,0,S01,Franklin Av,-73.955827,40.680596,1549.8143992972919
12:02:30,1,S03,Park Pl,-73.957624,40.674772,1666.1546770750697
12:24:30,0,S04,Botanic Garden,-73.959245,40.670343,1790.7304785566714
