start_time,ntransfers,stop_id,stop_name,stop_lon,stop_lat,duration
13:42:00,1,101,Van Cortlandt Park-242 St,-73.898583,40.889248,3499.902595536756
13:42:00,1,103,238 St,-73.90087,40.884667,3393.1518473537717
13:42:00,1,104,231 St,-73.904834,40.878856,3298.316740970793
13:42:00,1,106,Marble Hill-225 St,-73.909831,40.874561,3204.844874459346
13:42:00,1,107,215 St,-73.915279,40.869444,3096.7203110134787
13:42:00,1,108,207 St,-73.918822,40.864621,3017.735515691841
13:42:00,1,109,Dyckman St,-73.925536,40.860531,2919.6988886343497
13:42:00,1,110,191 St,-73.929412,40.855225,2829.479841015302
13:42:00,1,111,181 St,-73.933596,40.849505,2734.2352522707138
13:42:00,1,112,168 St-Washington Hts,-73.940133,40.840556,2613.3849268911044
13:42:00,1,113,157 St,-73.94489,40.834041,2552.519520339019
13:42:00,1,114,145 St,-73.95036,40.826551,2436.854873000205
13:42:00,1,115,137 St-City College,-73.953676,40.822008,2335.8120899405676
13:42:00,1,116,125 St,-73.958372,40.815581,2237.0509580221324
13:42:00,1,117,116 St-Columbia University,-73.96411,40.807722,2118.8948886579706
13:42:00,1,118,Cathedral Pkwy (110 St),-73.966847,40.803967,2040.8640751822106
13:42:00,1,119,103 St,-73.968379,40.799446,1961.5458933640289
12:02:00,1,120,96 St,-73.972323,40.793919,1674.3158072958352
12:33:00,1,121,86 St,-73.976218,40.788644,1747.4062914904925
12:33:00,1,122,79 St,-73.979917,40.783934,1665.5740034183505
12:02:00,1,123,72 St,-73.98197,40.778453,1484.6399240393068
12:02:00,1,124,66 St-Lincoln Center,-73.982209,40.77344,1642.9507844839752
12:02:00,1,125,59 St-Columbus Circle,-73.981929,40.768247,1561.8528141483
12:02:00,1,126,50 St,-73.983849,40.761728,1453.2253631679077
12:02:00,1,127,Times Sq-42 St,-73.987495,40.75529,1221.028268546785
12:02:00,1,128,34 St-Penn Station,-73.991057,40.750373,1107.1917548799463
13:42:00,1,129,28 St,-73.993365,40.747215,1228.785163224045
13:42:00,1,130,23 St,-73.995657,40.744081,1160.0968098103904
13:42:00,1,131,18 St,-73.997871,40.74104,1093.1779017413419
12:02:00,1,132,14 St,-74.000201,40.737826,928.2154662201526
12:33:00,1,133,Christopher St-Sheridan Sq,-74.002906,40.733422,944.3143976785244
12:33:00,1,134,Houston St,-74.005367,40.728251,864.3148041825895
12:33:00,1,135,Canal St,-74.006277,40.722854,774.5571915151107
12:33:00,1,136,Franklin St,-74.006886,40.719318,709.4019422244743
12:02:00,1,137,Chambers St,-74.009266,40.715478,630.3627370749414
12:02:00,1,138,WTC Cortlandt,-74.012188,40.711835,568.1228715392709
12:02:00,1,139,Rector St,-74.013783,40.707513,488.8243046602901
12:02:00,1,142,South Ferry,-74.013664,40.702068,384.103883266449
12:04:00,1,201,Wakefield-241 St,-73.85062,40.903125,4424.909545281665
12:04:00,1,204,Nereid Av,-73.854376,40.898379,4196.645496943296
12:04:00,1,205,233 St,-73.857473,40.893193,4064.645496943296
12:04:00,1,206,225 St,-73.860341,40.888022,3968.645496943296
12:04:00,1,207,219 St,-73.862633,40.883895,3886.6454969432966
12:04:00,1,208,Gun Hill Rd,-73.866256,40.87785,3778.1454969432966
12:04:00,1,209,Burke Av,-73.867164,40.871356,3855.645496943297
12:04:00,1,210,Allerton Av,-73.867352,40.865462,3810.0543296377236
12:04:00,1,211,Pelham Pkwy,-73.867615,40.857192,3698.146283660712
12:04:00,1,212,Bronx Park East,-73.868457,40.848828,3570.996283660712
12:04:00,1,213,E 180 St,-73.873488,40.841894,3366.352393495021
12:04:00,1,214,West Farms Sq-E Tremont Av,-73.880049,40.840295,3234.6581978997683
12:04:00,1,215,174 St,-73.887734,40.837288,3108.618833781676
12:04:00,1,216,Freeman St,-73.891865,40.829993,2986.1109449762666
12:04:00,1,217,Simpson St,-73.893064,40.824073,2872.8982584091027
12:04:00,1,218,Intervale Av,-73.896736,40.822181,2798.2338238852926
12:04:00,1,219,Prospect Av,-73.90177,40.819585,2714.6684449848467
12:04:00,1,220,Jackson Av,-73.907807,40.81649,2614.9419113558743
12:04:00,1,221,3 Av-149 St,-73.917757,40.816109,2475.970503731241
12:04:00,1,222,149 St-Grand Concourse,-73.926718,40.81841,2344.3110549123435
12:02:00,1,224,135 St,-73.94077,40.814229,2215.4909743535827
12:02:00,1,225,125 St,-73.945495,40.807754,2108.4747141909806
12:02:00,1,226,116 St,-73.949625,40.802098,2005.976767579071
12:02:00,1,227,Central Park North (110 St),-73.951822,40.799075,1931.2185708577595
12:04:00,2,228,Park Place,-74.008811,40.713051,530.5338527491372
12:13:00,1,229,Fulton St,-74.006571,40.709416,600.6173976717178
12:04:00,2,230,Wall St,-74.0091,40.706821,517.1947932491133
13:44:00,1,231,Clark St,-73.993086,40.697466,310.138689673281
12:34:00,1,232,Borough Hall,-73.989998,40.693219,220.5343508720398
12:34:00,1,233,Hoyt St,-73.985065,40.690545,313.0270575170965
12:34:00,1,234,Nevins St,-73.980492,40.688246,360.0
12:34:00,1,235,Atlantic Av-Barclays Ctr,-73.977666,40.684359,450.0
12:34:00,1,236,Bergen St,-73.975098,40.680829,566.0065192278681
12:34:00,1,237,Grand Army Plaza,-73.971046,40.675235,669.2886495079824
12:34:00,1,238,Eastern Pkwy-Brooklyn Museum,-73.964375,40.671987,772.4325889019219
12:34:00,1,239,Franklin Av-Medgar Evers College,-73.958131,40.670682,758.6222188936471
12:34:00,1,241,President St-Medgar Evers College,-73.950683,40.667883,941.2389220808763
12:34:00,1,242,Sterling St,-73.95085,40.662742,1033.2313929912116
12:34:00,1,243,Winthrop St,-73.9502,40.656652,1122.2850614694723
12:34:00,1,244,Church Av,-73.949575,40.650843,1201.1234372656506
12:34:00,1,245,Beverly Rd,-73.948959,40.645098,1280.352702269022
12:34:00,1,246,Newkirk Av-Little Haiti,-73.948411,40.639967,1367.5412157825356
12:34:00,1,247,Flatbush Av-Brooklyn College,-73.947642,40.632836,1518.1607732414934
12:34:00,1,248,Nostrand Av,-73.950466,40.669847,887.2672174569977
12:34:00,1,249,Kingston Av,-73.942161,40.669399,975.7889565874326
12:34:00,1,250,Crown Hts-Utica Av,-73.932942,40.668897,1002.524134453045
12:34:00,1,251,Sutter Av-Rutland Rd,-73.92261,40.664717,1145.649134453045
12:34:00,1,252,Saratoga Av,-73.916327,40.661453,1260.5033011197118
12:34:00,1,253,Rockaway Av,-73.908946,40.662549,1349.1074677863785
12:34:00,1,254,Junius St,-73.902447,40.663515,1436.6491344530452
12:34:00,1,255,Pennsylvania Av,-73.894895,40.664635,1542.6908011197118
12:34:00,1,256,Van Siclen Av,-73.889395,40.665449,1621.980714587677
12:34:00,1,257,New Lots Av,-73.884079,40.666235,1693.2812773101882
13:02:00,1,301,Harlem-148 St,-73.93647,40.82388,2497.3847984371714
13:02:00,1,302,145 St,-73.936245,40.820421,2380.824776709849
12:23:00,1,401,Woodlawn,-73.878751,40.886037,3693.526913470922
12:23:00,1,402,Mosholu Pkwy,-73.884655,40.87975,3541.481867685986
12:23:00,1,405,Bedford Park Blvd-Lehman College,-73.890064,40.873412,3426.0930117286653
12:23:00,1,406,Kingsbridge Rd,-73.897174,40.86776,3309.7203754661514
12:23:00,1,407,Fordham Rd,-73.901034,40.862803,3212.7981532439294
12:23:00,1,408,183 St,-73.903879,40.858407,3128.201361208531
12:23:00,1,409,Burnside Av,-73.907684,40.853453,3026.923867602393
12:23:00,1,410,176 St,-73.911794,40.84848,2956.2596587264543
12:23:00,1,411,Mt Eden Av,-73.914685,40.844434,2876.9127199509435
12:23:00,1,412,170 St,-73.917791,40.840075,2796.7063358012465
12:23:00,1,413,167 St,-73.9214,40.835537,2707.5777882219477
12:23:00,1,414,161 St-Yankee Stadium,-73.925831,40.827994,2529.0224005079494
12:23:00,1,415,149 St-Grand Concourse,-73.927351,40.818375,2351.1082175685865
12:04:00,1,416,138 St-Grand Concourse,-73.929849,40.813224,2160.4746433028445
12:54:00,1,418,Fulton St,-74.009509,40.710368,662.8937658181857
12:04:00,2,419,Wall St,-74.011862,40.707557,583.0796065261502
12:54:00,1,420,Bowling Green,-74.014065,40.704817,495.5221948212084
12:04:00,1,423,Borough Hall,-73.990151,40.692404,239.2647063732147
13:54:00,1,501,Eastchester-Dyre Av,-73.830834,40.8883,4090.6540867378767
12:04:00,1,502,Baychester Av,-73.838591,40.878663,3946.4214754278682
12:04:00,1,503,Gun Hill Rd,-73.846384,40.869526,3830.9681199581655
12:04:00,1,504,Pelham Pkwy,-73.855359,40.858985,3693.9747242509557
12:04:00,1,505,Morris Park,-73.860495,40.854364,3600.8702506378777
13:42:00,1,601,Pelham Bay Park,-73.828121,40.852462,3773.376916722434
13:42:00,1,602,Buhre Av,-73.832569,40.84681,3596.113758827697
13:42:00,1,603,Middletown Rd,-73.836322,40.843863,3525.8206553794207
13:42:00,1,604,Westchester Sq-E Tremont Av,-73.842952,40.839892,3393.6441847911856
13:42:00,1,606,Zerega Av,-73.847036,40.836488,3306.5941847911854
13:42:00,1,607,Castle Hill Av,-73.851222,40.834255,3237.3482831518413
12:23:00,1,608,Parkchester,-73.860816,40.833226,3051.934490048393
12:23:00,1,609,St Lawrence Av,-73.867618,40.831509,3295.7948227111915
12:23:00,1,610,Morrison Av-Soundview,-73.874516,40.829521,3194.643778730738
12:23:00,1,611,Elder Av,-73.879159,40.828584,3121.9183742707464
12:23:00,1,612,Whitlock Av,-73.886283,40.826525,3009.2136123659848
12:23:00,1,613,Hunts Point Av,-73.890549,40.820948,2779.5344900483933
12:04:00,1,614,Longwood Av,-73.896435,40.816104,2898.625785441899
12:04:00,1,615,E 149 St,-73.904098,40.812118,2795.855003346474
12:04:00,1,616,E 143 St-St Mary's St,-73.907657,40.808719,2719.180907259302
12:04:00,1,617,Cypress Av,-73.914042,40.805368,2607.7659570524484
12:04:00,1,618,Brook Av,-73.91924,40.807566,2532.1470079419805
12:04:00,1,619,3 Av-138 St,-73.926138,40.810476,2411.8890999774712
12:04:00,1,621,125 St,-73.937594,40.804138,1977.4910690584293
12:04:00,1,622,116 St,-73.941617,40.798629,2305.3060617969422
12:04:00,1,623,110 St,-73.94425,40.79502,2224.7557262264722
12:04:00,1,624,103 St,-73.947478,40.7906,2145.7159911271347
12:04:00,1,625,96 St,-73.95107,40.785672,2055.946254285029
12:04:00,1,626,86 St,-73.955589,40.779492,1669.1705228945802
12:04:00,1,627,77 St,-73.959874,40.77362,1886.4845753398827
12:04:00,1,628,68 St-Hunter College,-73.96387,40.768141,1792.733896940111
12:04:00,1,629,59 St,-73.967967,40.762526,1469.1158253398826
12:04:00,1,630,51 St,-73.97192,40.757107,1585.3297425952965
12:04:00,1,631,Grand Central-42 St,-73.976848,40.751776,1302.2689323225861
12:04:00,1,632,33 St,-73.982076,40.746081,1442.1247774101548
12:13:00,1,633,28 St,-73.984264,40.74307,1374.4223964577739
12:13:00,1,634,23 St,-73.986599,40.739864,1308.1206213098446
12:04:00,2,635,14 St-Union Sq,-73.989951,40.734673,1054.1118441999809
12:13:00,1,636,Astor Pl,-73.99107,40.730054,1093.811003740642
12:13:00,1,637,Bleecker St,-73.994659,40.725915,997.971776497682
12:13:00,1,638,Spring St,-73.997141,40.722301,1008.3536553554982
12:04:00,2,639,Canal St,-74.000193,40.718803,934.2706942833859
12:04:00,2,640,Brooklyn Bridge-City Hall,-74.004131,40.713065,781.5562184098418
12:04:00,1,701,Flushing-Main St,-73.83003,40.7596,3102.717458862806
12:04:00,1,702,Mets-Willets Point,-73.845625,40.754622,2937.694805141123
12:04:00,1,705,111 St,-73.855334,40.75173,3001.9152406036287
12:04:00,1,706,103 St-Corona Plaza,-73.8627,40.749865,2923.007870759139
12:04:00,1,707,Junction Blvd,-73.869527,40.749145,2718.833757305132
12:04:00,1,708,90 St-Elmhurst Av,-73.876613,40.748408,2795.443751009832
12:04:00,1,709,82 St-Jackson Hts,-73.883697,40.747659,2704.8143740931223
12:04:00,1,710,74 St-Broadway,-73.891394,40.746848,2546.9387080469924
12:04:00,1,711,69 St,-73.896403,40.746325,2478.0022215605054
12:04:00,1,712,61 St-Woodside,-73.902984,40.74563,2396.082699034514
12:04:00,1,713,52 St,-73.912549,40.744149,2275.4947512550257
12:04:00,1,714,46 St-Bliss St,-73.918435,40.743132,2219.2052775708153
12:04:00,1,715,40 St-Lowery St,-73.924016,40.743781,2160.8995944479684
12:04:00,1,716,33 St-Rawson St,-73.930997,40.744587,2076.5075826136485
12:04:00,1,718,Queensboro Plaza,-73.940202,40.750582,1932.2259499605875
12:04:00,1,719,Court Sq,-73.945264,40.747023,1825.9884898272155
12:04:00,1,720,Hunters Point Av,-73.948916,40.742216,1726.5138224057605
12:04:00,1,721,Vernon Blvd-Jackson Av,-73.953581,40.742626,1683.5363304443458
12:04:00,1,723,Grand Central-42 St,-73.976041,40.751431,1469.6026222466542
12:04:00,1,724,5 Av,-73.981963,40.753821,1414.7786861879476
12:04:00,2,725,Times Sq-42 St,-73.987691,40.755477,1341.028268546785
12:04:00,1,726,34 St-Hudson Yards,-74.00191,40.755882,1485.630458327807
12:04:00,1,901,Grand Central-42 St,-73.979189,40.752769,1376.6843881573552
12:04:00,1,902,Times Sq-42 St,-73.986229,40.755983,1281.028268546785
13:24:00,0,A02,Inwood-207 St,-73.919899,40.868072,2958.278527460013
12:04:00,1,A03,Dyckman St,-73.927271,40.865491,2858.53970064437
12:04:00,1,A05,190 St,-73.93418,40.859022,2728.1596896613937
12:04:00,1,A06,181 St,-73.937969,40.851695,2615.27477776712
12:04:00,1,A07,175 St,-73.939704,40.847391,2522.489772254441
12:04:00,1,A09,168 St,-73.939561,40.840719,2387.89579567887
12:04:00,1,A10,163 St-Amsterdam Av,-73.939892,40.836013,2421.5082708353084
13:34:00,0,A11,155 St,-73.941514,40.830518,2336.638443897761
12:04:00,1,A12,145 St,-73.944216,40.824783,2142.08429761364
12:04:00,1,A14,135 St,-73.947649,40.817894,2053.215244569416
12:04:00,1,A15,125 St,-73.952343,40.811109,1927.8196890138606
12:04:00,1,A16,116 St,-73.954882,40.805085,2065.7581096387185
12:04:00,0,A17,Cathedral Pkwy (110 St),-73.958161,40.800603,2080.1444086693537
12:04:00,0,A18,103 St,-73.961454,40.796092,2000.8140515264963
12:04:00,0,A19,96 St,-73.964696,40.791642,1913.5465743228488
12:04:00,0,A20,86 St,-73.968916,40.785868,1802.3453548106536
12:04:00,0,A21,81 St-Museum of Natural History,-73.972143,40.781433,1713.898752868906
12:04:00,0,A22,72 St,-73.97641,40.775594,1613.9410489414136
12:04:00,1,A24,59 St-Columbus Circle,-73.981736,40.768296,1426.8092551862933
12:24:00,1,A25,50 St,-73.985984,40.762456,1374.743812088961
12:04:00,1,A27,42 St-Port Authority Bus Terminal,-73.989735,40.757308,1256.2345184086637
12:04:00,1,A28,34 St-Penn Station,-73.993391,40.752287,1136.6212505953958
12:04:00,1,A30,23 St,-73.998041,40.745906,1028.3827075037407
12:04:00,1,A31,14 St,-74.00169,40.740893,930.3982113797097
12:04:00,1,A32,W 4 St-Wash Sq,-74.000495,40.732338,809.8038671573792
12:44:00,1,A33,Spring St,-74.003739,40.726227,727.1665973267584
12:04:00,1,A34,Canal St,-74.005229,40.720824,613.2453259331154
12:04:00,1,A36,Chambers St,-74.008585,40.714111,632.9790946432363
12:04:00,1,A38,Fulton St,-74.007691,40.710197,532.4501431565383
12:04:00,1,A40,High St,-73.990531,40.699337,348.6287703016241
12:54:00,1,A41,Jay St-MetroTech,-73.987342,40.692338,222.0
13:34:00,1,A42,Hoyt-Schermerhorn Sts,-73.985001,40.688484,334.4231414197876
12:04:00,1,A43,Lafayette Av,-73.973946,40.686113,480.5506414050959
12:04:00,1,A44,Clinton-Washington Avs,-73.965838,40.683263,565.5506414050958
12:04:00,1,A45,Franklin Av,-73.956848,40.68138,671.26961658524
13:34:00,1,A46,Nostrand Av,-73.950426,40.680438,618.4562874872033
12:04:00,1,A47,Kingston-Throop Avs,-73.940858,40.679921,723.4356992519092
13:34:00,1,A48,Utica Av,-73.930729,40.679364,793.9119693053851
12:54:00,1,A49,Ralph Av,-73.920786,40.678822,903.5870481697385
12:54:00,1,A50,Rockaway Av,-73.911946,40.67834,1005.3053144236085
13:34:00,1,A51,Broadway Junction,-73.905316,40.678334,1028.6073748640918
12:04:00,1,A52,Liberty Av,-73.896548,40.674542,1151.5558597125766
12:04:00,1,A53,Van Siclen Av,-73.890358,40.67271,1238.1594633161803
12:04:00,1,A54,Shepherd Av,-73.88075,40.67413,1346.818217025379
13:34:00,1,A55,Euclid Av,-73.872106,40.675377,1383.580256220024
13:34:00,1,A57,Grant Av,-73.86505,40.677044,1488.3540715595454
13:34:00,1,A59,80 St,-73.858992,40.679371,1602.5167962520713
13:34:00,1,A60,88 St,-73.85147,40.679843,1695.2892855428854
13:34:00,1,A61,Rockaway Blvd,-73.843853,40.680429,1806.2941258139404
12:44:00,1,A63,104 St,-73.837683,40.681711,1899.1104523445526
13:04:00,1,A64,111 St,-73.832163,40.684331,2011.1466558670575
13:04:00,1,A65,Ozone Park-Lefferts Blvd,-73.825798,40.685951,2081.2560033097384
12:13:00,0,B04,21 St-Queensbridge,-73.942836,40.754203,1992.0000000000002
12:13:00,0,B06,Roosevelt Island,-73.95326,40.759145,1855.0757148259424
12:13:00,0,B08,Lexington Av/63 St,-73.966113,40.764629,1722.0
12:04:00,1,B10,57 St,-73.97745,40.763972,1572.0
12:04:00,0,B12,9 Av,-73.994324,40.646292,1278.2218164336891
12:04:00,0,B13,Fort Hamilton Pkwy,-73.994304,40.640914,1380.0367100507103
12:04:00,0,B14,50 St,-73.994791,40.63626,1460.7966532325286
12:04:00,0,B15,55 St,-73.995476,40.631435,1563.8251027346623
12:04:00,0,B16,62 St,-73.996895,40.626472,1628.7734848610105
12:04:00,0,B17,71 St,-73.998864,40.619589,1731.6707744473158
12:04:00,0,B18,79 St,-74.00061,40.613501,1836.1215590407537
12:04:00,0,B19,18 Av,-74.001736,40.607954,1920.6051304693253
12:04:00,0,B20,20 Av,-73.998168,40.604556,2005.816710169111
12:04:00,0,B21,Bay Pkwy,-73.993728,40.601875,2086.9746426888523
13:54:00,0,B22,25 Av,-73.986829,40.597704,2213.78079433406
13:54:00,0,B23,Bay 50 St,-73.983765,40.588841,2463.666016715695
12:04:00,1,D01,Norwood-205 St,-73.878855,40.874811,3442.025264669921
12:04:00,1,D03,Bedford Park Blvd,-73.887138,40.873244,3273.3255103477804
12:04:00,1,D04,Kingsbridge Rd,-73.893509,40.866978,3154.785125732396
12:04:00,1,D05,Fordham Rd,-73.897749,40.861296,3054.6522398263555
12:04:00,1,D06,182-183 Sts,-73.900741,40.856093,2969.479452546139
12:04:00,1,D07,Tremont Av,-73.905227,40.85041,2885.8790790634125
12:04:00,1,D08,174-175 Sts,-73.910136,40.8459,2858.9608052071644
12:04:00,1,D09,170 St,-73.9134,40.839306,2753.416995683355
12:04:00,1,D10,167 St,-73.91844,40.833771,2646.178783482686
12:04:00,1,D11,161 St-Yankee Stadium,-73.925651,40.827905,2497.4000719980922
12:04:00,1,D12,155 St,-73.938209,40.830135,2363.924695801102
12:04:00,1,D13,145 St,-73.944216,40.824783,2216.0128790043145
12:04:00,1,D14,7 Av,-73.981637,40.762862,1499.0759690694777
12:04:00,1,D15,47-50 Sts-Rockefeller Ctr,-73.981329,40.758663,1448.7150119123728
12:04:00,1,D16,42 St-Bryant Pk,-73.984569,40.754222,1348.206071059553
12:04:00,1,D17,34 St-Herald Sq,-73.987823,40.749719,1259.4854624841728
12:04:00,1,D18,23 St,-73.992821,40.742878,1151.9775559955065
12:04:00,1,D19,14 St,-73.996209,40.738228,1050.3136816499566
12:04:00,1,D20,W 4 St-Wash Sq,-74.000495,40.732338,951.787833085988
12:04:00,1,D21,Broadway-Lafayette St,-73.996204,40.725297,785.7432041290601
12:04:00,0,D22,Grand St,-73.993753,40.718267,883.1917012448133
12:34:00,0,D24,Atlantic Av-Barclays Ctr,-73.97689,40.68446,626.6319339561463
12:34:00,0,D25,7 Av,-73.972367,40.67705,770.4033625275749
12:34:00,0,D26,Prospect Park,-73.962246,40.661614,989.9351544521191
12:34:00,0,D27,Parkside Av,-73.961495,40.655292,1085.8067374146112
12:34:00,0,D28,Church Av,-73.962982,40.650527,1149.526351671178
12:34:00,0,D29,Beverley Rd,-73.964492,40.644031,1256.622769874872
12:34:00,0,D30,Cortelyou Rd,-73.963891,40.640927,1334.7597998302576
12:34:00,0,D31,Newkirk Plaza,-73.962793,40.635082,1328.270351671178
12:34:00,0,D32,Avenue H,-73.961639,40.62927,1441.5951307150917
12:34:00,0,D33,Avenue J,-73.960803,40.625039,1538.4796720877664
12:34:00,0,D34,Avenue M,-73.959399,40.617618,1649.2860212941157
12:04:00,0,D35,Kings Hwy,-73.957734,40.60867,1593.6657239045785
12:34:00,0,D37,Avenue U,-73.955929,40.5993,1813.0139670194444
12:34:00,0,D38,Neck Rd,-73.955161,40.595246,1917.1117243512444
12:04:00,0,D39,Sheepshead Bay,-73.954155,40.586896,1862.826129995949
12:34:00,0,D40,Brighton Beach,-73.961376,40.577621,2024.1330300989355
12:34:00,0,D41,Ocean Pkwy,-73.968501,40.576312,2186.6130351161837
12:34:00,0,D42,W 8 St-NY Aquarium,-73.975939,40.576127,2091.8025551684086
12:34:00,0,D43,Coney Island-Stillwell Av,-73.981233,40.577422,2207.6775551684086
12:02:00,1,E01,World Trade Center,-74.009781,40.712582,470.5338527491371
12:24:00,0,F01,Jamaica-179 St,-73.783817,40.712646,3552.0
12:24:00,0,F02,169 St,-73.793604,40.71047,3462.0
12:24:00,0,F03,Parsons Blvd,-73.803326,40.707564,3342.0
12:24:00,0,F04,Sutphin Blvd,-73.810708,40.70546,3252.0
12:24:00,0,F05,Briarwood,-73.820574,40.709179,3049.1662432608323
12:04:00,0,F06,Kew Gardens-Union Tpke,-73.831008,40.714441,3012.0
12:24:00,0,F07,75 Av,-73.837324,40.718331,2922.0
12:04:00,1,F09,Court Sq-23 St,-73.946,40.747846,1858.7898050815502
12:04:00,1,F11,Lexington Av/53 St,-73.969055,40.757552,1699.3976233684216
12:04:00,1,F12,5 Av/53 St,-73.975224,40.760167,1605.8885584829254
12:04:00,1,F14,2 Av,-73.989938,40.723402,680.3260612719173
12:24:00,1,F15,Delancey St-Essex St,-73.988114,40.718611,568.3924513134111
12:24:00,1,F16,East Broadway,-73.990173,40.713715,477.26190476190476
12:24:00,1,F18,York St,-73.986751,40.701397,312.0
12:14:00,1,F20,Bergen St,-73.990862,40.686145,362.8493360572012
12:14:00,1,F21,Carroll St,-73.995048,40.680303,477.91884598895416
12:14:00,1,F22,Smith-9 Sts,-73.995959,40.67358,628.6782373346507
12:14:00,1,F23,4 Av-9 St,-73.989779,40.670272,712.0449040013174
12:14:00,1,F24,7 Av,-73.980305,40.666271,642.0
12:14:00,1,F25,15 St-Prospect Park,-73.979493,40.660365,804.3695098990459
12:14:00,1,F26,Fort Hamilton Pkwy,-73.975776,40.650782,977.1420217473872
12:14:00,1,F27,Church Av,-73.979678,40.644041,882.0
12:14:00,1,F29,Ditmas Av,-73.978172,40.636119,1002.0
12:14:00,1,F30,18 Av,-73.976971,40.629755,1122.0
12:14:00,1,F31,Avenue I,-73.976127,40.625322,1182.0
12:14:00,1,F32,Bay Pkwy,-73.975264,40.620769,1242.0
12:14:00,1,F33,Avenue N,-73.974197,40.61514,1362.0
12:14:00,1,F34,Avenue P,-73.973022,40.608944,1452.0
12:14:00,1,F35,Kings Hwy,-73.972361,40.603217,1653.1144018583043
12:14:00,1,F36,Avenue U,-73.973357,40.596063,1761.0905923344947
12:14:00,1,F38,Avenue X,-73.97425,40.58962,1863.0667828106853
12:24:00,0,F39,Neptune Av,-73.974574,40.581011,1983.9001161440185
12:04:00,2,G05,Jamaica Center-Parsons/Archer,-73.801109,40.702147,2605.346504884233
13:54:00,2,G06,Sutphin Blvd-Archer Av-JFK Airport,-73.807969,40.700486,2545.346504884233
12:04:00,0,G07,Jamaica-Van Wyck,-73.816859,40.702566,2911.5007142505933
12:04:00,0,G08,Forest Hills-71 Av,-73.844521,40.721691,2802.0
12:04:00,0,G09,67 Av,-73.852719,40.726523,2937.550627615063
12:04:00,0,G10,63 Dr-Rego Park,-73.861604,40.729846,2943.889607275175
12:04:00,0,G11,Woodhaven Blvd,-73.869229,40.733106,2831.7641460205627
12:04:00,0,G12,Grand Av-Newtown,-73.877223,40.737015,2713.6610152654985
12:04:00,0,G13,Elmhurst Av,-73.882017,40.742454,2608.069855044504
12:04:00,0,G14,Jackson Hts-Roosevelt Av,-73.891338,40.746644,2382.0
12:04:00,0,G15,65 St,-73.898453,40.749669,2548.802428687694
12:04:00,0,G16,Northern Blvd,-73.906006,40.752885,2454.4725317804773
12:04:00,0,G18,46 St,-73.913333,40.756312,2364.4725317804773
12:04:00,0,G19,Steinway St,-73.92074,40.756879,2247.565315285632
12:04:00,0,G20,36 St,-73.928781,40.752039,2127.565315285632
12:04:00,1,G21,Queens Plaza,-73.937243,40.748973,1982.1571520203256
12:14:00,1,G22,Court Sq,-73.943832,40.746554,1798.7898050815502
12:14:00,1,G24,21 St,-73.949724,40.744065,1704.0550224728545
12:14:00,1,G26,Greenpoint Av,-73.954449,40.731352,1563.4602431067885
12:14:00,1,G28,Nassau Av,-73.951277,40.724635,1452.5104882048279
12:14:00,1,G29,Metropolitan Av,-73.951418,40.712792,1300.3928773673895
12:14:00,1,G30,Broadway,-73.950308,40.706092,1211.4359542904663
12:14:00,1,G31,Flushing Av,-73.950234,40.700377,1120.0355852867763
12:14:00,1,G32,Myrtle-Willoughby Avs,-73.949046,40.694568,1033.9583320678921
12:14:00,1,G33,Bedford-Nostrand Avs,-73.953522,40.689627,928.6704063712975
12:14:00,1,G34,Classon Av,-73.96007,40.688873,845.0598294482206
12:14:00,1,G35,Clinton-Washington Avs,-73.966839,40.688089,763.5474660209635
12:14:00,1,G36,Fulton St,-73.975375,40.687119,672.7416240965649
12:54:00,1,H01,Aqueduct Racetrack,-73.834058,40.668234,2041.7990940233294
13:34:00,1,H02,Aqueduct-N Conduit Av,-73.834058,40.668234,1989.8590113101236
13:34:00,1,H03,Howard Beach-JFK Airport,-73.830301,40.660476,2141.050215899034
13:34:00,1,H04,Broad Channel,-73.815925,40.608382,2626.642773150942
13:34:00,1,H06,Beach 67 St,-73.796924,40.590927,2923.101027420392
13:34:00,1,H07,Beach 60 St,-73.788522,40.592374,3031.7029504973148
13:34:00,1,H08,Beach 44 St,-73.776013,40.592943,3143.200054744419
13:34:00,1,H09,Beach 36 St,-73.768175,40.595398,3243.381256294807
13:34:00,1,H10,Beach 25 St,-73.761353,40.600066,3353.6753166648164
13:34:00,1,H11,Far Rockaway-Mott Av,-73.755405,40.603995,3431.4736359925473
12:14:00,1,H12,Beach 90 St,-73.813641,40.588034,2954.9843046227024
12:14:00,1,H13,Beach 98 St,-73.820558,40.585307,3055.0880782076083
12:14:00,1,H14,Beach 105 St,-73.827559,40.583209,3144.764268683799
12:14:00,1,H15,Rockaway Park-Beach 116 St,-73.835592,40.580903,3248.3137192332497
13:54:00,2,J12,121 St,-73.828294,40.700492,2305.346504884233
13:54:00,2,J13,111 St,-73.836345,40.697418,2466.411605555374
13:54:00,2,J14,104 St,-73.84433,40.695178,2125.346504884233
13:54:00,2,J15,Woodhaven Blvd,-73.851576,40.693879,2035.3465048842331
13:54:00,2,J16,85 St-Forest Pkwy,-73.86001,40.692435,2047.7307121957151
13:54:00,2,J17,75 St-Elderts Ln,-73.867139,40.691324,1855.3465048842334
13:54:00,2,J19,Cypress Hills,-73.87255,40.689941,1880.109352972414
13:54:00,2,J20,Crescent St,-73.873785,40.683194,1705.3465048842334
13:54:00,2,J21,Norwood Av,-73.880039,40.68141,1615.3465048842334
13:54:00,2,J22,Cleveland St,-73.884639,40.679947,1613.3244106605166
13:54:00,2,J23,Van Siclen Av,-73.891688,40.678024,1465.3465048842334
13:54:00,2,J24,Alabama Av,-73.898654,40.676992,1405.3465048842334
12:24:00,2,J27,Broadway Junction,-73.904512,40.679498,1315.3465048842334
12:34:00,2,J28,Chauncey St,-73.910456,40.682893,1375.3465048842334
12:34:00,2,J29,Halsey St,-73.916559,40.68637,1504.7012794200425
12:34:00,2,J30,Gates Av,-73.92227,40.68963,1525.3465048842334
12:04:00,2,J31,Kosciuszko St,-73.928814,40.693342,1605.037517922232
12:02:00,1,L01,8 Av,-74.002578,40.739777,990.3982113797097
12:02:00,1,L02,6 Av,-73.996786,40.737335,1089.5309576288942
12:02:00,1,L03,14 St-Union Sq,-73.99073,40.734789,1181.002937250437
12:04:00,1,L05,3 Av,-73.986122,40.732849,1230.8754796233184
12:04:00,1,L06,1 Av,-73.981628,40.730953,1280.5433689197505
12:04:00,1,L08,Bedford Av,-73.956872,40.717304,1484.756877980706
12:04:00,1,L10,Lorimer St,-73.950275,40.714063,1555.2058464987504
12:04:00,1,L11,Graham Av,-73.944053,40.714565,1595.8676060500998
12:04:00,1,L12,Grand St,-73.94067,40.711926,1682.4091058404606
12:04:00,1,L13,Montrose Av,-73.93985,40.707739,1722.0227682538382
12:04:00,1,L14,Morgan Av,-73.933147,40.706152,1792.693922060791
12:04:00,2,L15,Jefferson St,-73.922913,40.706607,1783.3913763743294
12:04:00,2,L16,DeKalb Av,-73.918425,40.703811,1715.6547250888975
12:04:00,2,L17,Myrtle-Wyckoff Avs,-73.911586,40.699814,1636.8970896209173
12:04:00,2,L19,Halsey St,-73.904084,40.695602,1587.9552156521406
12:04:00,2,L20,Wilson Av,-73.904046,40.688764,1457.5034838909025
12:04:00,2,L21,Bushwick Av-Aberdeen St,-73.905249,40.682829,1375.5893620270906
12:04:00,2,L22,Broadway Junction,-73.90324,40.678856,1310.9051395565
12:04:00,2,L24,Atlantic Av,-73.903097,40.675345,1389.452288270626
12:04:00,2,L25,Sutter Av,-73.901975,40.669367,1472.6310731311837
12:04:00,2,L26,Livonia Av,-73.900571,40.664038,1548.919002256322
12:04:00,2,L27,New Lots Av,-73.899232,40.658733,1615.7993166956264
12:04:00,2,L28,East 105 St,-73.899485,40.650573,1726.025738332242
12:04:00,2,L29,Canarsie-Rockaway Pkwy,-73.90185,40.646654,1849.799907798461
12:04:00,0,M01,Middle Village-Metropolitan Av,-73.889601,40.711396,2217.444842496659
12:04:00,0,M04,Fresh Pond Rd,-73.895877,40.706186,2107.585243642791
12:04:00,0,M05,Forest Av,-73.903077,40.704423,1989.9090398744725
12:04:00,0,M06,Seneca Av,-73.90774,40.702762,1895.049403002964
12:04:00,0,M08,Myrtle-Wyckoff Avs,-73.912385,40.69943,1822.442393308706
12:04:00,0,M09,Knickerbocker Av,-73.919711,40.698664,1694.1547980211105
12:04:00,0,M10,Central Av,-73.927397,40.697857,1607.1313981587568
12:04:00,2,M11,Myrtle Av,-73.935657,40.697207,1443.1029185867897
12:04:00,2,M12,Flushing Av,-73.941126,40.70026,1439.2481914702796
12:04:00,2,M13,Lorimer St,-73.947408,40.703869,1335.5221841442724
12:04:00,2,M14,Hewes St,-73.953431,40.70687,1243.2663017913312
12:04:00,2,M16,Marcy Av,-73.957757,40.708359,1170.4031361108578
12:04:00,0,M18,Delancey St-Essex St,-73.987437,40.718315,797.2857142857142
12:04:00,2,M19,Bowery,-73.993915,40.72028,878.5706605222733
12:04:00,2,M20,Canal St,-73.999892,40.718092,978.9920634920636
12:04:00,1,M21,Chambers St,-74.003401,40.713243,882.8109329987872
12:04:00,2,M22,Fulton St,-74.007582,40.710374,763.2753861527541
12:04:00,2,M23,Broad St,-74.011056,40.706476,843.0784408151336
12:04:00,0,N02,8 Av,-74.011719,40.635064,1474.9050464515988
12:04:00,0,N03,Fort Hamilton Pkwy,-74.005351,40.631386,1572.1272126084505
12:04:00,0,N04,New Utrecht Av,-73.996353,40.624842,1689.2387611648808
12:04:00,0,N05,18 Av,-73.990414,40.620671,1785.209038575713
12:04:00,0,N06,20 Av,-73.985026,40.61741,1872.645546512221
12:04:00,0,N07,Bay Pkwy,-73.981848,40.611815,1970.4170696910287
12:04:00,0,N08,Kings Hwy,-73.980353,40.603923,2097.921400137398
12:04:00,0,N09,Avenue U,-73.979137,40.597473,2213.613656479187
12:04:00,0,N10,86 St,-73.97823,40.592721,2327.099037589518
12:04:00,0,Q01,Canal St,-74.00046,40.718383,953.4311535687575
12:13:00,0,Q03,72 St,-73.958424,40.768799,1854.1194036785848
12:13:00,0,Q04,86 St,-73.951787,40.777891,1979.158838640327
12:13:00,0,Q05,96 St,-73.947152,40.784318,2072.1573025420166
12:04:00,0,R01,Astoria-Ditmars Blvd,-73.912034,40.775036,2670.0701020174592
12:04:00,0,R03,Astoria Blvd,-73.917843,40.770258,2573.7747553887793
12:04:00,0,R04,30 Av,-73.921479,40.766779,2467.0778156059564
12:04:00,0,R05,Broadway,-73.925508,40.76182,2371.6968632250037
12:04:00,0,R06,36 Av,-73.929575,40.756804,2252.6496210957125
12:04:00,0,R08,39 Av-Dutch Kills,-73.932755,40.752882,2141.6707277489204
12:04:00,0,R09,Queensboro Plaza,-73.940202,40.750582,1958.1731735003195
12:04:00,0,R11,Lexington Av/59 St,-73.967258,40.76266,1698.6303872314384
12:04:00,0,R13,5 Av/59 St,-73.973347,40.764811,1704.2277278558636
12:13:00,0,R14,57 St-7 Av,-73.980658,40.764664,1524.1620797773703
12:04:00,0,R15,49 St,-73.984139,40.759901,1435.0331561323176
12:04:00,0,R16,Times Sq-42 St,-73.986754,40.754672,1341.028268546785
12:04:00,0,R17,34 St-Herald Sq,-73.98795,40.749567,1319.701917100597
12:04:00,0,R18,28 St,-73.988691,40.745494,1240.393406462299
12:04:00,0,R19,23 St,-73.989344,40.741303,1157.4992653171591
12:02:00,0,R20,14 St-Union Sq,-73.990568,40.735736,1065.3228338923923
12:02:00,0,R21,8 St-NYU,-73.992629,40.730328,943.776382360676
12:02:00,0,R22,Prince St,-73.997702,40.724329,831.0641667927314
12:02:00,0,R23,Canal St,-74.001775,40.719527,717.8507974476943
12:02:00,0,R24,City Hall,-74.006978,40.713282,552.3973644089451
12:02:00,0,R25,Cortlandt St,-74.011029,40.710668,410.5338527491371
12:02:00,0,R26,Rector St,-74.013342,40.70722,280.040536122916
12:02:00,0,R27,Whitehall St-South Ferry,-74.012994,40.703087,203.96875
12:54:00,0,R28,Court St,-73.991777,40.6941,0.0
12:04:00,0,R29,Jay St-MetroTech,-73.985942,40.69218,87.0
12:04:00,0,R30,DeKalb Av,-73.981824,40.690635,195.20000000000002
12:04:00,0,R31,Atlantic Av-Barclays Ctr,-73.97881,40.683666,354.5
12:04:00,0,R32,Union St,-73.98311,40.677316,489.80000000000007
12:04:00,0,R33,4 Av-9 St,-73.988302,40.670847,607.85
12:04:00,0,R34,Prospect Av,-73.992872,40.665414,701.9000000000001
12:04:00,0,R35,25 St,-73.998091,40.660397,768.0052631578949
12:04:00,0,R36,36 St,-74.003549,40.655144,886.6302631578948
12:04:00,0,R39,45 St,-74.010006,40.648939,1072.4321409169238
12:04:00,0,R40,53 St,-74.014034,40.645069,1174.6462154290468
12:04:00,0,R41,59 St,-74.017881,40.641362,1272.4723684210526
12:04:00,0,R42,Bay Ridge Av,-74.023377,40.634967,1435.7377221620393
12:04:00,0,R43,77 St,-74.02551,40.629742,1518.3463892664383
12:04:00,0,R44,86 St,-74.028398,40.622687,1668.975355736653
12:04:00,0,R45,Bay Ridge-95 St,-74.030876,40.616622,1760.982655006726
12:04:00,0,S01,Franklin Av,-73.955827,40.680596,731.26961658524
12:04:00,0,S03,Park Pl,-73.957624,40.674772,847.6098943630178
12:04:00,0,S04,Botanic Garden,-73.959245,40.670343,972.1856958446197
