start_time,ntransfers,stop_id,stop_name,stop_lon,stop_lat,duration
12:09:00,1,101,Van Cortlandt Park-242 St,-73.898583,40.889248,3466.307040867742
12:09:00,1,103,238 St,-73.90087,40.884667,3359.556292684758
12:09:00,1,104,231 St,-73.904834,40.878856,3264.721186301779
12:09:00,1,106,Marble Hill-225 St,-73.909831,40.874561,3171.2493197903323
12:09:00,1,107,215 St,-73.915279,40.869444,3063.124756344465
12:09:00,1,108,207 St,-73.918822,40.864621,2984.1399610228273
12:09:00,1,109,Dyckman St,-73.925536,40.860531,2886.103333965336
12:09:00,1,110,191 St,-73.929412,40.855225,2795.8842863462883
12:09:00,1,111,181 St,-73.933596,40.849505,2700.6396976017
12:09:00,1,112,168 St-Washington Hts,-73.940133,40.840556,2579.7893722220906
12:09:00,1,113,157 St,-73.94489,40.834041,2560.1736336281942
12:09:00,1,114,145 St,-73.95036,40.826551,2444.50898628938
12:09:00,1,115,137 St-City College,-73.953676,40.822008,2343.4662032297433
12:09:00,1,116,125 St,-73.958372,40.815581,2244.705071311308
12:09:00,1,117,116 St-Columbia University,-73.96411,40.807722,2126.5490019471463
12:09:00,1,118,Cathedral Pkwy (110 St),-73.966847,40.803967,2048.518188471386
12:09:00,1,119,103 St,-73.968379,40.799446,1969.2000066532044
12:17:30,1,120,96 St,-73.972323,40.793919,1669.1230613159303
12:25:00,1,121,86 St,-73.976218,40.788644,1755.0604047796683
12:25:00,1,122,79 St,-73.979917,40.783934,1673.2281167075262
12:17:30,1,123,72 St,-73.98197,40.778453,1477.260760214339
12:17:30,1,124,66 St-Lincoln Center,-73.982209,40.77344,1530.6048977731507
12:17:30,1,125,59 St-Columbus Circle,-73.981929,40.768247,1449.5069274374755
12:17:30,1,126,50 St,-73.983849,40.761728,1340.8794764570835
13:09:00,1,127,Times Sq-42 St,-73.987495,40.75529,1228.6823818359605
12:05:00,1,128,34 St-Penn Station,-73.991057,40.750373,1336.071892325471
12:09:00,1,129,28 St,-73.993365,40.747215,1417.8346020415236
13:41:30,1,130,23 St,-73.995657,40.744081,1393.0143551153699
13:41:30,1,131,18 St,-73.997871,40.74104,1326.0954470463212
13:48:30,1,132,14 St,-74.000201,40.737826,1183.1580998577015
12:21:30,1,133,Christopher St-Sheridan Sq,-74.002906,40.733422,1177.2319429835038
12:19:30,1,134,Houston St,-74.005367,40.728251,1097.2323494875689
12:19:30,1,135,Canal St,-74.006277,40.722854,1007.4747368200902
12:19:30,1,136,Franklin St,-74.006886,40.719318,942.3194875294539
13:48:30,1,137,Chambers St,-74.009266,40.715478,867.4863627901965
13:48:30,1,138,WTC Cortlandt,-74.012188,40.711835,801.0404168442506
13:48:30,1,139,Rector St,-74.013783,40.707513,721.7418499652697
13:48:30,1,142,South Ferry,-74.013664,40.702068,617.0214285714285
13:59:00,1,201,Wakefield-241 St,-73.85062,40.903125,4498.856195167782
13:59:00,1,204,Nereid Av,-73.854376,40.898379,4270.592146829414
13:59:00,1,205,233 St,-73.857473,40.893193,4138.592146829414
13:59:00,1,206,225 St,-73.860341,40.888022,4042.5921468294137
13:59:00,1,207,219 St,-73.862633,40.883895,3960.592146829414
13:59:00,1,208,Gun Hill Rd,-73.866256,40.87785,3852.092146829414
13:59:00,1,209,Burke Av,-73.867164,40.871356,3892.921479166563
13:59:00,1,210,Allerton Av,-73.867352,40.865462,3802.4961918102413
13:59:00,1,211,Pelham Pkwy,-73.867615,40.857192,3690.5881458332296
13:59:00,1,212,Bronx Park East,-73.868457,40.848828,3563.4381458332296
13:59:00,1,213,E 180 St,-73.873488,40.841894,3367.172761217845
12:39:00,1,214,West Farms Sq-E Tremont Av,-73.880049,40.840295,3308.6048477858853
12:39:00,1,215,174 St,-73.887734,40.837288,3182.565483667793
12:39:00,1,216,Freeman St,-73.891865,40.829993,3060.0575948623837
12:39:00,1,217,Simpson St,-73.893064,40.824073,2946.8449082952193
13:59:00,1,218,Intervale Av,-73.896736,40.822181,2872.1804737714097
13:59:00,1,219,Prospect Av,-73.90177,40.819585,2788.6150948709637
12:39:00,1,220,Jackson Av,-73.907807,40.81649,2685.819651496445
13:59:00,1,221,3 Av-149 St,-73.917757,40.816109,2537.459978471922
12:39:00,1,222,149 St-Grand Concourse,-73.926718,40.81841,2404.6131999120953
12:17:30,1,224,135 St,-73.94077,40.814229,2223.145087642758
12:17:30,1,225,125 St,-73.945495,40.807754,2113.0979558391564
12:17:30,1,226,116 St,-73.949625,40.802098,2013.2399311477984
12:17:30,1,227,Central Park North (110 St),-73.951822,40.799075,1934.3581014146348
12:09:30,2,228,Park Place,-74.008811,40.713051,785.4764863866861
13:48:30,1,229,Fulton St,-74.006571,40.709416,774.5141240940883
13:48:30,1,230,Wall St,-74.0091,40.706821,731.5411343345473
13:48:30,1,231,Clark St,-73.993086,40.697466,524.485030758715
12:22:00,1,232,Borough Hall,-73.989998,40.693219,435.20000000000005
12:22:00,1,233,Hoyt St,-73.985065,40.690545,522.9578947368421
12:01:00,1,234,Nevins St,-73.980492,40.688246,468.1341067285383
12:22:00,1,235,Atlantic Av-Barclays Ctr,-73.977666,40.684359,384.3
12:03:00,1,236,Bergen St,-73.975098,40.680829,463.32220923436586
12:03:00,1,237,Grand Army Plaza,-73.971046,40.675235,578.3046756282876
12:03:00,1,238,Eastern Pkwy-Brooklyn Museum,-73.964375,40.671987,681.8238353349749
12:22:00,1,239,Franklin Av-Medgar Evers College,-73.958131,40.670682,645.2169319683403
12:22:00,1,241,President St-Medgar Evers College,-73.950683,40.667883,844.6666638718254
12:22:00,1,242,Sterling St,-73.95085,40.662742,939.4982074959865
12:22:00,1,243,Winthrop St,-73.9502,40.656652,1033.1033115926957
12:22:00,1,244,Church Av,-73.949575,40.650843,1117.14590794158
12:22:00,1,245,Beverly Rd,-73.948959,40.645098,1198.684860279255
12:22:00,1,246,Newkirk Av-Little Haiti,-73.948411,40.639967,1285.8733737927685
12:22:00,1,247,Flatbush Av-Brooklyn College,-73.947642,40.632836,1436.4929312517263
12:22:00,1,248,Nostrand Av,-73.950466,40.669847,805.5993754672304
12:22:00,1,249,Kingston Av,-73.942161,40.669399,894.1211145976652
12:09:30,1,250,Crown Hts-Utica Av,-73.932942,40.668897,920.8562924632779
12:22:00,1,251,Sutter Av-Rutland Rd,-73.92261,40.664717,1063.981292463278
12:22:00,1,252,Saratoga Av,-73.916327,40.661453,1178.8354591299446
12:22:00,1,253,Rockaway Av,-73.908946,40.662549,1267.4396257966114
12:22:00,1,254,Junius St,-73.902447,40.663515,1354.9812924632781
12:22:00,1,255,Pennsylvania Av,-73.894895,40.664635,1461.0229591299446
12:22:00,1,256,Van Siclen Av,-73.889395,40.665449,1540.3562924632781
12:22:00,1,257,New Lots Av,-73.884079,40.666235,1611.6134353204209
12:17:30,1,301,Harlem-148 St,-73.93647,40.82388,2505.0389117263467
12:17:30,1,302,145 St,-73.936245,40.820421,2365.8555187220727
12:01:30,1,401,Woodlawn,-73.878751,40.886037,3669.8869637865973
12:01:30,1,402,Mosholu Pkwy,-73.884655,40.87975,3547.4799925195225
12:01:30,1,405,Bedford Park Blvd-Lehman College,-73.890064,40.873412,3424.421659186189
12:01:30,1,406,Kingsbridge Rd,-73.897174,40.86776,3314.621566850086
12:01:30,1,407,Fordham Rd,-73.901034,40.862803,3226.4987445504344
12:01:30,1,408,183 St,-73.903879,40.858407,3142.203299864968
12:01:30,1,409,Burnside Av,-73.907684,40.853453,3042.8805924413873
12:01:30,1,410,176 St,-73.911794,40.84848,2951.8118834698334
12:01:30,1,411,Mt Eden Av,-73.914685,40.844434,2871.4577259687335
12:01:30,1,412,170 St,-73.917791,40.840075,2789.454192399829
12:01:30,1,413,167 St,-73.9214,40.835537,2697.613997623379
12:01:30,1,414,161 St-Yankee Stadium,-73.925831,40.827994,2563.758279707826
12:01:30,1,415,149 St-Grand Concourse,-73.927351,40.818375,2371.039594714457
12:39:00,1,416,138 St-Grand Concourse,-73.929849,40.813224,2231.121674488367
12:58:30,1,418,Fulton St,-74.009509,40.710368,765.7919781328501
12:58:30,1,419,Wall St,-74.011862,40.707557,778.2796065261502
12:58:30,1,420,Bowling Green,-74.014065,40.704817,690.7221948212084
12:01:00,1,423,Borough Hall,-73.990151,40.692404,434.4647063732147
13:59:00,1,501,Eastchester-Dyre Av,-73.830834,40.8883,4083.0959489103943
13:59:00,1,502,Baychester Av,-73.838591,40.878663,3952.4220237289314
13:59:00,1,503,Gun Hill Rd,-73.846384,40.869526,3821.838501446531
13:59:00,1,504,Pelham Pkwy,-73.855359,40.858985,3671.838501446531
13:59:00,1,505,Morris Park,-73.860495,40.854364,3581.838501446531
13:45:00,1,601,Pelham Bay Park,-73.828121,40.852462,3847.32356660855
13:45:00,1,602,Buhre Av,-73.832569,40.84681,3670.0604087138136
13:45:00,1,603,Middletown Rd,-73.836322,40.843863,3599.7673052655377
13:45:00,1,604,Westchester Sq-E Tremont Av,-73.842952,40.839892,3467.5908346773026
13:45:00,1,606,Zerega Av,-73.847036,40.836488,3380.5408346773024
13:45:00,1,607,Castle Hill Av,-73.851222,40.834255,3311.294933037958
12:41:30,1,608,Parkchester,-73.860816,40.833226,3125.88113993451
12:41:30,1,609,St Lawrence Av,-73.867618,40.831509,3369.741472597308
12:41:30,1,610,Morrison Av-Soundview,-73.874516,40.829521,3268.5904286168548
12:41:30,1,611,Elder Av,-73.879159,40.828584,3195.8650241568635
12:41:30,1,612,Whitlock Av,-73.886283,40.826525,3083.160262252102
12:41:30,1,613,Hunts Point Av,-73.890549,40.820948,2853.48113993451
12:39:00,1,614,Longwood Av,-73.896435,40.816104,2972.5724353280157
12:39:00,1,615,E 149 St,-73.904098,40.812118,2869.80165323259
12:39:00,1,616,E 143 St-St Mary's St,-73.907657,40.808719,2793.1275571454185
12:39:00,1,617,Cypress Av,-73.914042,40.805368,2681.712606938565
12:39:00,1,618,Brook Av,-73.91924,40.807566,2606.0936578280975
12:39:00,1,619,3 Av-138 St,-73.926138,40.810476,2485.8357498635883
12:39:00,1,621,125 St,-73.937594,40.804138,2051.4377189445463
12:39:00,1,622,116 St,-73.941617,40.798629,2205.2480564762436
12:39:00,1,623,110 St,-73.94425,40.79502,2124.697720905774
12:39:00,1,624,103 St,-73.947478,40.7906,2045.657985806436
12:39:00,1,625,96 St,-73.95107,40.785672,1955.888248964331
12:39:00,1,626,86 St,-73.955589,40.779492,1743.117172780697
12:39:00,1,627,77 St,-73.959874,40.77362,1753.7391908646262
12:39:00,1,628,68 St-Hunter College,-73.96387,40.768141,1660.2020230206977
12:39:00,1,629,59 St,-73.967967,40.762526,1534.3385014465307
12:39:00,1,630,51 St,-73.97192,40.757107,1450.5478358618918
12:39:00,1,631,Grand Central-42 St,-73.976848,40.751776,1330.1252980987563
12:01:30,1,632,33 St,-73.982076,40.746081,1211.0598219082801
12:01:30,1,633,28 St,-73.984264,40.74307,1143.3574409558992
12:01:30,1,634,23 St,-73.986599,40.739864,1077.0556658079702
12:01:30,1,635,14 St-Union Sq,-73.989951,40.734673,943.2895839366251
12:01:30,1,636,Astor Pl,-73.99107,40.730054,862.7460482387676
12:39:00,1,637,Bleecker St,-73.994659,40.725915,766.9068209958075
12:39:00,1,638,Spring St,-73.997141,40.722301,837.4325941916838
12:01:30,1,639,Canal St,-74.000193,40.718803,800.5840867992766
12:17:30,1,640,Brooklyn Bridge-City Hall,-74.004131,40.713065,882.0551610307123
12:47:00,1,701,Flushing-Main St,-73.83003,40.7596,2980.0594603766417
12:47:00,1,702,Mets-Willets Point,-73.845625,40.754622,2789.039861727616
12:47:00,1,705,111 St,-73.855334,40.75173,2821.490114126847
12:47:00,1,706,103 St-Corona Plaza,-73.8627,40.749865,2742.5827442823575
12:47:00,1,707,Junction Blvd,-73.869527,40.749145,2541.8970045847586
12:47:00,1,708,90 St-Elmhurst Av,-73.876613,40.748408,2641.657338173509
12:47:00,1,709,82 St-Jackson Hts,-73.883697,40.747659,2553.989772688147
12:21:30,1,710,74 St-Broadway,-73.891394,40.746848,2393.1522952106693
12:21:30,1,711,69 St,-73.896403,40.746325,2324.215808724183
12:05:00,1,712,61 St-Woodside,-73.902984,40.74563,2242.296286198191
12:05:00,1,713,52 St,-73.912549,40.744149,2146.11317596918
12:05:00,1,714,46 St-Bliss St,-73.918435,40.743132,2086.976530692812
12:05:00,1,715,40 St-Lowery St,-73.924016,40.743781,2018.8622760682201
12:05:00,1,716,33 St-Rawson St,-73.930997,40.744587,1940.1183366742807
12:17:30,1,718,Queensboro Plaza,-73.940202,40.750582,1755.8443730058116
12:17:30,1,719,Court Sq,-73.945264,40.747023,1660.7080093694478
12:17:30,1,720,Hunters Point Av,-73.948916,40.742216,1565.6210528477088
12:17:30,1,721,Vernon Blvd-Jackson Av,-73.953581,40.742626,1530.9082210789147
12:17:30,1,723,Grand Central-42 St,-73.976041,40.751431,1315.2773485956932
12:17:30,1,724,5 Av,-73.981963,40.753821,1244.9590481857042
12:01:30,1,725,Times Sq-42 St,-73.987691,40.755477,1228.6823818359605
12:05:00,1,726,34 St-Hudson Yards,-74.00191,40.755882,1373.2845716169825
12:05:00,1,901,Grand Central-42 St,-73.979189,40.752769,1264.3385014465307
12:05:00,1,902,Times Sq-42 St,-73.986229,40.755983,1168.6823818359605
13:31:30,0,A02,Inwood-207 St,-73.919899,40.868072,2924.682972790999
13:31:30,0,A03,Dyckman St,-73.927271,40.865491,2824.944145975356
13:31:30,0,A05,190 St,-73.93418,40.859022,2694.56413499238
13:31:30,0,A06,181 St,-73.937969,40.851695,2581.6792230981064
13:31:30,0,A07,175 St,-73.939704,40.847391,2488.894217585427
13:31:30,0,A09,168 St,-73.939561,40.840719,2354.300241009856
13:41:30,0,A10,163 St-Amsterdam Av,-73.939892,40.836013,2387.9127161662946
13:41:30,0,A11,155 St,-73.941514,40.830518,2303.0428892287473
13:31:30,0,A12,145 St,-73.944216,40.824783,2108.488742944626
13:31:30,0,A14,135 St,-73.947649,40.817894,2019.6196899004021
13:31:30,0,A15,125 St,-73.952343,40.811109,1894.2241343448468
12:01:30,0,A16,116 St,-73.954882,40.805085,2032.1625549697046
12:01:30,0,A17,Cathedral Pkwy (110 St),-73.958161,40.800603,2011.921071841492
12:01:30,0,A18,103 St,-73.961454,40.796092,1925.3063103653442
12:01:30,0,A19,96 St,-73.964696,40.791642,1836.1396436986774
12:01:30,0,A20,86 St,-73.968916,40.785868,1734.3977664423599
12:01:30,0,A21,81 St-Museum of Natural History,-73.972143,40.781433,1635.1201895888337
12:01:30,0,A22,72 St,-73.97641,40.775594,1542.797140587019
12:01:30,0,A24,59 St-Columbus Circle,-73.981736,40.768296,1393.2137005172792
13:51:30,0,A25,50 St,-73.985984,40.762456,1331.3655501527921
12:09:30,1,A27,42 St-Port Authority Bus Terminal,-73.989735,40.757308,1228.6823818359605
13:38:30,1,A28,34 St-Penn Station,-73.993391,40.752287,1227.2035398228543
13:38:30,1,A30,23 St,-73.998041,40.745906,1152.707666165664
13:38:30,1,A31,14 St,-74.00169,40.740893,1054.723170041633
13:38:30,1,A32,W 4 St-Wash Sq,-74.000495,40.732338,934.1288258193023
13:29:30,1,A33,Spring St,-74.003739,40.726227,885.5511105387344
13:38:30,1,A34,Canal St,-74.005229,40.720824,782.6774263282082
13:38:30,1,A36,Chambers St,-74.008585,40.714111,643.3932972876999
13:38:30,1,A38,Fulton St,-74.007691,40.710197,542.864345801002
13:38:30,1,A40,High St,-73.990531,40.699337,359.04297294608773
13:48:30,1,A41,Jay St-MetroTech,-73.987342,40.692338,229.75795383655645
13:48:30,1,A42,Hoyt-Schermerhorn Sts,-73.985001,40.688484,351.36023194284445
13:50:30,1,A43,Lafayette Av,-73.973946,40.686113,501.7506414050959
13:50:30,1,A44,Clinton-Washington Avs,-73.965838,40.683263,586.7506414050958
13:48:30,1,A45,Franklin Av,-73.956848,40.68138,692.4696165852399
13:48:30,1,A46,Nostrand Av,-73.950426,40.680438,639.6562874872033
13:50:30,1,A47,Kingston-Throop Avs,-73.940858,40.679921,744.6356992519092
13:48:30,1,A48,Utica Av,-73.930729,40.679364,815.1119693053851
13:50:30,1,A49,Ralph Av,-73.920786,40.678822,924.7870481697385
13:50:30,1,A50,Rockaway Av,-73.911946,40.67834,1026.5053144236085
13:48:30,1,A51,Broadway Junction,-73.905316,40.678334,1049.8073748640918
13:48:30,1,A52,Liberty Av,-73.896548,40.674542,1172.7558597125765
13:48:30,1,A53,Van Siclen Av,-73.890358,40.67271,1259.3594633161802
13:48:30,1,A54,Shepherd Av,-73.88075,40.67413,1368.018217025379
13:48:30,1,A55,Euclid Av,-73.872106,40.675377,1404.780256220024
13:48:30,1,A57,Grant Av,-73.86505,40.677044,1509.5540715595453
13:48:30,1,A59,80 St,-73.858992,40.679371,1623.7167962520714
13:48:30,1,A60,88 St,-73.85147,40.679843,1716.4892855428852
13:48:30,1,A61,Rockaway Blvd,-73.843853,40.680429,1827.4941258139404
13:38:30,1,A63,104 St,-73.837683,40.681711,1920.3104523445525
13:38:30,1,A64,111 St,-73.832163,40.684331,2024.0761576069392
13:38:30,1,A65,Ozone Park-Lefferts Blvd,-73.825798,40.685951,2102.4560033097378
12:05:00,0,B04,21 St-Queensbridge,-73.942836,40.754203,1844.9590481857042
12:05:00,0,B06,Roosevelt Island,-73.95326,40.759145,1685.8224136221247
12:05:00,0,B08,Lexington Av/63 St,-73.966113,40.764629,1491.3356506137159
13:01:30,0,B10,57 St,-73.97745,40.763972,1424.0711780372812
12:01:00,1,B12,9 Av,-73.994324,40.646292,902.4008691913334
12:01:00,1,B13,Fort Hamilton Pkwy,-73.994304,40.640914,1024.7475421859783
12:01:00,1,B14,50 St,-73.994791,40.63626,1105.5074853677966
12:01:00,1,B15,55 St,-73.995476,40.631435,1208.5359348699303
12:01:00,1,B16,62 St,-73.996895,40.626472,1273.4843169962783
12:01:00,1,B17,71 St,-73.998864,40.619589,1376.3816065825838
12:01:00,1,B18,79 St,-74.00061,40.613501,1480.8323911760217
12:01:00,1,B19,18 Av,-74.001736,40.607954,1565.315962604593
12:01:00,1,B20,20 Av,-73.998168,40.604556,1650.5275423043786
12:01:00,1,B21,Bay Pkwy,-73.993728,40.601875,1731.6854748241203
12:01:00,1,B22,25 Av,-73.986829,40.597704,1858.491626469328
12:01:00,1,B23,Bay 50 St,-73.983765,40.588841,2062.867511632131
12:01:30,0,D01,Norwood-205 St,-73.878855,40.874811,3408.429710000907
12:01:30,0,D03,Bedford Park Blvd,-73.887138,40.873244,3239.7299556787666
12:01:30,0,D04,Kingsbridge Rd,-73.893509,40.866978,3121.189571063382
12:01:30,0,D05,Fordham Rd,-73.897749,40.861296,3021.0566851573417
12:01:30,0,D06,182-183 Sts,-73.900741,40.856093,2935.883897877125
13:11:30,0,D07,Tremont Av,-73.905227,40.85041,2852.2835243943987
13:11:30,0,D08,174-175 Sts,-73.910136,40.8459,2791.5643877813795
13:11:30,0,D09,170 St,-73.9134,40.839306,2697.610541627533
13:11:30,0,D10,167 St,-73.91844,40.833771,2577.9233046008853
13:11:30,0,D11,161 St-Yankee Stadium,-73.925651,40.827905,2429.1445931162916
13:11:30,0,D12,155 St,-73.938209,40.830135,2295.669216919301
12:01:30,0,D13,145 St,-73.944216,40.824783,2178.0294356479408
12:01:30,0,D14,7 Av,-73.981637,40.762862,1244.328164902976
12:01:30,0,D15,47-50 Sts-Rockefeller Ctr,-73.981329,40.758663,1128.748445089767
12:01:30,0,D16,42 St-Bryant Pk,-73.984569,40.754222,1016.486824903844
12:01:30,0,D17,34 St-Herald Sq,-73.987823,40.749719,930.0291864782267
12:21:30,0,D18,23 St,-73.992821,40.742878,1145.9126004936322
12:21:30,0,D19,14 St,-73.996209,40.738228,1042.416343865281
12:01:30,0,D20,W 4 St-Wash Sq,-74.000495,40.732338,703.7000308054036
12:01:30,0,D21,Broadway-Lafayette St,-73.996204,40.725297,554.6782486271857
12:01:30,0,D22,Grand St,-73.993753,40.718267,417.99170124481327
12:01:00,0,D24,Atlantic Av-Barclays Ctr,-73.97689,40.68446,169.79107373868047
12:01:00,0,D25,7 Av,-73.972367,40.67705,318.90675497261367
12:01:00,0,D26,Prospect Park,-73.962246,40.661614,526.4851544521192
12:01:00,0,D27,Parkside Av,-73.961495,40.655292,622.3567374146112
12:03:00,0,D28,Church Av,-73.962982,40.650527,686.076351671178
12:01:00,0,D29,Beverley Rd,-73.964492,40.644031,793.1727698748718
12:01:00,0,D30,Cortelyou Rd,-73.963891,40.640927,871.3097998302575
12:03:00,0,D31,Newkirk Plaza,-73.962793,40.635082,864.8203516711781
12:12:00,0,D32,Avenue H,-73.961639,40.62927,978.1451307150916
12:12:00,0,D33,Avenue J,-73.960803,40.625039,1075.0296720877664
12:12:00,0,D34,Avenue M,-73.959399,40.617618,1185.8360212941154
12:03:00,0,D35,Kings Hwy,-73.957734,40.60867,1130.2157239045782
12:03:00,0,D37,Avenue U,-73.955929,40.5993,1349.5639670194444
12:03:00,0,D38,Neck Rd,-73.955161,40.595246,1453.6617243512442
12:03:00,0,D39,Sheepshead Bay,-73.954155,40.586896,1399.3761299959488
12:03:00,0,D40,Brighton Beach,-73.961376,40.577621,1560.6830300989354
12:43:00,0,D41,Ocean Pkwy,-73.968501,40.576312,1723.163035116184
12:43:00,0,D42,W 8 St-NY Aquarium,-73.975939,40.576127,1837.7127155345454
12:43:00,0,D43,Coney Island-Stillwell Av,-73.981233,40.577422,1926.4786729813538
12:09:30,1,E01,World Trade Center,-74.009781,40.712582,725.4764863866861
12:29:00,0,F01,Jamaica-179 St,-73.783817,40.712646,3404.959048185704
12:25:00,0,F02,169 St,-73.793604,40.71047,3314.959048185704
12:05:00,0,F03,Parsons Blvd,-73.803326,40.707564,3194.959048185704
12:05:00,0,F04,Sutphin Blvd,-73.810708,40.70546,3104.959048185704
12:05:00,0,F05,Briarwood,-73.820574,40.709179,2984.959048185704
12:21:30,0,F06,Kew Gardens-Union Tpke,-73.831008,40.714441,2864.959048185704
12:05:00,0,F07,75 Av,-73.837324,40.718331,2774.959048185704
12:21:30,0,F09,Court Sq-23 St,-73.946,40.747846,1780.7080093694478
12:21:30,0,F11,Lexington Av/53 St,-73.969055,40.757552,1589.9686059784915
12:21:30,0,F12,5 Av/53 St,-73.975224,40.760167,1490.7849325091038
12:41:30,0,F14,2 Av,-73.989938,40.723402,701.5260612719173
12:09:30,1,F15,Delancey St-Essex St,-73.988114,40.718611,589.5924513134111
12:49:30,1,F16,East Broadway,-73.990173,40.713715,498.46190476190475
12:49:30,1,F18,York St,-73.986751,40.701397,319.75795383655645
13:29:30,1,F20,Bergen St,-73.990862,40.686145,384.04933605720123
13:29:30,1,F21,Carroll St,-73.995048,40.680303,495.8619843042703
13:29:30,1,F22,Smith-9 Sts,-73.995959,40.67358,646.6213756499669
13:29:30,1,F23,4 Av-9 St,-73.989779,40.670272,630.5054069519043
12:08:00,1,F24,7 Av,-73.980305,40.666271,649.7579538365565
12:08:00,1,F25,15 St-Prospect Park,-73.979493,40.660365,812.1274637356024
12:08:00,1,F26,Fort Hamilton Pkwy,-73.975776,40.650782,984.8999755839436
12:08:00,1,F27,Church Av,-73.979678,40.644041,889.7579538365565
12:08:00,1,F29,Ditmas Av,-73.978172,40.636119,1009.7579538365563
12:08:00,1,F30,18 Av,-73.976971,40.629755,1129.7579538365565
12:08:00,1,F31,Avenue I,-73.976127,40.625322,1189.7579538365565
12:08:00,1,F32,Bay Pkwy,-73.975264,40.620769,1249.7579538365565
12:08:00,1,F33,Avenue N,-73.974197,40.61514,1369.7579538365565
12:08:00,1,F34,Avenue P,-73.973022,40.608944,1459.7579538365565
12:08:00,1,F35,Kings Hwy,-73.972361,40.603217,1674.3144018583043
13:38:00,1,F36,Avenue U,-73.973357,40.596063,1782.290592334495
12:32:00,0,F38,Avenue X,-73.97425,40.58962,1884.2667828106853
12:32:00,0,F39,Neptune Av,-73.974574,40.581011,2005.1001161440188
12:21:30,0,G05,Jamaica Center-Parsons/Archer,-73.801109,40.702147,2626.5465048842334
12:21:30,0,G06,Sutphin Blvd-Archer Av-JFK Airport,-73.807969,40.700486,2566.5465048842334
12:21:30,0,G07,Jamaica-Van Wyck,-73.816859,40.702566,2932.700714250594
12:21:30,0,G08,Forest Hills-71 Av,-73.844521,40.721691,2654.959048185704
12:21:30,0,G09,67 Av,-73.852719,40.726523,2790.5096758007667
13:11:30,0,G10,63 Dr-Rego Park,-73.861604,40.729846,2865.807811563073
13:11:30,0,G11,Woodhaven Blvd,-73.869229,40.733106,2753.68235030846
13:11:30,0,G12,Grand Av-Newtown,-73.877223,40.737015,2635.579219553396
13:11:30,0,G13,Elmhurst Av,-73.882017,40.742454,2529.9880593324015
12:21:30,0,G14,Jackson Hts-Roosevelt Av,-73.891338,40.746644,2234.959048185704
12:31:30,0,G15,65 St,-73.898453,40.749669,2470.7206329755913
12:31:30,0,G16,Northern Blvd,-73.906006,40.752885,2376.3907360683747
12:31:30,0,G18,46 St,-73.913333,40.756312,2286.3907360683747
12:31:30,0,G19,Steinway St,-73.92074,40.756879,2169.4835195735295
12:31:30,0,G20,36 St,-73.928781,40.752039,2049.4835195735295
12:21:30,0,G21,Queens Plaza,-73.937243,40.748973,1904.0753563082235
12:19:30,1,G22,Court Sq,-73.943832,40.746554,1720.7080093694478
12:19:30,1,G24,21 St,-73.949724,40.744065,1725.2550224728545
12:19:30,1,G26,Greenpoint Av,-73.954449,40.731352,1584.6602431067886
12:19:30,1,G28,Nassau Av,-73.951277,40.724635,1473.7104882048277
12:19:30,1,G29,Metropolitan Av,-73.951418,40.712792,1321.5928773673893
12:19:30,1,G30,Broadway,-73.950308,40.706092,1232.6359542904663
12:19:30,1,G31,Flushing Av,-73.950234,40.700377,1141.235585286776
12:19:30,1,G32,Myrtle-Willoughby Avs,-73.949046,40.694568,1055.158332067892
12:19:30,1,G33,Bedford-Nostrand Avs,-73.953522,40.689627,949.8704063712975
12:19:30,1,G34,Classon Av,-73.96007,40.688873,866.2598294482204
12:19:30,1,G35,Clinton-Washington Avs,-73.966839,40.688089,784.7474660209634
12:19:30,1,G36,Fulton St,-73.975375,40.687119,693.9416240965647
12:49:30,1,H01,Aqueduct Racetrack,-73.834058,40.668234,2052.771332041481
13:48:30,1,H02,Aqueduct-N Conduit Av,-73.834058,40.668234,2011.0590113101237
13:48:30,1,H03,Howard Beach-JFK Airport,-73.830301,40.660476,2162.2502158990337
13:48:30,1,H04,Broad Channel,-73.815925,40.608382,2647.8427731509423
13:48:30,1,H06,Beach 67 St,-73.796924,40.590927,2944.3010274203916
13:48:30,1,H07,Beach 60 St,-73.788522,40.592374,3052.9029504973146
13:48:30,1,H08,Beach 44 St,-73.776013,40.592943,3164.400054744419
13:48:30,1,H09,Beach 36 St,-73.768175,40.595398,3264.5812562948067
13:48:30,1,H10,Beach 25 St,-73.761353,40.600066,3374.875316664816
13:48:30,1,H11,Far Rockaway-Mott Av,-73.755405,40.603995,3452.673635992547
13:48:30,1,H12,Beach 90 St,-73.813641,40.588034,2965.9565426408535
13:48:30,1,H13,Beach 98 St,-73.820558,40.585307,3066.0603162257594
13:48:30,1,H14,Beach 105 St,-73.827559,40.583209,3155.73650670195
13:48:30,1,H15,Rockaway Park-Beach 116 St,-73.835592,40.580903,3259.2859572514008
12:01:30,0,J12,121 St,-73.828294,40.700492,2326.5465048842334
13:38:30,2,J13,111 St,-73.836345,40.697418,2487.611605555375
13:38:30,2,J14,104 St,-73.84433,40.695178,2146.5465048842334
13:38:30,2,J15,Woodhaven Blvd,-73.851576,40.693879,2056.5465048842334
13:38:30,2,J16,85 St-Forest Pkwy,-73.86001,40.692435,2068.930712195715
13:38:30,2,J17,75 St-Elderts Ln,-73.867139,40.691324,1876.5465048842334
13:38:30,2,J19,Cypress Hills,-73.87255,40.689941,1901.3093529724138
13:38:30,2,J20,Crescent St,-73.873785,40.683194,1726.5465048842334
13:38:30,2,J21,Norwood Av,-73.880039,40.68141,1636.5465048842334
13:38:30,2,J22,Cleveland St,-73.884639,40.679947,1634.5244106605167
13:38:30,2,J23,Van Siclen Av,-73.891688,40.678024,1486.5465048842334
13:38:30,2,J24,Alabama Av,-73.898654,40.676992,1426.5465048842334
13:38:30,2,J27,Broadway Junction,-73.904512,40.679498,1329.2384892155815
13:38:30,2,J28,Chauncey St,-73.910456,40.682893,1396.5465048842334
13:01:30,0,J29,Halsey St,-73.916559,40.68637,1525.9012794200426
13:01:30,0,J30,Gates Av,-73.92227,40.68963,1546.5465048842334
13:01:30,0,J31,Kosciuszko St,-73.928814,40.693342,1626.2375179222322
12:05:00,1,L01,8 Av,-74.002578,40.739777,1114.723170041633
12:05:00,1,L02,6 Av,-73.996786,40.737335,1097.9797776835203
12:21:30,1,L03,14 St-Union Sq,-73.99073,40.734789,1007.9760501335373
12:05:00,1,L05,3 Av,-73.986122,40.732849,1079.5179874763587
12:05:00,1,L06,1 Av,-73.981628,40.730953,1119.9705522374438
12:05:00,1,L08,Bedford Av,-73.956872,40.717304,1324.0471479821244
12:05:00,1,L10,Lorimer St,-73.950275,40.714063,1406.34008113027
12:05:00,1,L11,Graham Av,-73.944053,40.714565,1447.0018406816193
12:05:00,1,L12,Grand St,-73.94067,40.711926,1535.594122560814
12:05:00,1,L13,Montrose Av,-73.93985,40.707739,1573.1570028853575
12:05:00,1,L14,Morgan Av,-73.933147,40.706152,1654.2202599513066
12:05:00,1,L15,Jefferson St,-73.922913,40.706607,1746.2395158743611
12:05:00,1,L16,DeKalb Av,-73.918425,40.703811,1736.8547250888976
12:05:00,1,L17,Myrtle-Wyckoff Avs,-73.911586,40.699814,1658.0970896209171
12:05:00,1,L19,Halsey St,-73.904084,40.695602,1598.9274536702917
13:48:30,2,L20,Wilson Av,-73.904046,40.688764,1468.4757219090538
13:48:30,2,L21,Bushwick Av-Aberdeen St,-73.905249,40.682829,1396.7893620270904
13:48:30,2,L22,Broadway Junction,-73.90324,40.678856,1321.8773775746513
13:48:30,2,L24,Atlantic Av,-73.903097,40.675345,1400.424526288777
13:48:30,2,L25,Sutter Av,-73.901975,40.669367,1483.6033111493348
13:48:30,2,L26,Livonia Av,-73.900571,40.664038,1559.8912402744734
13:48:30,2,L27,New Lots Av,-73.899232,40.658733,1636.9993166956265
13:48:30,2,L28,East 105 St,-73.899485,40.650573,1747.2257383322421
13:48:30,2,L29,Canarsie-Rockaway Pkwy,-73.90185,40.646654,1864.2526243495595
12:11:30,0,M01,Middle Village-Metropolitan Av,-73.889601,40.711396,2238.644842496659
12:11:30,0,M04,Fresh Pond Rd,-73.895877,40.706186,2128.7852436427906
12:11:30,0,M05,Forest Av,-73.903077,40.704423,2011.1090398744723
12:11:30,0,M06,Seneca Av,-73.90774,40.702762,1916.249403002964
12:11:30,0,M08,Myrtle-Wyckoff Avs,-73.912385,40.69943,1843.642393308706
12:11:30,0,M09,Knickerbocker Av,-73.919711,40.698664,1715.3547980211106
12:11:30,0,M10,Central Av,-73.927397,40.697857,1628.331398158757
12:11:30,0,M11,Myrtle Av,-73.935657,40.697207,1464.3029185867897
12:11:30,0,M12,Flushing Av,-73.941126,40.70026,1460.4481914702797
12:11:30,0,M13,Lorimer St,-73.947408,40.703869,1356.7221841442724
12:11:30,0,M14,Hewes St,-73.953431,40.70687,1264.4663017913313
12:11:30,0,M16,Marcy Av,-73.957757,40.708359,1191.6031361108578
12:11:30,0,M18,Delancey St-Essex St,-73.987437,40.718315,818.4857142857143
12:05:00,1,M19,Bowery,-73.993915,40.72028,887.8116113828448
12:09:00,1,M20,Canal St,-73.999892,40.718092,786.3052398201354
12:09:30,2,M21,Chambers St,-74.003401,40.713243,893.7550038120437
12:09:00,1,M22,Fulton St,-74.007582,40.710374,773.6895887972178
13:50:30,2,M23,Broad St,-74.011056,40.706476,853.492643459597
12:08:00,0,N02,8 Av,-74.011719,40.635064,1140.3648407788237
12:08:00,0,N03,Fort Hamilton Pkwy,-74.005351,40.631386,1228.1455074454905
12:08:00,0,N04,New Utrecht Av,-73.996353,40.624842,1345.2570560019208
12:08:00,0,N05,18 Av,-73.990414,40.620671,1441.227333412753
12:08:00,0,N06,20 Av,-73.985026,40.61741,1528.663841349261
12:08:00,0,N07,Bay Pkwy,-73.981848,40.611815,1626.435364528069
12:08:00,0,N08,Kings Hwy,-73.980353,40.603923,1753.939694974438
12:08:00,0,N09,Avenue U,-73.979137,40.597473,1869.631951316227
12:08:00,0,N10,86 St,-73.97823,40.592721,2012.6386537290957
12:05:00,0,Q01,Canal St,-74.00046,40.718383,509.0031055900621
12:05:00,0,Q03,72 St,-73.958424,40.768799,1616.387815324488
12:05:00,0,Q04,86 St,-73.951787,40.777891,1746.8129519295026
12:05:00,0,Q05,96 St,-73.947152,40.784318,1839.811415831192
12:05:00,0,R01,Astoria-Ditmars Blvd,-73.912034,40.775036,2498.3808315812385
12:05:00,0,R03,Astoria Blvd,-73.917843,40.770258,2402.085484952558
12:05:00,0,R04,30 Av,-73.921479,40.766779,2295.388545169735
12:05:00,0,R05,Broadway,-73.925508,40.76182,2200.007592788783
12:05:00,0,R06,36 Av,-73.929575,40.756804,2087.52636749234
12:05:00,0,R08,39 Av-Dutch Kills,-73.932755,40.752882,1969.9814573126994
12:05:00,0,R09,Queensboro Plaza,-73.940202,40.750582,1807.5366811932963
12:05:00,0,R11,Lexington Av/59 St,-73.967258,40.76266,1696.5417282302444
12:05:00,0,R13,5 Av/59 St,-73.973347,40.764811,1587.8608910817813
12:05:00,0,R14,57 St-7 Av,-73.980658,40.764664,1291.816193066546
12:29:00,0,R15,49 St,-73.984139,40.759901,1322.6872694214933
12:05:00,0,R16,Times Sq-42 St,-73.986754,40.754672,1108.6823818359605
12:05:00,0,R17,34 St-Herald Sq,-73.98795,40.749567,1005.7026319848587
12:17:30,0,R18,28 St,-73.988691,40.745494,1207.879753924694
12:17:30,0,R19,23 St,-73.989344,40.741303,1122.829258875189
12:05:00,0,R20,14 St-Union Sq,-73.990568,40.735736,794.0150103519669
12:05:00,0,R21,8 St-NYU,-73.992629,40.730328,1022.3792519026789
12:17:30,1,R22,Prince St,-73.997702,40.724329,909.377812265377
12:09:30,0,R23,Canal St,-74.001775,40.719527,796.1644429203399
12:09:30,0,R24,City Hall,-74.006978,40.713282,787.2661085755037
12:09:30,0,R25,Cortlandt St,-74.011029,40.710668,663.4418588742388
12:09:30,0,R26,Rector St,-74.013342,40.70722,503.490536122916
12:09:30,0,R27,Whitehall St-South Ferry,-74.012994,40.703087,437.0214285714286
12:09:30,0,R28,Court St,-73.991777,40.6941,195.20000000000002
12:09:30,0,R29,Jay St-MetroTech,-73.985942,40.69218,94.75795383655645
12:01:00,0,R30,DeKalb Av,-73.981824,40.690635,0.0
12:08:00,0,R31,Atlantic Av-Barclays Ctr,-73.97881,40.683666,159.3
12:08:00,0,R32,Union St,-73.98311,40.677316,284.5
12:08:00,0,R33,4 Av-9 St,-73.988302,40.670847,390.1
12:08:00,0,R34,Prospect Av,-73.992872,40.665414,502.67894736842106
12:08:00,0,R35,25 St,-73.998091,40.660397,572.8052631578948
12:08:00,0,R36,36 St,-74.003549,40.655144,582.6865834770479
12:08:00,0,R39,45 St,-74.010006,40.648939,790.7325829948002
12:08:00,0,R40,53 St,-74.014034,40.645069,884.5079453136408
12:08:00,0,R41,59 St,-74.017881,40.641362,957.5463054580201
12:08:00,0,R42,Bay Ridge Av,-74.023377,40.634967,1122.0205542442282
12:08:00,0,R43,77 St,-74.02551,40.629742,1204.6292213486272
12:08:00,0,R44,86 St,-74.028398,40.622687,1389.0811564297758
12:08:00,0,R45,Bay Ridge-95 St,-74.030876,40.616622,1457.6628955602107
12:12:00,0,S01,Franklin Av,-73.955827,40.680596,752.4696165852399
12:12:00,0,S03,Park Pl,-73.957624,40.674772,824.8744358448342
12:12:00,0,S04,Botanic Garden,-73.959245,40.670343,738.9477182875823
