start_time,ntransfers,stop_id,stop_name,stop_lon,stop_lat,duration
12:12:00,0,101,Van Cortlandt Park-242 St,-73.898583,40.889248,3548.143836498261
12:12:00,0,103,238 St,-73.90087,40.884667,3482.9374258518224
12:12:00,0,104,231 St,-73.904834,40.878856,3396.9374258518224
12:12:00,0,106,Marble Hill-225 St,-73.909831,40.874561,3316.9374258518224
12:12:00,0,107,215 St,-73.915279,40.869444,3226.9374258518224
12:12:00,0,108,207 St,-73.918822,40.864621,3154.937425851822
12:12:00,0,109,Dyckman St,-73.925536,40.860531,3087.143836498261
12:12:00,0,110,191 St,-73.929412,40.855225,3012.143836498261
12:12:00,0,111,181 St,-73.933596,40.849505,2925.1438364982605
12:12:00,0,112,168 St-Washington Hts,-73.940133,40.840556,2813.1438364982605
12:12:00,0,113,157 St,-73.94489,40.834041,2906.1438364982605
12:12:00,0,114,145 St,-73.95036,40.826551,2842.2295899391174
12:12:00,0,115,137 St-City College,-73.953676,40.822008,2784.2295899391174
12:12:00,0,116,125 St,-73.958372,40.815581,2701.2295899391174
12:12:00,0,117,116 St-Columbia University,-73.96411,40.807722,2593.2295899391174
12:12:00,0,118,Cathedral Pkwy (110 St),-73.966847,40.803967,2525.2295899391174
12:12:00,0,119,103 St,-73.968379,40.799446,2449.2295899391174
12:04:00,0,120,96 St,-73.972323,40.793919,2079.25
12:12:00,0,121,86 St,-73.976218,40.788644,2193.0
12:12:00,0,122,79 St,-73.979917,40.783934,2254.0
12:04:00,0,123,72 St,-73.98197,40.778453,2240.25
12:20:00,0,124,66 St-Lincoln Center,-73.982209,40.77344,2377.39790725708
12:20:00,0,125,59 St-Columbus Circle,-73.981929,40.768247,2465.39790725708
12:20:00,0,126,50 St,-73.983849,40.761728,2559.39790725708
12:04:00,0,127,Times Sq-42 St,-73.987495,40.75529,2460.0
12:04:00,0,128,34 St-Penn Station,-73.991057,40.750373,2553.0
12:12:00,0,129,28 St,-73.993365,40.747215,2623.0
12:12:00,0,130,23 St,-73.995657,40.744081,2688.0000000000005
12:12:00,0,131,18 St,-73.997871,40.74104,2751.0
12:04:00,0,132,14 St,-74.000201,40.737826,2700.0
12:12:00,0,133,Christopher St-Sheridan Sq,-74.002906,40.733422,2902.0
12:12:00,0,134,Houston St,-74.005367,40.728251,2978.0
12:12:00,0,135,Canal St,-74.006277,40.722854,3057.0
12:04:00,0,136,Franklin St,-74.006886,40.719318,3119.0
12:04:00,0,137,Chambers St,-74.009266,40.715478,2919.0
12:04:00,0,138,WTC Cortlandt,-74.012188,40.711835,3183.2540986537933
12:04:00,0,139,Rector St,-74.013783,40.707513,3254.254098653793
12:04:00,0,142,South Ferry,-74.013664,40.702068,3338.254098653793
12:18:00,0,201,Wakefield-241 St,-73.85062,40.903125,393.0
12:00:00,0,204,Nereid Av,-73.854376,40.898379,316.0
12:00:00,0,205,233 St,-73.857473,40.893193,244.0
12:00:00,0,206,225 St,-73.860341,40.888022,161.0
12:00:00,0,207,219 St,-73.862633,40.883895,88.0
12:00:00,0,208,Gun Hill Rd,-73.866256,40.87785,0.0
12:04:00,0,209,Burke Av,-73.867164,40.871356,56.25
12:04:00,0,210,Allerton Av,-73.867352,40.865462,153.25
12:04:00,0,211,Pelham Pkwy,-73.867615,40.857192,270.0
12:04:00,0,212,Bronx Park East,-73.868457,40.848828,379.0
12:04:00,0,213,E 180 St,-73.873488,40.841894,340.5
12:04:00,0,214,West Farms Sq-E Tremont Av,-73.880049,40.840295,471.49999999999994
12:04:00,0,215,174 St,-73.887734,40.837288,582.4999999999999
12:04:00,0,216,Freeman St,-73.891865,40.829993,690.5
12:04:00,0,217,Simpson St,-73.893064,40.824073,794.5
12:04:00,0,218,Intervale Av,-73.896736,40.822181,863.5
12:04:00,0,219,Prospect Av,-73.90177,40.819585,939.5000000000001
12:04:00,0,220,Jackson Av,-73.907807,40.81649,1028.5000000000002
12:04:00,0,221,3 Av-149 St,-73.917757,40.816109,1145.5
12:04:00,0,222,149 St-Grand Concourse,-73.926718,40.81841,1254.5
12:04:00,0,224,135 St,-73.94077,40.814229,1581.0
12:04:00,0,225,125 St,-73.945495,40.807754,1680.0
12:04:00,0,226,116 St,-73.949625,40.802098,1774.0
12:04:00,0,227,Central Park North (110 St),-73.951822,40.799075,1843.0
12:04:00,0,228,Park Place,-74.008811,40.713051,2998.0
12:04:00,0,229,Fulton St,-74.006571,40.709416,3084.431033372879
12:04:00,0,230,Wall St,-74.0091,40.706821,3152.4310333728786
12:04:00,0,231,Clark St,-73.993086,40.697466,3326.4310333728786
12:04:00,0,232,Borough Hall,-73.989998,40.693219,3427.431033372879
12:04:00,0,233,Hoyt St,-73.985065,40.690545,3380.9790070056915
12:04:00,1,234,Nevins St,-73.980492,40.688246,3248.7499999999995
12:04:00,1,235,Atlantic Av-Barclays Ctr,-73.977666,40.684359,3335.75
12:04:00,1,236,Bergen St,-73.975098,40.680829,3439.87195110321
12:04:00,1,237,Grand Army Plaza,-73.971046,40.675235,3542.3382370471954
12:04:00,1,238,Eastern Pkwy-Brooklyn Museum,-73.964375,40.671987,3634.3382370471954
12:04:00,1,239,Franklin Av-Medgar Evers College,-73.958131,40.670682,3594.7499999999995
12:04:00,0,241,President St-Medgar Evers College,-73.950683,40.667883,3727.75
12:04:00,0,242,Sterling St,-73.95085,40.662742,3811.7499999999995
12:04:00,0,243,Winthrop St,-73.9502,40.656652,3894.7499999999995
12:04:00,0,244,Church Av,-73.949575,40.650843,3956.7499999999995
13:48:00,0,245,Beverly Rd,-73.948959,40.645098,4017.7499999999995
13:48:00,0,246,Newkirk Av-Little Haiti,-73.948411,40.639967,4098.749999999999
13:48:00,0,247,Flatbush Av-Brooklyn College,-73.947642,40.632836,4190.749999999999
12:04:00,0,248,Nostrand Av,-73.950466,40.669847,3697.25
12:04:00,0,249,Kingston Av,-73.942161,40.669399,3770.25
12:04:00,1,250,Crown Hts-Utica Av,-73.932942,40.668897,3746.7499999999995
12:04:00,0,251,Sutter Av-Rutland Rd,-73.92261,40.664717,3866.5
12:04:00,0,252,Saratoga Av,-73.916327,40.661453,3972.4999999999995
12:04:00,0,253,Rockaway Av,-73.908946,40.662549,4057.2499999999995
12:04:00,0,254,Junius St,-73.902447,40.663515,4133.4610397815695
12:04:00,0,255,Pennsylvania Av,-73.894895,40.664635,4227.4610397815695
12:04:00,0,256,Van Siclen Av,-73.889395,40.665449,4299.924453020095
12:04:00,0,257,New Lots Av,-73.884079,40.666235,4356.4610397815695
12:04:00,0,301,Harlem-148 St,-73.93647,40.82388,1944.2314047813416
12:04:00,0,302,145 St,-73.936245,40.820421,1872.2314047813416
12:04:00,1,401,Woodlawn,-73.878751,40.886037,2617.8223676681523
12:04:00,1,402,Mosholu Pkwy,-73.884655,40.87975,2523.822367668152
12:04:00,1,405,Bedford Park Blvd-Lehman College,-73.890064,40.873412,2423.8223676681523
12:04:00,1,406,Kingsbridge Rd,-73.897174,40.86776,2316.8223676681523
12:04:00,1,407,Fordham Rd,-73.901034,40.862803,2225.8223676681523
12:04:00,1,408,183 St,-73.903879,40.858407,2146.822367668152
12:04:00,1,409,Burnside Av,-73.907684,40.853453,2055.8223676681523
12:04:00,1,410,176 St,-73.911794,40.84848,1994.8223676681523
12:04:00,1,411,Mt Eden Av,-73.914685,40.844434,1921.822367668152
12:04:00,1,412,170 St,-73.917791,40.840075,1845.8223676681519
12:04:00,1,413,167 St,-73.9214,40.835537,1761.822367668152
12:04:00,1,414,161 St-Yankee Stadium,-73.925831,40.827994,1652.822367668152
12:04:00,1,415,149 St-Grand Concourse,-73.927351,40.818375,1522.8223676681519
12:04:00,1,416,138 St-Grand Concourse,-73.929849,40.813224,1396.5000000000002
12:04:00,1,418,Fulton St,-74.009509,40.710368,2741.5
12:04:00,1,419,Wall St,-74.011862,40.707557,2812.75
12:04:00,1,420,Bowling Green,-74.014065,40.704817,2881.7499999999995
12:04:00,1,423,Borough Hall,-73.990151,40.692404,3120.7499999999995
13:40:00,0,501,Eastchester-Dyre Av,-73.830834,40.8883,975.5
12:36:00,0,502,Baychester Av,-73.838591,40.878663,861.5
12:36:00,0,503,Gun Hill Rd,-73.846384,40.869526,766.5
12:36:00,0,504,Pelham Pkwy,-73.855359,40.858985,636.5
12:36:00,0,505,Morris Park,-73.860495,40.854364,547.5
13:32:00,0,601,Pelham Bay Park,-73.828121,40.852462,3055.642858505249
13:32:00,0,602,Buhre Av,-73.832569,40.84681,2944.6428585052486
13:32:00,0,603,Middletown Rd,-73.836322,40.843863,2875.642858505249
13:32:00,0,604,Westchester Sq-E Tremont Av,-73.842952,40.839892,2783.642858505249
13:32:00,0,606,Zerega Av,-73.847036,40.836488,2708.892858505249
13:32:00,0,607,Castle Hill Av,-73.851222,40.834255,2644.892858505249
12:20:00,0,608,Parkchester,-73.860816,40.833226,2523.892858505249
12:20:00,0,609,St Lawrence Av,-73.867618,40.831509,2759.4871706962585
12:20:00,0,610,Morrison Av-Soundview,-73.874516,40.829521,2680.487170696258
12:20:00,0,611,Elder Av,-73.879159,40.828584,2617.4871706962585
12:20:00,0,612,Whitlock Av,-73.886283,40.826525,2524.4871706962585
12:04:00,1,613,Hunts Point Av,-73.890549,40.820948,2316.642858505249
12:04:00,1,614,Longwood Av,-73.896435,40.816104,2400.9883737564087
12:04:00,1,615,E 149 St,-73.904098,40.812118,2307.988373756409
12:04:00,1,616,E 143 St-St Mary's St,-73.907657,40.808719,2237.988373756409
12:04:00,1,617,Cypress Av,-73.914042,40.805368,2127.988373756409
12:04:00,1,618,Brook Av,-73.91924,40.807566,2058.988373756409
12:04:00,1,619,3 Av-138 St,-73.926138,40.810476,1962.988373756409
12:04:00,1,621,125 St,-73.937594,40.804138,1561.5000000000002
12:04:00,1,622,116 St,-73.941617,40.798629,1880.9883737564087
12:04:00,1,623,110 St,-73.94425,40.79502,1954.9883737564087
12:04:00,1,624,103 St,-73.947478,40.7906,2027.9883737564087
12:04:00,1,625,96 St,-73.95107,40.785672,2111.9883737564087
12:04:00,1,626,86 St,-73.955589,40.779492,1826.5000000000002
12:04:00,1,627,77 St,-73.959874,40.77362,2205.6578969955444
12:04:00,1,628,68 St-Hunter College,-73.96387,40.768141,2295.6578969955444
12:04:00,1,629,59 St,-73.967967,40.762526,2014.5000000000002
12:04:00,1,630,51 St,-73.97192,40.757107,2332.5
12:04:00,1,631,Grand Central-42 St,-73.976848,40.751776,2165.5
12:04:00,1,632,33 St,-73.982076,40.746081,2425.0
12:04:00,1,633,28 St,-73.984264,40.74307,2489.0
12:04:00,1,634,23 St,-73.986599,40.739864,2555.0
12:04:00,1,635,14 St-Union Sq,-73.989951,40.734673,2393.5
12:04:00,1,636,Astor Pl,-73.99107,40.730054,2690.957143306732
12:04:00,1,637,Bleecker St,-73.994659,40.725915,2778.957143306732
12:04:00,1,638,Spring St,-73.997141,40.722301,2841.5
12:04:00,1,639,Canal St,-74.000193,40.718803,2767.5
12:04:00,1,640,Brooklyn Bridge-City Hall,-74.004131,40.713065,2634.5
12:04:00,2,701,Flushing-Main St,-73.83003,40.7596,3520.6970517635345
12:04:00,2,702,Mets-Willets Point,-73.845625,40.754622,3377.6970517635345
12:04:00,2,705,111 St,-73.855334,40.75173,3394.014563560486
12:04:00,2,706,103 St-Corona Plaza,-73.8627,40.749865,3326.014563560486
12:04:00,2,707,Junction Blvd,-73.869527,40.749145,3186.697051763535
12:04:00,2,708,90 St-Elmhurst Av,-73.876613,40.748408,3208.014563560486
12:36:00,2,709,82 St-Jackson Hts,-73.883697,40.747659,3142.014563560486
12:04:00,3,710,74 St-Broadway,-73.891394,40.746848,3001.3991782665253
12:04:00,3,711,69 St,-73.896403,40.746325,2961.3991782665253
12:04:00,3,712,61 St-Woodside,-73.902984,40.74563,2895.3991782665253
12:04:00,1,713,52 St,-73.912549,40.744149,2781.0145635604863
12:04:00,1,714,46 St-Bliss St,-73.918435,40.743132,2731.0145635604863
12:04:00,1,715,40 St-Lowery St,-73.924016,40.743781,2681.014563560486
12:04:00,1,716,33 St-Rawson St,-73.930997,40.744587,2622.014563560486
12:04:00,1,718,Queensboro Plaza,-73.940202,40.750582,2493.014563560486
12:04:00,1,719,Court Sq,-73.945264,40.747023,2585.014563560486
12:04:00,1,720,Hunters Point Av,-73.948916,40.742216,2546.0
12:04:00,1,721,Vernon Blvd-Jackson Av,-73.953581,40.742626,2521.0
12:04:00,2,723,Grand Central-42 St,-73.976041,40.751431,2319.0
12:04:00,2,724,5 Av,-73.981963,40.753821,2354.0
12:04:00,2,725,Times Sq-42 St,-73.987691,40.755477,2421.0
12:04:00,1,726,34 St-Hudson Yards,-74.00191,40.755882,2577.9999999999995
12:04:00,1,901,Grand Central-42 St,-73.979189,40.752769,2259.0
12:04:00,2,902,Times Sq-42 St,-73.986229,40.755983,2344.0
13:24:00,1,A02,Inwood-207 St,-73.919899,40.868072,3073.6547052860255
13:24:00,1,A03,Dyckman St,-73.927271,40.865491,3003.654705286026
13:24:00,1,A05,190 St,-73.93418,40.859022,2883.654705286026
13:24:00,1,A06,181 St,-73.937969,40.851695,2776.654705286026
13:24:00,1,A07,175 St,-73.939704,40.847391,2707.654705286026
12:04:00,3,A09,168 St,-73.939561,40.840719,2587.654705286026
12:04:00,3,A10,163 St-Amsterdam Av,-73.939892,40.836013,2530.6547052860265
12:04:00,3,A11,155 St,-73.941514,40.830518,2460.904705286026
12:28:00,2,A12,145 St,-73.944216,40.824783,2259.6303153038025
12:28:00,2,A14,135 St,-73.947649,40.817894,2205.6303153038025
13:48:00,2,A15,125 St,-73.952343,40.811109,2321.630315303803
12:04:00,2,A16,116 St,-73.954882,40.805085,2431.6303153038025
12:04:00,2,A17,Cathedral Pkwy (110 St),-73.958161,40.800603,2497.630315303803
12:04:00,2,A18,103 St,-73.961454,40.796092,2557.630315303803
12:20:00,1,A19,96 St,-73.964696,40.791642,2624.630315303803
12:20:00,1,A20,86 St,-73.968916,40.785868,2694.6303153038025
12:20:00,1,A21,81 St-Museum of Natural History,-73.972143,40.781433,2759.630315303803
12:20:00,1,A22,72 St,-73.97641,40.775594,2740.0
12:12:00,1,A24,59 St-Columbus Circle,-73.981736,40.768296,2595.0
13:32:00,1,A25,50 St,-73.985984,40.762456,2535.0
13:32:00,1,A27,42 St-Port Authority Bus Terminal,-73.989735,40.757308,2460.0
13:48:00,1,A28,34 St-Penn Station,-73.993391,40.752287,2533.0
13:48:00,1,A30,23 St,-73.998041,40.745906,2627.0
13:48:00,1,A31,14 St,-74.00169,40.740893,2656.0
13:48:00,1,A32,W 4 St-Wash Sq,-74.000495,40.732338,2776.0
13:48:00,1,A33,Spring St,-74.003739,40.726227,2928.0
13:48:00,1,A34,Canal St,-74.005229,40.720824,2926.0
12:44:00,1,A36,Chambers St,-74.008585,40.714111,3039.431033372879
12:28:00,1,A38,Fulton St,-74.007691,40.710197,2964.431033372879
12:04:00,2,A40,High St,-73.990531,40.699337,3139.4310333728786
12:04:00,2,A41,Jay St-MetroTech,-73.987342,40.692338,3259.4310333728786
12:04:00,2,A42,Hoyt-Schermerhorn Sts,-73.985001,40.688484,3359.4310333728786
12:28:00,1,A43,Lafayette Av,-73.973946,40.686113,3484.4310333728786
12:28:00,1,A44,Clinton-Washington Avs,-73.965838,40.683263,3549.431033372879
12:28:00,1,A45,Franklin Av,-73.956848,40.68138,3626.4310333728786
12:04:00,2,A46,Nostrand Av,-73.950426,40.680438,3602.4310333728786
12:28:00,1,A47,Kingston-Throop Avs,-73.940858,40.679921,3683.1810333728786
12:04:00,2,A48,Utica Av,-73.930729,40.679364,3756.1810333728786
12:28:00,1,A49,Ralph Av,-73.920786,40.678822,3861.181033372878
12:52:00,1,A50,Rockaway Av,-73.911946,40.67834,3916.779427051543
12:04:00,2,A51,Broadway Junction,-73.905316,40.678334,3850.7794270515433
12:44:00,1,A52,Liberty Av,-73.896548,40.674542,3970.7794270515433
12:44:00,1,A53,Van Siclen Av,-73.890358,40.67271,4045.7794270515433
12:44:00,1,A54,Shepherd Av,-73.88075,40.67413,4123.779427051543
12:04:00,2,A55,Euclid Av,-73.872106,40.675377,4127.779427051543
12:04:00,2,A57,Grant Av,-73.86505,40.677044,4240.779427051543
12:04:00,2,A59,80 St,-73.858992,40.679371,4310.779427051543
12:04:00,2,A60,88 St,-73.85147,40.679843,4383.779427051543
12:04:00,2,A61,Rockaway Blvd,-73.843853,40.680429,4448.779427051543
12:04:00,2,A63,104 St,-73.837683,40.681711,4513.779427051543
12:04:00,2,A64,111 St,-73.832163,40.684331,4575.779427051543
12:04:00,2,A65,Ozone Park-Lefferts Blvd,-73.825798,40.685951,4645.779427051543
12:04:00,2,B04,21 St-Queensbridge,-73.942836,40.754203,2560.108697891236
12:04:00,2,B06,Roosevelt Island,-73.95326,40.759145,2452.592589855194
12:04:00,2,B08,Lexington Av/63 St,-73.966113,40.764629,2374.5
12:04:00,2,B10,57 St,-73.97745,40.763972,2539.5
12:36:00,1,B12,9 Av,-73.994324,40.646292,4172.979007005691
12:36:00,1,B13,Fort Hamilton Pkwy,-73.994304,40.640914,4249.979007005691
12:36:00,1,B14,50 St,-73.994791,40.63626,4311.979007005691
12:36:00,1,B15,55 St,-73.995476,40.631435,4386.979007005691
12:36:00,1,B16,62 St,-73.996895,40.626472,4441.979007005691
12:36:00,1,B17,71 St,-73.998864,40.619589,4521.979007005691
12:36:00,1,B18,79 St,-74.00061,40.613501,4601.979007005691
12:36:00,1,B19,18 Av,-74.001736,40.607954,4664.97900700569
12:36:00,1,B20,20 Av,-73.998168,40.604556,4728.97900700569
12:36:00,1,B21,Bay Pkwy,-73.993728,40.601875,4788.97900700569
13:16:00,1,B22,25 Av,-73.986829,40.597704,4903.97900700569
13:16:00,1,B23,Bay 50 St,-73.983765,40.588841,5040.97900700569
12:36:00,2,D01,Norwood-205 St,-73.878855,40.874811,2678.1303153038025
12:36:00,2,D03,Bedford Park Blvd,-73.887138,40.873244,2563.130315303803
12:36:00,2,D04,Kingsbridge Rd,-73.893509,40.866978,2463.130315303803
12:36:00,2,D05,Fordham Rd,-73.897749,40.861296,2383.130315303803
12:36:00,2,D06,182-183 Sts,-73.900741,40.856093,2313.130315303803
12:36:00,2,D07,Tremont Av,-73.905227,40.85041,2249.130315303803
12:36:00,2,D08,174-175 Sts,-73.910136,40.8459,2176.6303153038025
12:36:00,2,D09,170 St,-73.9134,40.839306,2096.6303153038025
12:36:00,2,D10,167 St,-73.91844,40.833771,2011.6303153038027
13:24:00,2,D11,161 St-Yankee Stadium,-73.925651,40.827905,1906.6303153038027
12:28:00,2,D12,155 St,-73.938209,40.830135,2023.630315303803
12:28:00,2,D13,145 St,-73.944216,40.824783,2136.630315303803
13:08:00,1,D14,7 Av,-73.981637,40.762862,2600.7500000000005
12:04:00,2,D15,47-50 Sts-Rockefeller Ctr,-73.981329,40.758663,2629.5
12:04:00,2,D16,42 St-Bryant Pk,-73.984569,40.754222,2579.0
12:04:00,2,D17,34 St-Herald Sq,-73.987823,40.749719,2641.0
12:04:00,2,D18,23 St,-73.992821,40.742878,2751.0
12:04:00,2,D19,14 St,-73.996209,40.738228,2811.0
12:36:00,1,D20,W 4 St-Wash Sq,-74.000495,40.732338,2816.0
12:36:00,1,D21,Broadway-Lafayette St,-73.996204,40.725297,2941.0000000000005
13:00:00,1,D22,Grand St,-73.993753,40.718267,3061.0000000000005
12:12:00,1,D24,Atlantic Av-Barclays Ctr,-73.97689,40.68446,3532.0
12:04:00,2,D25,7 Av,-73.972367,40.67705,3652.0
12:04:00,2,D26,Prospect Park,-73.962246,40.661614,3827.0
12:12:00,1,D27,Parkside Av,-73.961495,40.655292,3897.0
12:04:00,2,D28,Church Av,-73.962982,40.650527,3995.2500000000005
12:12:00,1,D29,Beverley Rd,-73.964492,40.644031,4050.2500000000005
12:12:00,1,D30,Cortelyou Rd,-73.963891,40.640927,4110.250000000001
12:04:00,2,D31,Newkirk Plaza,-73.962793,40.635082,4161.9790070056915
12:12:00,1,D32,Avenue H,-73.961639,40.62927,4263.299007892609
12:12:00,1,D33,Avenue J,-73.960803,40.625039,4333.299007892609
12:12:00,1,D34,Avenue M,-73.959399,40.617618,4423.299007892609
12:04:00,2,D35,Kings Hwy,-73.957734,40.60867,4388.2290070056915
12:04:00,2,D37,Avenue U,-73.955929,40.5993,4578.239319086075
12:04:00,2,D38,Neck Rd,-73.955161,40.595246,4645.239319086075
12:04:00,2,D39,Sheepshead Bay,-73.954155,40.586896,4593.2290070056915
12:04:00,2,D40,Brighton Beach,-73.961376,40.577621,4676.7290070056915
12:04:00,2,D41,Ocean Pkwy,-73.968501,40.576312,4870.9790070056915
12:04:00,2,D42,W 8 St-NY Aquarium,-73.975939,40.576127,4939.837282180786
12:04:00,2,D43,Coney Island-Stillwell Av,-73.981233,40.577422,5017.9790070056915
12:36:00,1,E01,World Trade Center,-74.009781,40.712582,3049.7919063568115
12:04:00,2,F01,Jamaica-179 St,-73.783817,40.712646,3884.108697891235
12:20:00,1,F02,169 St,-73.793604,40.71047,3832.1086978912354
12:04:00,2,F03,Parsons Blvd,-73.803326,40.707564,3712.1086978912354
12:04:00,2,F04,Sutphin Blvd,-73.810708,40.70546,3647.1086978912354
12:04:00,2,F05,Briarwood,-73.820574,40.709179,3527.1086978912354
12:04:00,2,F06,Kew Gardens-Union Tpke,-73.831008,40.714441,3407.1086978912354
12:04:00,2,F07,75 Av,-73.837324,40.718331,3329.1086978912354
12:04:00,2,F09,Court Sq-23 St,-73.946,40.747846,2705.014563560486
12:20:00,1,F11,Lexington Av/53 St,-73.969055,40.757552,2561.447367668152
12:20:00,1,F12,5 Av/53 St,-73.975224,40.760167,2626.447367668152
12:36:00,1,F14,2 Av,-73.989938,40.723402,3066.185715675354
12:36:00,1,F15,Delancey St-Essex St,-73.988114,40.718611,3143.185715675354
12:36:00,1,F16,East Broadway,-73.990173,40.713715,3208.185715675354
12:36:00,1,F18,York St,-73.986751,40.701397,3334.185715675354
13:08:00,1,F20,Bergen St,-73.990862,40.686145,3512.0872821807857
13:08:00,1,F21,Carroll St,-73.995048,40.680303,3604.6162178516383
13:08:00,1,F22,Smith-9 Sts,-73.995959,40.67358,3725.616217851638
13:08:00,1,F23,4 Av-9 St,-73.989779,40.670272,3787.616217851638
13:08:00,1,F24,7 Av,-73.980305,40.666271,3752.0872821807857
13:08:00,1,F25,15 St-Prospect Park,-73.979493,40.660365,3908.25242114067
13:08:00,1,F26,Fort Hamilton Pkwy,-73.975776,40.650782,4038.2524211406703
13:08:00,1,F27,Church Av,-73.979678,40.644041,3990.3372821807857
13:08:00,1,F29,Ditmas Av,-73.978172,40.636119,4115.837282180785
13:08:00,1,F30,18 Av,-73.976971,40.629755,4226.087282180786
13:08:00,1,F31,Avenue I,-73.976127,40.625322,4287.837282180786
13:08:00,1,F32,Bay Pkwy,-73.975264,40.620769,4350.837282180786
13:08:00,1,F33,Avenue N,-73.974197,40.61514,4423.337282180785
13:08:00,1,F34,Avenue P,-73.973022,40.608944,4486.587282180785
13:08:00,1,F35,Kings Hwy,-73.972361,40.603217,4563.837282180785
13:32:00,1,F36,Avenue U,-73.973357,40.596063,4670.837282180784
13:32:00,1,F38,Avenue X,-73.97425,40.58962,4743.587282180785
12:12:00,1,F39,Neptune Av,-73.974574,40.581011,4858.587282180785
12:36:00,1,G05,Jamaica Center-Parsons/Archer,-73.801109,40.702147,3874.59424495697
12:36:00,1,G06,Sutphin Blvd-Archer Av-JFK Airport,-73.807969,40.700486,3799.5942449569698
12:36:00,1,G07,Jamaica-Van Wyck,-73.816859,40.702566,3684.5942449569698
12:04:00,2,G08,Forest Hills-71 Av,-73.844521,40.721691,3214.1086978912354
13:48:00,1,G09,67 Av,-73.852719,40.726523,3384.108697891236
13:48:00,1,G10,63 Dr-Rego Park,-73.861604,40.729846,3404.9698095321655
13:48:00,1,G11,Woodhaven Blvd,-73.869229,40.733106,3334.9698095321655
13:48:00,1,G12,Grand Av-Newtown,-73.877223,40.737015,3249.969809532166
13:48:00,1,G13,Elmhurst Av,-73.882017,40.742454,3179.969809532166
12:04:00,2,G14,Jackson Hts-Roosevelt Av,-73.891338,40.746644,2850.108697891236
12:04:00,1,G15,65 St,-73.898453,40.749669,3049.4090898036957
12:04:00,1,G16,Northern Blvd,-73.906006,40.752885,2979.4090898036957
12:04:00,1,G18,46 St,-73.913333,40.756312,2909.409089803696
12:04:00,1,G19,Steinway St,-73.92074,40.756879,2829.4090898036957
12:04:00,1,G20,36 St,-73.928781,40.752039,2714.409089803696
12:04:00,2,G21,Queens Plaza,-73.937243,40.748973,2604.4090898036957
13:08:00,2,G22,Court Sq,-73.943832,40.746554,2645.014563560486
13:08:00,2,G24,21 St,-73.949724,40.744065,2715.014563560486
13:08:00,2,G26,Greenpoint Av,-73.954449,40.731352,2837.014563560486
13:08:00,2,G28,Nassau Av,-73.951277,40.724635,2943.014563560486
13:08:00,2,G29,Metropolitan Av,-73.951418,40.712792,3068.014563560486
13:08:00,2,G30,Broadway,-73.950308,40.706092,3133.014563560486
13:08:00,2,G31,Flushing Av,-73.950234,40.700377,3203.014563560486
13:08:00,2,G32,Myrtle-Willoughby Avs,-73.949046,40.694568,3268.014563560486
12:04:00,2,G33,Bedford-Nostrand Avs,-73.953522,40.689627,3352.514563560486
12:28:00,1,G34,Classon Av,-73.96007,40.688873,3417.514563560486
12:28:00,1,G35,Clinton-Washington Avs,-73.966839,40.688089,3480.514563560486
12:28:00,1,G36,Fulton St,-73.975375,40.687119,3550.514563560486
13:32:00,1,H01,Aqueduct Racetrack,-73.834058,40.668234,4628.779427051543
12:12:00,1,H02,Aqueduct-N Conduit Av,-73.834058,40.668234,4683.200169801711
12:12:00,1,H03,Howard Beach-JFK Airport,-73.830301,40.660476,4755.779427051543
12:12:00,1,H04,Broad Channel,-73.815925,40.608382,5174.779427051543
12:12:00,1,H06,Beach 67 St,-73.796924,40.590927,5451.779427051542
12:12:00,1,H07,Beach 60 St,-73.788522,40.592374,5529.029427051542
12:12:00,1,H08,Beach 44 St,-73.776013,40.592943,5614.029427051542
12:12:00,1,H09,Beach 36 St,-73.768175,40.595398,5689.029427051542
12:12:00,1,H10,Beach 25 St,-73.761353,40.600066,5767.029427051542
12:12:00,1,H11,Far Rockaway-Mott Av,-73.755405,40.603995,5832.029427051542
12:12:00,1,H12,Beach 90 St,-73.813641,40.588034,5414.779427051543
12:12:00,1,H13,Beach 98 St,-73.820558,40.585307,5479.779427051542
12:12:00,1,H14,Beach 105 St,-73.827559,40.583209,5543.779427051542
12:12:00,1,H15,Rockaway Park-Beach 116 St,-73.835592,40.580903,5618.779427051542
12:36:00,1,J12,121 St,-73.828294,40.700492,4048.5942449569698
12:36:00,1,J13,111 St,-73.836345,40.697418,4049.5942449569698
12:36:00,1,J14,104 St,-73.84433,40.695178,4160.594244956969
12:36:00,1,J15,Woodhaven Blvd,-73.851576,40.693879,4250.594244956969
12:36:00,1,J16,85 St-Forest Pkwy,-73.86001,40.692435,4380.779427051542
12:36:00,1,J17,75 St-Elderts Ln,-73.867139,40.691324,4273.9610397815695
12:36:00,1,J19,Cypress Hills,-73.87255,40.689941,4260.779427051542
12:36:00,1,J20,Crescent St,-73.873785,40.683194,4174.46103978157
12:44:00,1,J21,Norwood Av,-73.880039,40.68141,4133.4610397815695
12:44:00,1,J22,Cleveland St,-73.884639,40.679947,4107.655215024947
12:44:00,1,J23,Van Siclen Av,-73.891688,40.678024,4000.7794270515433
12:28:00,2,J24,Alabama Av,-73.898654,40.676992,3940.7794270515433
12:44:00,1,J27,Broadway Junction,-73.904512,40.679498,3837.46103978157
12:44:00,1,J28,Chauncey St,-73.910456,40.682893,3895.500000000001
12:44:00,1,J29,Halsey St,-73.916559,40.68637,3827.5000000000005
12:44:00,1,J30,Gates Av,-73.92227,40.68963,3760.5000000000005
12:44:00,1,J31,Kosciuszko St,-73.928814,40.693342,3695.5
12:04:00,2,L01,8 Av,-74.002578,40.739777,2716.0
12:04:00,2,L02,6 Av,-73.996786,40.737335,2675.4610397815704
12:04:00,2,L03,14 St-Union Sq,-73.99073,40.734789,2607.4610397815704
12:04:00,1,L05,3 Av,-73.986122,40.732849,2661.4610397815704
12:04:00,1,L06,1 Av,-73.981628,40.730953,2686.46103978157
12:04:00,1,L08,Bedford Av,-73.956872,40.717304,2876.46103978157
12:04:00,1,L10,Lorimer St,-73.950275,40.714063,2958.46103978157
12:04:00,1,L11,Graham Av,-73.944053,40.714565,2988.46103978157
12:04:00,1,L12,Grand St,-73.94067,40.711926,3063.46103978157
12:04:00,1,L13,Montrose Av,-73.93985,40.707739,3096.46103978157
12:04:00,1,L14,Morgan Av,-73.933147,40.706152,3147.46103978157
12:04:00,1,L15,Jefferson St,-73.922913,40.706607,3224.46103978157
12:04:00,1,L16,DeKalb Av,-73.918425,40.703811,3283.46103978157
12:04:00,1,L17,Myrtle-Wyckoff Avs,-73.911586,40.699814,3349.46103978157
12:04:00,1,L19,Halsey St,-73.904084,40.695602,3378.46103978157
12:04:00,1,L20,Wilson Av,-73.904046,40.688764,3488.46103978157
12:04:00,1,L21,Bushwick Av-Aberdeen St,-73.905249,40.682829,3571.46103978157
12:04:00,1,L22,Broadway Junction,-73.90324,40.678856,3612.46103978157
12:04:00,1,L24,Atlantic Av,-73.903097,40.675345,3691.46103978157
12:04:00,1,L25,Sutter Av,-73.901975,40.669367,3753.46103978157
12:04:00,1,L26,Livonia Av,-73.900571,40.664038,3803.46103978157
12:04:00,1,L27,New Lots Av,-73.899232,40.658733,3838.4610397815704
12:04:00,1,L28,East 105 St,-73.899485,40.650573,3922.4610397815704
13:24:00,1,L29,Canarsie-Rockaway Pkwy,-73.90185,40.646654,3997.4610397815704
12:04:00,2,M01,Middle Village-Metropolitan Av,-73.889601,40.711396,3852.4514241218567
12:04:00,2,M04,Fresh Pond Rd,-73.895877,40.706186,3791.96103978157
12:04:00,2,M05,Forest Av,-73.903077,40.704423,3714.4514241218562
12:44:00,2,M06,Seneca Av,-73.90774,40.702762,3642.4514241218562
13:00:00,1,M08,Myrtle-Wyckoff Avs,-73.912385,40.69943,3574.46103978157
12:04:00,2,M09,Knickerbocker Av,-73.919711,40.698664,3652.46103978157
13:00:00,1,M10,Central Av,-73.927397,40.697857,3748.4126214981084
13:00:00,1,M11,Myrtle Av,-73.935657,40.697207,3590.5
13:00:00,1,M12,Flushing Av,-73.941126,40.70026,3551.5
13:00:00,1,M13,Lorimer St,-73.947408,40.703869,3485.4999999999995
13:00:00,1,M14,Hewes St,-73.953431,40.70687,3415.5
13:00:00,1,M16,Marcy Av,-73.957757,40.708359,3345.5
13:00:00,1,M18,Delancey St-Essex St,-73.987437,40.718315,2992.5
12:04:00,1,M19,Bowery,-73.993915,40.72028,2930.5
12:04:00,1,M20,Canal St,-73.999892,40.718092,2824.4999999999995
12:04:00,2,M21,Chambers St,-74.003401,40.713243,2754.5
12:44:00,1,M22,Fulton St,-74.007582,40.710374,2819.5
12:44:00,1,M23,Broad St,-74.011056,40.706476,2883.5
12:36:00,1,N02,8 Av,-74.011719,40.635064,4231.752429962158
12:36:00,1,N03,Fort Hamilton Pkwy,-74.005351,40.631386,4326.219626903533
12:36:00,1,N04,New Utrecht Av,-73.996353,40.624842,4438.969626903533
12:36:00,1,N05,18 Av,-73.990414,40.620671,4512.219626903533
12:36:00,1,N06,20 Av,-73.985026,40.61741,4577.219626903532
12:36:00,1,N07,Bay Pkwy,-73.981848,40.611815,4647.219626903533
12:36:00,1,N08,Kings Hwy,-73.980353,40.603923,4752.219626903533
12:36:00,1,N09,Avenue U,-73.979137,40.597473,4822.219626903533
12:36:00,1,N10,86 St,-73.97823,40.592721,4902.219626903533
12:36:00,1,Q01,Canal St,-74.00046,40.718383,2903.219626903534
12:04:00,2,Q03,72 St,-73.958424,40.768799,2494.5
12:04:00,2,Q04,86 St,-73.951787,40.777891,2613.5
12:04:00,2,Q05,96 St,-73.947152,40.784318,2669.75
13:56:00,1,R01,Astoria-Ditmars Blvd,-73.912034,40.775036,2950.0145618915562
13:56:00,1,R03,Astoria Blvd,-73.917843,40.770258,2893.0145618915562
13:56:00,1,R04,30 Av,-73.921479,40.766779,2821.014561891556
13:56:00,1,R05,Broadway,-73.925508,40.76182,2756.014561891556
13:56:00,1,R06,36 Av,-73.929575,40.756804,2681.014561891556
13:56:00,1,R08,39 Av-Dutch Kills,-73.932755,40.752882,2621.014561891556
13:56:00,1,R09,Queensboro Plaza,-73.940202,40.750582,2446.014561891556
12:04:00,2,R11,Lexington Av/59 St,-73.967258,40.76266,2244.014561891556
12:04:00,2,R13,5 Av/59 St,-73.973347,40.764811,2314.014561891556
12:04:00,2,R14,57 St-7 Av,-73.980658,40.764664,2434.014561891556
12:04:00,2,R15,49 St,-73.984139,40.759901,2527.0
12:04:00,2,R16,Times Sq-42 St,-73.986754,40.754672,2460.0
12:36:00,1,R17,34 St-Herald Sq,-73.98795,40.749567,2535.0
12:20:00,1,R18,28 St,-73.988691,40.745494,2610.5
12:04:00,1,R19,23 St,-73.989344,40.741303,2670.5
12:04:00,2,R20,14 St-Union Sq,-73.990568,40.735736,2618.5
12:04:00,2,R21,8 St-NYU,-73.992629,40.730328,2718.5
12:04:00,2,R22,Prince St,-73.997702,40.724329,2786.5
12:04:00,2,R23,Canal St,-74.001775,40.719527,2861.5
12:04:00,2,R24,City Hall,-74.006978,40.713282,2981.5
12:04:00,2,R25,Cortlandt St,-74.011029,40.710668,3096.4999999999995
12:04:00,2,R26,Rector St,-74.013342,40.70722,3171.4999999999995
12:04:00,2,R27,Whitehall St-South Ferry,-74.012994,40.703087,3241.4999999999995
12:04:00,2,R28,Court St,-73.991777,40.6941,3360.0147063732143
12:12:00,1,R29,Jay St-MetroTech,-73.985942,40.69218,3394.4310333728786
12:12:00,1,R30,DeKalb Av,-73.981824,40.690635,3390.0
12:36:00,1,R31,Atlantic Av-Barclays Ctr,-73.97881,40.683666,3506.219626903534
13:08:00,1,R32,Union St,-73.98311,40.677316,3581.219626903534
13:08:00,1,R33,4 Av-9 St,-73.988302,40.670847,3656.219626903534
13:08:00,1,R34,Prospect Av,-73.992872,40.665414,3733.469626903534
13:08:00,1,R35,25 St,-73.998091,40.660397,3813.469626903534
12:36:00,1,R36,36 St,-74.003549,40.655144,3856.752429962158
13:08:00,1,R39,45 St,-74.010006,40.648939,3976.2196269035335
12:36:00,1,R40,53 St,-74.014034,40.645069,4043.219626903533
12:36:00,1,R41,59 St,-74.017881,40.641362,4091.219626903534
13:08:00,1,R42,Bay Ridge Av,-74.023377,40.634967,4245.760167121887
13:08:00,1,R43,77 St,-74.02551,40.629742,4308.760167121886
13:08:00,1,R44,86 St,-74.028398,40.622687,4433.760167121886
13:08:00,1,R45,Bay Ridge-95 St,-74.030876,40.616622,4494.760167121886
12:36:00,1,S01,Franklin Av,-73.955827,40.680596,3686.4310333728786
12:36:00,1,S03,Park Pl,-73.957624,40.674772,3805.4310333728786
12:04:00,2,S04,Botanic Garden,-73.959245,40.670343,3819.7499999999995
