start_time,ntransfers,stop_id,stop_name,stop_lon,stop_lat,duration
12:05:00,0,101,Van Cortlandt Park-242 St,-73.898583,40.889248,2684.3979072570805
12:05:00,0,103,238 St,-73.90087,40.884667,2626.39790725708
12:05:00,0,104,231 St,-73.904834,40.878856,2548.426831245423
12:05:00,0,106,Marble Hill-225 St,-73.909831,40.874561,2468.426831245423
12:05:00,0,107,215 St,-73.915279,40.869444,2378.426831245423
12:05:00,0,108,207 St,-73.918822,40.864621,2306.4268312454224
12:05:00,0,109,Dyckman St,-73.925536,40.860531,2223.39790725708
12:05:00,0,110,191 St,-73.929412,40.855225,2148.39790725708
12:05:00,0,111,181 St,-73.933596,40.849505,2061.39790725708
12:05:00,0,112,168 St-Washington Hts,-73.940133,40.840556,1949.3979072570799
12:05:00,0,113,157 St,-73.94489,40.834041,1856.3979072570799
12:05:00,0,114,145 St,-73.95036,40.826551,1748.3979072570799
12:05:00,0,115,137 St-City College,-73.953676,40.822008,1659.3979072570799
12:05:00,0,116,125 St,-73.958372,40.815581,1564.3979072570799
12:05:00,0,117,116 St-Columbia University,-73.96411,40.807722,1462.3979072570799
12:05:00,0,118,Cathedral Pkwy (110 St),-73.966847,40.803967,1388.3979072570799
12:05:00,0,119,103 St,-73.968379,40.799446,1314.3979072570799
12:01:00,0,120,96 St,-73.972323,40.793919,1106.0
12:09:00,0,121,86 St,-73.976218,40.788644,1126.3979072570799
12:09:00,0,122,79 St,-73.979917,40.783934,1061.3979072570799
12:01:00,0,123,72 St,-73.98197,40.778453,930.0000000000001
12:01:00,0,124,66 St-Lincoln Center,-73.982209,40.77344,1046.3979072570799
12:01:00,0,125,59 St-Columbus Circle,-73.981929,40.768247,1026.0
12:01:00,0,126,50 St,-73.983849,40.761728,930.0000000000001
12:01:00,0,127,Times Sq-42 St,-73.987495,40.75529,707.0000000000001
12:01:00,0,128,34 St-Penn Station,-73.991057,40.750373,614.0
12:05:00,0,129,28 St,-73.993365,40.747215,875.0
12:05:00,0,130,23 St,-73.995657,40.744081,810.0
12:05:00,0,131,18 St,-73.997871,40.74104,747.0
12:01:00,0,132,14 St,-74.000201,40.737826,467.0
12:09:00,0,133,Christopher St-Sheridan Sq,-74.002906,40.733422,733.2692298889159
12:09:00,0,134,Houston St,-74.005367,40.728251,657.2692298889159
12:09:00,0,135,Canal St,-74.006277,40.722854,578.269229888916
12:09:00,0,136,Franklin St,-74.006886,40.719318,516.269229888916
12:01:00,0,137,Chambers St,-74.009266,40.715478,247.99999999999997
12:01:00,0,138,WTC Cortlandt,-74.012188,40.711835,512.2540986537933
12:01:00,0,139,Rector St,-74.013783,40.707513,583.2540986537933
12:01:00,0,142,South Ferry,-74.013664,40.702068,658.8851332664491
12:05:00,0,201,Wakefield-241 St,-73.85062,40.903125,3604.999999999999
12:05:00,0,204,Nereid Av,-73.854376,40.898379,3482.9999999999995
12:05:00,0,205,233 St,-73.857473,40.893193,3420.9999999999995
12:05:00,0,206,225 St,-73.860341,40.888022,3333.9999999999995
12:05:00,0,207,219 St,-73.862633,40.883895,3256.6810333728786
12:05:00,0,208,Gun Hill Rd,-73.866256,40.87785,3152.4310333728786
12:05:00,0,209,Burke Av,-73.867164,40.871356,3076.9999999999995
12:05:00,0,210,Allerton Av,-73.867352,40.865462,2990.9999999999995
12:05:00,0,211,Pelham Pkwy,-73.867615,40.857192,2888.9999999999995
12:05:00,0,212,Bronx Park East,-73.868457,40.848828,2772.9999999999995
12:05:00,0,213,E 180 St,-73.873488,40.841894,2617.9999999999995
12:05:00,0,214,West Farms Sq-E Tremont Av,-73.880049,40.840295,2578.0
12:05:00,0,215,174 St,-73.887734,40.837288,2470.0000000000005
12:05:00,0,216,Freeman St,-73.891865,40.829993,2364.0000000000005
12:05:00,0,217,Simpson St,-73.893064,40.824073,2258.0000000000005
12:05:00,0,218,Intervale Av,-73.896736,40.822181,2186.0
12:05:00,0,219,Prospect Av,-73.90177,40.819585,2111.0
12:05:00,0,220,Jackson Av,-73.907807,40.81649,2021.0000000000002
12:05:00,0,221,3 Av-149 St,-73.917757,40.816109,1897.0
12:05:00,0,222,149 St-Grand Concourse,-73.926718,40.81841,1793.0
12:01:00,0,224,135 St,-73.94077,40.814229,1607.0
12:01:00,0,225,125 St,-73.945495,40.807754,1510.0
12:01:00,0,226,116 St,-73.949625,40.802098,1420.0
12:01:00,0,227,Central Park North (110 St),-73.951822,40.799075,1348.0
12:01:00,0,228,Park Place,-74.008811,40.713051,169.0
12:01:00,0,229,Fulton St,-74.006571,40.709416,68.0
12:05:00,0,230,Wall St,-74.0091,40.706821,0.0
12:02:00,0,231,Clark St,-73.993086,40.697466,174.0
12:02:00,0,232,Borough Hall,-73.989998,40.693219,271.0
12:02:00,0,233,Hoyt St,-73.985065,40.690545,354.99999999999994
12:02:00,0,234,Nevins St,-73.980492,40.688246,443.0
12:02:00,0,235,Atlantic Av-Barclays Ctr,-73.977666,40.684359,523.0
12:02:00,0,236,Bergen St,-73.975098,40.680829,597.0
12:02:00,0,237,Grand Army Plaza,-73.971046,40.675235,691.0
12:02:00,0,238,Eastern Pkwy-Brooklyn Museum,-73.964375,40.671987,782.9999999999999
12:07:00,0,239,Franklin Av-Medgar Evers College,-73.958131,40.670682,796.4878044128418
12:07:00,0,241,President St-Medgar Evers College,-73.950683,40.667883,967.5882370471954
12:07:00,0,242,Sterling St,-73.95085,40.662742,1051.5882370471954
12:07:00,0,243,Winthrop St,-73.9502,40.656652,1134.5882370471954
12:07:00,0,244,Church Av,-73.949575,40.650843,1196.5882370471954
12:07:00,0,245,Beverly Rd,-73.948959,40.645098,1257.5882370471954
12:07:00,0,246,Newkirk Av-Little Haiti,-73.948411,40.639967,1338.5882370471954
12:07:00,0,247,Flatbush Av-Brooklyn College,-73.947642,40.632836,1430.5882370471957
12:07:00,0,248,Nostrand Av,-73.950466,40.669847,916.4878044128418
12:07:00,0,249,Kingston Av,-73.942161,40.669399,1004.7378044128418
12:02:00,0,250,Crown Hts-Utica Av,-73.932942,40.668897,985.4878044128417
12:07:00,0,251,Sutter Av-Rutland Rd,-73.92261,40.664717,1106.3382370471952
12:07:00,0,252,Saratoga Av,-73.916327,40.661453,1212.3382370471952
12:07:00,0,253,Rockaway Av,-73.908946,40.662549,1297.0882370471952
12:07:00,0,254,Junius St,-73.902447,40.663515,1376.2378044128416
12:07:00,0,255,Pennsylvania Av,-73.894895,40.664635,1470.2378044128416
12:07:00,0,256,Van Siclen Av,-73.889395,40.665449,1544.2378044128416
12:07:00,0,257,New Lots Av,-73.884079,40.666235,1602.8382370471954
12:01:00,0,301,Harlem-148 St,-73.93647,40.82388,1775.0000000000002
12:01:00,0,302,145 St,-73.936245,40.820421,1703.0000000000002
12:05:00,1,401,Woodlawn,-73.878751,40.886037,2930.0
12:05:00,1,402,Mosholu Pkwy,-73.884655,40.87975,2836.0
12:05:00,1,405,Bedford Park Blvd-Lehman College,-73.890064,40.873412,2736.0
12:05:00,1,406,Kingsbridge Rd,-73.897174,40.86776,2629.0
12:05:00,1,407,Fordham Rd,-73.901034,40.862803,2538.0000000000005
12:05:00,1,408,183 St,-73.903879,40.858407,2459.0
12:05:00,1,409,Burnside Av,-73.907684,40.853453,2368.0
12:05:00,1,410,176 St,-73.911794,40.84848,2307.0
12:05:00,1,411,Mt Eden Av,-73.914685,40.844434,2234.0
12:05:00,1,412,170 St,-73.917791,40.840075,2158.0
12:05:00,1,413,167 St,-73.9214,40.835537,2074.0
12:05:00,1,414,161 St-Yankee Stadium,-73.925831,40.827994,1965.0
12:05:00,1,415,149 St-Grand Concourse,-73.927351,40.818375,1835.0000000000002
12:01:00,1,416,138 St-Grand Concourse,-73.929849,40.813224,1707.9999999999998
12:05:00,1,418,Fulton St,-74.009509,40.710368,405.25409865379333
12:01:00,1,419,Wall St,-74.011862,40.707557,481.92763233184814
12:01:00,1,420,Bowling Green,-74.014065,40.704817,550.9276323318481
12:07:00,0,423,Borough Hall,-73.990151,40.692404,593.4878044128418
12:01:00,1,501,Eastchester-Dyre Av,-73.830834,40.8883,3246.9999999999995
12:01:00,1,502,Baychester Av,-73.838591,40.878663,3152.9999999999995
12:01:00,1,503,Gun Hill Rd,-73.846384,40.869526,3031.9999999999995
12:01:00,1,504,Pelham Pkwy,-73.855359,40.858985,2901.9999999999995
12:01:00,1,505,Morris Park,-73.860495,40.854364,2818.9999999999995
13:41:00,1,601,Pelham Bay Park,-73.828121,40.852462,3067.142858505249
13:41:00,1,602,Buhre Av,-73.832569,40.84681,2956.142858505249
13:41:00,1,603,Middletown Rd,-73.836322,40.843863,2887.142858505249
13:41:00,1,604,Westchester Sq-E Tremont Av,-73.842952,40.839892,2795.142858505249
13:41:00,1,606,Zerega Av,-73.847036,40.836488,2720.3928585052495
13:41:00,1,607,Castle Hill Av,-73.851222,40.834255,2656.392858505249
12:29:00,1,608,Parkchester,-73.860816,40.833226,2535.392858505249
12:29:00,1,609,St Lawrence Av,-73.867618,40.831509,2770.9871706962585
12:29:00,1,610,Morrison Av-Soundview,-73.874516,40.829521,2691.9871706962585
12:29:00,1,611,Elder Av,-73.879159,40.828584,2628.9871706962585
12:29:00,1,612,Whitlock Av,-73.886283,40.826525,2535.9871706962585
12:29:00,1,613,Hunts Point Av,-73.890549,40.820948,2328.142858505249
12:01:00,1,614,Longwood Av,-73.896435,40.816104,2412.4883737564087
12:01:00,1,615,E 149 St,-73.904098,40.812118,2319.4883737564087
12:01:00,1,616,E 143 St-St Mary's St,-73.907657,40.808719,2249.4883737564087
12:01:00,1,617,Cypress Av,-73.914042,40.805368,2139.4883737564087
12:01:00,1,618,Brook Av,-73.91924,40.807566,2070.4883737564087
12:01:00,1,619,3 Av-138 St,-73.926138,40.810476,1974.4883737564087
12:01:00,1,621,125 St,-73.937594,40.804138,1573.0
12:01:00,1,622,116 St,-73.941617,40.798629,1772.9999999999995
12:01:00,1,623,110 St,-73.94425,40.79502,1698.9999999999995
12:01:00,1,624,103 St,-73.947478,40.7906,1625.9999999999995
12:01:00,1,625,96 St,-73.95107,40.785672,1541.9999999999998
12:01:00,1,626,86 St,-73.955589,40.779492,1308.0
12:01:00,1,627,77 St,-73.959874,40.77362,1352.0
12:01:00,1,628,68 St-Hunter College,-73.96387,40.768141,1264.0
12:01:00,1,629,59 St,-73.967967,40.762526,1118.0
12:01:00,1,630,51 St,-73.97192,40.757107,1077.0
12:01:00,1,631,Grand Central-42 St,-73.976848,40.751776,968.0
12:01:00,1,632,33 St,-73.982076,40.746081,1074.0
12:01:00,1,633,28 St,-73.984264,40.74307,1084.4038469791412
12:01:00,1,634,23 St,-73.986599,40.739864,1018.4038469791412
12:01:00,1,635,14 St-Union Sq,-73.989951,40.734673,754.9276323318481
12:01:00,1,636,Astor Pl,-73.99107,40.730054,826.9038469791413
12:01:00,1,637,Bleecker St,-73.994659,40.725915,739.9038469791412
12:01:00,1,638,Spring St,-73.997141,40.722301,674.9038469791413
12:01:00,1,639,Canal St,-74.000193,40.718803,601.9038469791413
12:01:00,1,640,Brooklyn Bridge-City Hall,-74.004131,40.713065,511.2540986537932
12:13:00,1,701,Flushing-Main St,-73.83003,40.7596,2397.0000000000005
12:13:00,1,702,Mets-Willets Point,-73.845625,40.754622,2254.0000000000005
12:13:00,1,705,111 St,-73.855334,40.75173,2262.0
12:13:00,1,706,103 St-Corona Plaza,-73.8627,40.749865,2194.0
12:13:00,1,707,Junction Blvd,-73.869527,40.749145,2063.000000000001
12:13:00,1,708,90 St-Elmhurst Av,-73.876613,40.748408,2076.0
12:09:00,2,709,82 St-Jackson Hts,-73.883697,40.747659,2010.0
12:13:00,1,710,74 St-Broadway,-73.891394,40.746848,1884.9999999999998
12:13:00,1,711,69 St,-73.896403,40.746325,1844.9999999999998
12:13:00,1,712,61 St-Woodside,-73.902984,40.74563,1778.9999999999998
12:13:00,1,713,52 St,-73.912549,40.744149,1649.0
12:13:00,1,714,46 St-Bliss St,-73.918435,40.743132,1599.0000000000002
12:13:00,1,715,40 St-Lowery St,-73.924016,40.743781,1549.0000000000002
12:13:00,1,716,33 St-Rawson St,-73.930997,40.744587,1490.0000000000002
12:13:00,1,718,Queensboro Plaza,-73.940202,40.750582,1361.0000000000002
12:13:00,1,719,Court Sq,-73.945264,40.747023,1269.0000000000002
12:13:00,1,720,Hunters Point Av,-73.948916,40.742216,1183.0
12:13:00,1,721,Vernon Blvd-Jackson Av,-73.953581,40.742626,1132.0000000000002
12:13:00,1,723,Grand Central-42 St,-73.976041,40.751431,929.0000000000001
12:13:00,1,724,5 Av,-73.981963,40.753821,882.0000000000001
12:13:00,1,725,Times Sq-42 St,-73.987691,40.755477,827.0000000000001
12:05:00,1,726,34 St-Hudson Yards,-74.00191,40.755882,957.0000000000001
12:05:00,1,901,Grand Central-42 St,-73.979189,40.752769,848.0000000000001
12:05:00,1,902,Times Sq-42 St,-73.986229,40.755983,767.0000000000001
12:49:00,1,A02,Inwood-207 St,-73.919899,40.868072,2258.0
13:49:00,1,A03,Dyckman St,-73.927271,40.865491,2188.0
13:49:00,1,A05,190 St,-73.93418,40.859022,2068.0
13:49:00,1,A06,181 St,-73.937969,40.851695,1961.0000000000002
13:49:00,1,A07,175 St,-73.939704,40.847391,1892.0000000000002
12:37:00,1,A09,168 St,-73.939561,40.840719,1772.0000000000002
13:33:00,1,A10,163 St-Amsterdam Av,-73.939892,40.836013,1762.25
13:33:00,1,A11,155 St,-73.941514,40.830518,1692.25
12:37:00,1,A12,145 St,-73.944216,40.824783,1567.0000000000002
12:37:00,1,A14,135 St,-73.947649,40.817894,1494.0000000000002
12:37:00,1,A15,125 St,-73.952343,40.811109,1384.0000000000002
12:01:00,1,A16,116 St,-73.954882,40.805085,1497.157896280289
12:13:00,1,A17,Cathedral Pkwy (110 St),-73.958161,40.800603,1458.0
12:13:00,1,A18,103 St,-73.961454,40.796092,1393.0
12:13:00,1,A19,96 St,-73.964696,40.791642,1328.0000000000002
12:13:00,1,A20,86 St,-73.968916,40.785868,1250.0000000000002
12:13:00,1,A21,81 St-Museum of Natural History,-73.972143,40.781433,1175.0000000000002
12:13:00,1,A22,72 St,-73.97641,40.775594,1107.0000000000002
12:09:00,1,A24,59 St-Columbus Circle,-73.981736,40.768296,962.0000000000001
12:29:00,1,A25,50 St,-73.985984,40.762456,902.0000000000001
12:09:00,1,A27,42 St-Port Authority Bus Terminal,-73.989735,40.757308,827.0000000000001
12:09:00,1,A28,34 St-Penn Station,-73.993391,40.752287,825.5419063568115
12:09:00,1,A30,23 St,-73.998041,40.745906,724.8571417331696
12:09:00,1,A31,14 St,-74.00169,40.740893,652.8571417331696
12:09:00,1,A32,W 4 St-Wash Sq,-74.000495,40.732338,537.8571417331696
12:17:00,1,A33,Spring St,-74.003739,40.726227,455.75000000000006
12:09:00,1,A34,Canal St,-74.005229,40.720824,367.75000000000006
12:09:00,1,A36,Chambers St,-74.008585,40.714111,360.25409865379333
13:17:00,1,A38,Fulton St,-74.007691,40.710197,285.25409865379333
12:41:00,1,A40,High St,-73.990531,40.699337,463.25409865379333
12:41:00,1,A41,Jay St-MetroTech,-73.987342,40.692338,583.2540986537933
12:41:00,1,A42,Hoyt-Schermerhorn Sts,-73.985001,40.688484,683.2540986537933
12:37:00,1,A43,Lafayette Av,-73.973946,40.686113,811.2540986537933
12:37:00,1,A44,Clinton-Washington Avs,-73.965838,40.683263,871.2540986537933
12:37:00,1,A45,Franklin Av,-73.956848,40.68138,994.9999999999999
12:41:00,1,A46,Nostrand Av,-73.950426,40.680438,923.2540986537933
12:37:00,1,A47,Kingston-Throop Avs,-73.940858,40.679921,1004.0040986537933
12:41:00,1,A48,Utica Av,-73.930729,40.679364,1077.0040986537933
12:37:00,1,A49,Ralph Av,-73.920786,40.678822,1182.0040986537933
12:37:00,1,A50,Rockaway Av,-73.911946,40.67834,1257.0040986537933
12:41:00,1,A51,Broadway Junction,-73.905316,40.678334,1272.0040986537933
12:01:00,1,A52,Liberty Av,-73.896548,40.674542,1391.0040986537933
12:01:00,1,A53,Van Siclen Av,-73.890358,40.67271,1456.0040986537933
12:01:00,1,A54,Shepherd Av,-73.88075,40.67413,1536.004098653793
12:41:00,1,A55,Euclid Av,-73.872106,40.675377,1567.0040986537933
12:41:00,1,A57,Grant Av,-73.86505,40.677044,1644.0040986537933
12:41:00,1,A59,80 St,-73.858992,40.679371,1729.0040986537936
12:41:00,1,A60,88 St,-73.85147,40.679843,1794.0040986537933
12:41:00,1,A61,Rockaway Blvd,-73.843853,40.680429,1884.0040986537933
12:41:00,1,A63,104 St,-73.837683,40.681711,1949.0040986537936
13:01:00,1,A64,111 St,-73.832163,40.684331,2016.0040986537936
13:01:00,1,A65,Ozone Park-Lefferts Blvd,-73.825798,40.685951,2080.004098653794
12:25:00,1,B04,21 St-Queensbridge,-73.942836,40.754203,1618.3321971395997
12:25:00,1,B06,Roosevelt Island,-73.95326,40.759145,1446.3321971395997
12:05:00,1,B08,Lexington Av/63 St,-73.966113,40.764629,1145.0000000000002
12:01:00,1,B10,57 St,-73.97745,40.763972,1213.3321971395997
12:07:00,1,B12,9 Av,-73.994324,40.646292,1336.0
12:07:00,1,B13,Fort Hamilton Pkwy,-73.994304,40.640914,1413.0
12:07:00,1,B14,50 St,-73.994791,40.63626,1475.0000000000002
12:07:00,1,B15,55 St,-73.995476,40.631435,1550.0000000000002
12:07:00,1,B16,62 St,-73.996895,40.626472,1605.0000000000002
12:07:00,1,B17,71 St,-73.998864,40.619589,1685.0000000000002
12:07:00,1,B18,79 St,-74.00061,40.613501,1765.0
12:07:00,1,B19,18 Av,-74.001736,40.607954,1828.0
12:07:00,1,B20,20 Av,-73.998168,40.604556,1892.0
12:07:00,1,B21,Bay Pkwy,-73.993728,40.601875,1952.0
12:07:00,1,B22,25 Av,-73.986829,40.597704,2066.9999999999995
12:07:00,1,B23,Bay 50 St,-73.983765,40.588841,2203.9999999999995
12:01:00,1,D01,Norwood-205 St,-73.878855,40.874811,2632.3157925605774
12:01:00,1,D03,Bedford Park Blvd,-73.887138,40.873244,2517.3157925605774
12:01:00,1,D04,Kingsbridge Rd,-73.893509,40.866978,2417.315792560578
12:01:00,1,D05,Fordham Rd,-73.897749,40.861296,2337.3157925605774
12:01:00,1,D06,182-183 Sts,-73.900741,40.856093,2267.315792560578
12:01:00,1,D07,Tremont Av,-73.905227,40.85041,2203.3157925605774
12:01:00,1,D08,174-175 Sts,-73.910136,40.8459,2166.1632661819463
12:01:00,1,D09,170 St,-73.9134,40.839306,2091.3157925605774
12:01:00,1,D10,167 St,-73.91844,40.833771,1986.1632661819463
12:01:00,1,D11,161 St-Yankee Stadium,-73.925651,40.827905,1861.163266181946
12:01:00,1,D12,155 St,-73.938209,40.830135,1741.163266181946
12:37:00,1,D13,145 St,-73.944216,40.824783,1626.163266181946
12:01:00,1,D14,7 Av,-73.981637,40.762862,967.75
12:29:00,1,D15,47-50 Sts-Rockefeller Ctr,-73.981329,40.758663,1100.178570508957
12:01:00,1,D16,42 St-Bryant Pk,-73.984569,40.754222,1027.8571417331696
12:01:00,1,D17,34 St-Herald Sq,-73.987823,40.749719,962.8571417331696
12:01:00,1,D18,23 St,-73.992821,40.742878,875.1818187236786
12:05:00,1,D19,14 St,-73.996209,40.738228,815.1818187236786
12:05:00,1,D20,W 4 St-Wash Sq,-74.000495,40.732338,777.8571417331696
12:05:00,1,D21,Broadway-Lafayette St,-73.996204,40.725297,900.8571417331696
12:05:00,1,D22,Grand St,-73.993753,40.718267,1020.8571417331696
12:15:00,1,D24,Atlantic Av-Barclays Ctr,-73.97689,40.68446,748.0
12:18:00,1,D25,7 Av,-73.972367,40.67705,868.0
12:18:00,1,D26,Prospect Park,-73.962246,40.661614,1045.2619032859802
12:18:00,1,D27,Parkside Av,-73.961495,40.655292,1115.2619032859802
12:18:00,1,D28,Church Av,-73.962982,40.650527,1168.0
12:18:00,1,D29,Beverley Rd,-73.964492,40.644031,1266.6904776096346
12:18:00,1,D30,Cortelyou Rd,-73.963891,40.640927,1326.6904776096346
12:10:00,1,D31,Newkirk Plaza,-73.962793,40.635082,1314.0000000000002
12:10:00,1,D32,Avenue H,-73.961639,40.62927,1415.3200008869173
12:10:00,1,D33,Avenue J,-73.960803,40.625039,1485.3200008869173
12:10:00,1,D34,Avenue M,-73.959399,40.617618,1575.3200008869173
12:10:00,1,D35,Kings Hwy,-73.957734,40.60867,1540.25
12:31:00,1,D37,Avenue U,-73.955929,40.5993,1730.2603120803833
12:31:00,1,D38,Neck Rd,-73.955161,40.595246,1797.2603120803833
12:31:00,1,D39,Sheepshead Bay,-73.954155,40.586896,1745.2500000000002
12:31:00,1,D40,Brighton Beach,-73.961376,40.577621,1828.75
12:31:00,1,D41,Ocean Pkwy,-73.968501,40.576312,2023.0
12:31:00,1,D42,W 8 St-NY Aquarium,-73.975939,40.576127,2108.0
12:31:00,1,D43,Coney Island-Stillwell Av,-73.981233,40.577422,2170.0
13:45:00,1,E01,World Trade Center,-74.009781,40.712582,248.75000000000003
12:29:00,1,F01,Jamaica-179 St,-73.783817,40.712646,2759.75
12:25:00,1,F02,169 St,-73.793604,40.71047,2730.0
12:25:00,1,F03,Parsons Blvd,-73.803326,40.707564,2570.9999999999995
12:25:00,1,F04,Sutphin Blvd,-73.810708,40.70546,2501.0
12:25:00,1,F05,Briarwood,-73.820574,40.709179,2411.0
12:09:00,1,F06,Kew Gardens-Union Tpke,-73.831008,40.714441,2276.0
12:25:00,1,F07,75 Av,-73.837324,40.718331,2225.9999999999995
12:37:00,2,F09,Court Sq-23 St,-73.946,40.747846,1287.75
12:09:00,1,F11,Lexington Av/53 St,-73.969055,40.757552,1107.75
12:09:00,1,F12,5 Av/53 St,-73.975224,40.760167,1042.75
13:21:00,1,F14,2 Av,-73.989938,40.723402,983.1785705089569
13:21:00,1,F15,Delancey St-Essex St,-73.988114,40.718611,931.9038469791413
13:21:00,1,F16,East Broadway,-73.990173,40.713715,921.9999999999999
13:21:00,1,F18,York St,-73.986751,40.701397,796.0
12:37:00,1,F20,Bergen St,-73.990862,40.686145,833.9999999999999
12:37:00,1,F21,Carroll St,-73.995048,40.680303,919.0
12:37:00,1,F22,Smith-9 Sts,-73.995959,40.67358,1040.0
12:37:00,1,F23,4 Av-9 St,-73.989779,40.670272,1102.0
12:37:00,1,F24,7 Av,-73.980305,40.666271,1074.0
12:37:00,1,F25,15 St-Prospect Park,-73.979493,40.660365,1230.1651389598846
12:37:00,1,F26,Fort Hamilton Pkwy,-73.975776,40.650782,1360.1651389598846
12:37:00,1,F27,Church Av,-73.979678,40.644041,1312.2499999999998
13:37:00,1,F29,Ditmas Av,-73.978172,40.636119,1437.75
13:37:00,1,F30,18 Av,-73.976971,40.629755,1547.9999999999998
13:37:00,1,F31,Avenue I,-73.976127,40.625322,1609.7499999999998
13:37:00,1,F32,Bay Pkwy,-73.975264,40.620769,1672.7499999999998
13:37:00,1,F33,Avenue N,-73.974197,40.61514,1745.2499999999998
13:37:00,1,F34,Avenue P,-73.973022,40.608944,1808.4999999999998
13:37:00,1,F35,Kings Hwy,-73.972361,40.603217,1885.7499999999998
13:37:00,1,F36,Avenue U,-73.973357,40.596063,1992.75
13:37:00,1,F38,Avenue X,-73.97425,40.58962,2065.5
12:50:00,1,F39,Neptune Av,-73.974574,40.581011,2180.4999999999995
13:33:00,1,G05,Jamaica Center-Parsons/Archer,-73.801109,40.702147,2692.925047397614
12:09:00,1,G06,Sutphin Blvd-Archer Av-JFK Airport,-73.807969,40.700486,2628.925047397614
12:09:00,1,G07,Jamaica-Van Wyck,-73.816859,40.702566,2516.0
12:25:00,1,G08,Forest Hills-71 Av,-73.844521,40.721691,2113.75
12:09:00,1,G09,67 Av,-73.852719,40.726523,2171.25
13:05:00,1,G10,63 Dr-Rego Park,-73.861604,40.729846,2091.25
13:05:00,1,G11,Woodhaven Blvd,-73.869229,40.733106,2016.2499999999998
13:05:00,1,G12,Grand Av-Newtown,-73.877223,40.737015,1916.25
13:05:00,1,G13,Elmhurst Av,-73.882017,40.742454,1842.75
12:25:00,1,G14,Jackson Hts-Roosevelt Av,-73.891338,40.746644,1752.75
12:01:00,1,G15,65 St,-73.898453,40.749669,1827.75
12:01:00,2,G16,Northern Blvd,-73.906006,40.752885,1902.75
12:01:00,2,G18,46 St,-73.913333,40.756312,1846.0
12:01:00,2,G19,Steinway St,-73.92074,40.756879,1751.0
12:01:00,2,G20,36 St,-73.928781,40.752039,1626.0
12:09:00,1,G21,Queens Plaza,-73.937243,40.748973,1407.75
12:17:00,1,G22,Court Sq,-73.943832,40.746554,1329.0000000000002
12:17:00,1,G24,21 St,-73.949724,40.744065,1399.0000000000002
12:17:00,1,G26,Greenpoint Av,-73.954449,40.731352,1479.2142841815948
12:17:00,1,G28,Nassau Av,-73.951277,40.724635,1404.2142841815948
12:17:00,1,G29,Metropolitan Av,-73.951418,40.712792,1282.2142841815948
12:17:00,1,G30,Broadway,-73.950308,40.706092,1385.2142841815948
12:17:00,1,G31,Flushing Av,-73.950234,40.700377,1363.145402431488
12:17:00,1,G32,Myrtle-Willoughby Avs,-73.949046,40.694568,1298.145402431488
12:17:00,1,G33,Bedford-Nostrand Avs,-73.953522,40.689627,1201.3523108959198
12:17:00,1,G34,Classon Av,-73.96007,40.688873,1141.3523108959198
12:17:00,1,G35,Clinton-Washington Avs,-73.966839,40.688089,1080.3523108959198
12:17:00,1,G36,Fulton St,-73.975375,40.687119,1005.3523108959198
12:49:00,1,H01,Aqueduct Racetrack,-73.834058,40.668234,2093.2540986537933
13:29:00,1,H02,Aqueduct-N Conduit Av,-73.834058,40.668234,2056.0040986537933
13:29:00,1,H03,Howard Beach-JFK Airport,-73.830301,40.660476,2176.0040986537933
13:29:00,1,H04,Broad Channel,-73.815925,40.608382,2586.004098653794
13:29:00,1,H06,Beach 67 St,-73.796924,40.590927,2839.004098653794
13:29:00,1,H07,Beach 60 St,-73.788522,40.592374,2919.004098653794
13:29:00,1,H08,Beach 44 St,-73.776013,40.592943,3009.004098653794
13:29:00,1,H09,Beach 36 St,-73.768175,40.595398,3079.004098653794
13:29:00,1,H10,Beach 25 St,-73.761353,40.600066,3144.004098653794
13:29:00,1,H11,Far Rockaway-Mott Av,-73.755405,40.603995,3207.004098653794
12:09:00,1,H12,Beach 90 St,-73.813641,40.588034,2879.2540986537933
12:09:00,1,H13,Beach 98 St,-73.820558,40.585307,2944.2540986537933
12:09:00,1,H14,Beach 105 St,-73.827559,40.583209,3008.254098653794
12:09:00,1,H15,Rockaway Park-Beach 116 St,-73.835592,40.580903,3083.254098653794
12:01:00,2,J12,121 St,-73.828294,40.700492,2548.743228673935
13:33:00,2,J13,111 St,-73.836345,40.697418,2577.9250473976135
13:33:00,2,J14,104 St,-73.84433,40.695178,2368.743228673935
13:33:00,2,J15,Woodhaven Blvd,-73.851576,40.693879,2156.7540986537933
13:33:00,2,J16,85 St-Forest Pkwy,-73.86001,40.692435,2088.743228673935
13:33:00,2,J17,75 St-Elderts Ln,-73.867139,40.691324,1976.7540986537936
13:33:00,2,J19,Cypress Hills,-73.87255,40.689941,1968.743228673935
13:33:00,2,J20,Crescent St,-73.873785,40.683194,1877.2540986537936
13:33:00,2,J21,Norwood Av,-73.880039,40.68141,1836.2540986537936
13:33:00,2,J22,Cleveland St,-73.884639,40.679947,1803.7432286739347
13:33:00,2,J23,Van Siclen Av,-73.891688,40.678024,1708.743228673935
13:33:00,2,J24,Alabama Av,-73.898654,40.676992,1648.743228673935
13:17:00,1,J27,Broadway Junction,-73.904512,40.679498,1540.2540986537933
13:33:00,2,J28,Chauncey St,-73.910456,40.682893,1600.754098653793
13:17:00,1,J29,Halsey St,-73.916559,40.68637,1541.9038469791412
13:17:00,1,J30,Gates Av,-73.92227,40.68963,1474.9038469791412
13:17:00,1,J31,Kosciuszko St,-73.928814,40.693342,1409.9038469791412
12:01:00,1,L01,8 Av,-74.002578,40.739777,712.8571417331696
12:17:00,1,L02,6 Av,-73.996786,40.737335,692.0
12:17:00,1,L03,14 St-Union Sq,-73.99073,40.734789,743.0
12:17:00,1,L05,3 Av,-73.986122,40.732849,775.0
12:17:00,1,L06,1 Av,-73.981628,40.730953,816.0
12:17:00,1,L08,Bedford Av,-73.956872,40.717304,1009.0
12:17:00,1,L10,Lorimer St,-73.950275,40.714063,1069.0
12:17:00,1,L11,Graham Av,-73.944053,40.714565,1099.0
12:17:00,1,L12,Grand St,-73.94067,40.711926,1179.0
12:17:00,1,L13,Montrose Av,-73.93985,40.707739,1208.0
12:17:00,1,L14,Morgan Av,-73.933147,40.706152,1280.9999999999998
12:17:00,1,L15,Jefferson St,-73.922913,40.706607,1377.0000000000002
12:17:00,1,L16,DeKalb Av,-73.918425,40.703811,1433.0
12:17:00,1,L17,Myrtle-Wyckoff Avs,-73.911586,40.699814,1483.0
12:17:00,1,L19,Halsey St,-73.904084,40.695602,1531.0000000000005
12:01:00,2,L20,Wilson Av,-73.904046,40.688764,1618.8929870128632
12:01:00,2,L21,Bushwick Av-Aberdeen St,-73.905249,40.682829,1563.8929870128632
12:01:00,2,L22,Broadway Junction,-73.90324,40.678856,1532.8929870128632
12:01:00,2,L24,Atlantic Av,-73.903097,40.675345,1588.8929870128632
12:01:00,2,L25,Sutter Av,-73.901975,40.669367,1661.8929870128632
12:01:00,2,L26,Livonia Av,-73.900571,40.664038,1710.8929870128632
12:01:00,2,L27,New Lots Av,-73.899232,40.658733,1761.2378032207487
12:01:00,2,L28,East 105 St,-73.899485,40.650573,1845.2378032207484
12:01:00,2,L29,Canarsie-Rockaway Pkwy,-73.90185,40.646654,1911.892987012863
12:01:00,2,M01,Middle Village-Metropolitan Av,-73.889601,40.711396,1894.816468477249
12:01:00,2,M04,Fresh Pond Rd,-73.895877,40.706186,1838.816468477249
12:01:00,2,M05,Forest Av,-73.903077,40.704423,1756.816468477249
12:01:00,2,M06,Seneca Av,-73.90774,40.702762,1684.816468477249
13:17:00,1,M08,Myrtle-Wyckoff Avs,-73.912385,40.69943,1630.816468477249
12:37:00,1,M09,Knickerbocker Av,-73.919711,40.698664,1527.8164684772491
13:17:00,1,M10,Central Av,-73.927397,40.697857,1462.8164684772491
13:17:00,1,M11,Myrtle Av,-73.935657,40.697207,1304.9038469791412
12:17:00,1,M12,Flushing Av,-73.941126,40.70026,1265.9038469791417
12:17:00,1,M13,Lorimer St,-73.947408,40.703869,1199.9038469791415
12:17:00,1,M14,Hewes St,-73.953431,40.70687,1129.9038469791415
12:17:00,1,M16,Marcy Av,-73.957757,40.708359,1059.9038469791415
12:17:00,1,M18,Delancey St-Essex St,-73.987437,40.718315,706.9038469791413
12:17:00,1,M19,Bowery,-73.993915,40.72028,644.9038469791413
12:17:00,1,M20,Canal St,-73.999892,40.718092,564.9038469791412
12:17:00,1,M21,Chambers St,-74.003401,40.713243,468.90384697914124
12:17:00,1,M22,Fulton St,-74.007582,40.710374,403.90384697914124
12:09:00,1,M23,Broad St,-74.011056,40.706476,467.90384697914124
12:15:00,1,N02,8 Av,-74.011719,40.635064,1513.9999999999998
12:15:00,1,N03,Fort Hamilton Pkwy,-74.005351,40.631386,1578.9999999999998
12:15:00,1,N04,New Utrecht Av,-73.996353,40.624842,1691.7499999999998
12:15:00,1,N05,18 Av,-73.990414,40.620671,1764.9999999999998
12:15:00,1,N06,20 Av,-73.985026,40.61741,1829.9999999999998
12:15:00,1,N07,Bay Pkwy,-73.981848,40.611815,1899.9999999999998
12:15:00,1,N08,Kings Hwy,-73.980353,40.603923,2004.9999999999998
12:15:00,1,N09,Avenue U,-73.979137,40.597473,2074.9999999999995
12:15:00,1,N10,86 St,-73.97823,40.592721,2155.0
12:05:00,2,Q01,Canal St,-74.00046,40.718383,790.625
12:05:00,1,Q03,72 St,-73.958424,40.768799,1265.0000000000002
12:05:00,1,Q04,86 St,-73.951787,40.777891,1384.0000000000002
12:05:00,1,Q05,96 St,-73.947152,40.784318,1453.0
12:13:00,1,R01,Astoria-Ditmars Blvd,-73.912034,40.775036,1888.0000016689303
12:13:00,1,R03,Astoria Blvd,-73.917843,40.770258,1813.0000016689303
12:13:00,1,R04,30 Av,-73.921479,40.766779,1741.0000016689303
12:13:00,1,R05,Broadway,-73.925508,40.76182,1676.0000016689305
12:13:00,1,R06,36 Av,-73.929575,40.756804,1606.0000016689303
12:13:00,1,R08,39 Av-Dutch Kills,-73.932755,40.752882,1528.0000016689303
12:13:00,1,R09,Queensboro Plaza,-73.940202,40.750582,1408.0000016689303
12:13:00,1,R11,Lexington Av/59 St,-73.967258,40.76266,1181.0000000000002
12:13:00,1,R13,5 Av/59 St,-73.973347,40.764811,1099.0000000000002
12:13:00,1,R14,57 St-7 Av,-73.980658,40.764664,965.0000000000001
12:13:00,1,R15,49 St,-73.984139,40.759901,894.0000000000001
12:05:00,1,R16,Times Sq-42 St,-73.986754,40.754672,827.0000000000001
12:05:00,1,R17,34 St-Herald Sq,-73.98795,40.749567,902.0000000000001
12:05:00,1,R18,28 St,-73.988691,40.745494,969.7500000000001
12:33:00,2,R19,23 St,-73.989344,40.741303,904.75
12:09:00,1,R20,14 St-Union Sq,-73.990568,40.735736,839.75
12:25:00,1,R21,8 St-NYU,-73.992629,40.730328,749.75
12:25:00,1,R22,Prince St,-73.997702,40.724329,638.75
12:25:00,1,R23,Canal St,-74.001775,40.719527,555.7500000000001
12:25:00,1,R24,City Hall,-74.006978,40.713282,420.75000000000006
12:05:00,1,R25,Cortlandt St,-74.011029,40.710668,308.75000000000006
12:09:00,1,R26,Rector St,-74.013342,40.70722,413.75000000000006
12:34:00,1,R27,Whitehall St-South Ferry,-74.012994,40.703087,478.75
13:35:00,1,R28,Court St,-73.991777,40.6941,491.853658914566
12:15:00,1,R29,Jay St-MetroTech,-73.985942,40.69218,584.0
12:15:00,1,R30,DeKalb Av,-73.981824,40.690635,661.0
12:15:00,1,R31,Atlantic Av-Barclays Ctr,-73.97881,40.683666,748.0
12:18:00,1,R32,Union St,-73.98311,40.677316,824.0
12:18:00,1,R33,4 Av-9 St,-73.988302,40.670847,901.7500000000001
12:18:00,1,R34,Prospect Av,-73.992872,40.665414,986.25
12:18:00,1,R35,25 St,-73.998091,40.660397,1066.25
12:07:00,1,R36,36 St,-74.003549,40.655144,1119.0
12:18:00,1,R39,45 St,-74.010006,40.648939,1228.9999999999998
12:15:00,1,R40,53 St,-74.014034,40.645069,1295.9999999999998
12:15:00,1,R41,59 St,-74.017881,40.641362,1344.0
12:18:00,1,R42,Bay Ridge Av,-74.023377,40.634967,1498.5405402183533
12:18:00,1,R43,77 St,-74.02551,40.629742,1561.5405402183533
12:18:00,1,R44,86 St,-74.028398,40.622687,1686.540540218353
12:58:00,1,R45,Bay Ridge-95 St,-74.030876,40.616622,1747.540540218353
12:15:00,1,S01,Franklin Av,-73.955827,40.680596,1055.0
12:15:00,1,S03,Park Pl,-73.957624,40.674772,1141.4878044128418
12:10:00,1,S04,Botanic Garden,-73.959245,40.670343,1021.4878044128418
