start_time,ntransfers,stop_id,stop_name,stop_lon,stop_lat,duration
13:13:00,1,101,Van Cortlandt Park-242 St,-73.898583,40.889248,3882.1280195713043
13:13:00,1,103,238 St,-73.90087,40.884667,3816.9216089248657
13:13:00,1,104,231 St,-73.904834,40.878856,3730.9216089248657
13:13:00,1,106,Marble Hill-225 St,-73.909831,40.874561,3650.9216089248657
13:13:00,1,107,215 St,-73.915279,40.869444,3560.9216089248657
13:13:00,1,108,207 St,-73.918822,40.864621,3488.9216089248657
13:13:00,1,109,Dyckman St,-73.925536,40.860531,3421.1280195713043
13:13:00,1,110,191 St,-73.929412,40.855225,3346.1280195713043
13:13:00,1,111,181 St,-73.933596,40.849505,3259.1280195713043
13:13:00,1,112,168 St-Washington Hts,-73.940133,40.840556,3147.1280195713043
13:13:00,1,113,157 St,-73.94489,40.834041,3240.128019571304
13:13:00,1,114,145 St,-73.95036,40.826551,3154.036795616151
13:13:00,1,115,137 St-City College,-73.953676,40.822008,3065.036795616151
13:13:00,1,116,125 St,-73.958372,40.815581,2970.036795616151
13:13:00,1,117,116 St-Columbia University,-73.96411,40.807722,2868.0367956161504
13:13:00,1,118,Cathedral Pkwy (110 St),-73.966847,40.803967,2794.0367956161504
13:13:00,1,119,103 St,-73.968379,40.799446,2720.0367956161504
12:54:00,1,120,96 St,-73.972323,40.793919,2486.63888835907
12:54:00,1,121,86 St,-73.976218,40.788644,2532.0367956161504
12:54:00,1,122,79 St,-73.979917,40.783934,2467.0367956161504
12:54:00,1,123,72 St,-73.98197,40.778453,2319.6388883590703
13:21:30,1,124,66 St-Lincoln Center,-73.982209,40.77344,2372.6388883590703
13:21:30,1,125,59 St-Columbus Circle,-73.981929,40.768247,2295.6388883590703
13:21:30,1,126,50 St,-73.983849,40.761728,2199.6388883590703
12:54:00,1,127,Times Sq-42 St,-73.987495,40.75529,2096.63888835907
12:54:00,1,128,34 St-Penn Station,-73.991057,40.750373,2027.6388883590696
13:13:00,1,129,28 St,-73.993365,40.747215,2068.63888835907
13:13:00,1,130,23 St,-73.995657,40.744081,2003.6388883590698
13:13:00,1,131,18 St,-73.997871,40.74104,1940.6388883590698
12:54:00,1,132,14 St,-74.000201,40.737826,1870.6388883590698
12:54:00,1,133,Christopher St-Sheridan Sq,-74.002906,40.733422,1951.6388883590698
12:54:00,1,134,Houston St,-74.005367,40.728251,2027.6388883590696
12:54:00,1,135,Canal St,-74.006277,40.722854,2021.6460008621216
12:54:00,1,136,Franklin St,-74.006886,40.719318,1959.6460008621218
12:54:00,1,137,Chambers St,-74.009266,40.715478,1756.0040986537936
13:21:30,1,138,WTC Cortlandt,-74.012188,40.711835,1842.6460008621216
13:21:30,1,139,Rector St,-74.013783,40.707513,1771.6460008621216
13:21:30,1,142,South Ferry,-74.013664,40.702068,1687.6460008621216
13:24:00,1,201,Wakefield-241 St,-73.85062,40.903125,4705.529427051544
13:24:00,1,204,Nereid Av,-73.854376,40.898379,4583.529427051544
13:24:00,1,205,233 St,-73.857473,40.893193,4518.529427051544
13:24:00,1,206,225 St,-73.860341,40.888022,4425.029427051543
13:24:00,1,207,219 St,-73.862633,40.883895,4345.029427051544
13:24:00,1,208,Gun Hill Rd,-73.866256,40.87785,4240.779427051544
13:24:00,1,209,Burke Av,-73.867164,40.871356,4177.529427051544
13:24:00,1,210,Allerton Av,-73.867352,40.865462,4091.529427051544
13:24:00,1,211,Pelham Pkwy,-73.867615,40.857192,3989.529427051544
13:24:00,1,212,Bronx Park East,-73.868457,40.848828,3873.5294270515437
13:24:00,1,213,E 180 St,-73.873488,40.841894,3718.529427051544
13:24:00,1,214,West Farms Sq-E Tremont Av,-73.880049,40.840295,3720.5294270515446
13:24:00,1,215,174 St,-73.887734,40.837288,3611.529427051544
13:24:00,1,216,Freeman St,-73.891865,40.829993,3511.5294270515446
13:24:00,1,217,Simpson St,-73.893064,40.824073,3392.529427051544
13:24:00,1,218,Intervale Av,-73.896736,40.822181,3319.529427051544
13:24:00,1,219,Prospect Av,-73.90177,40.819585,3243.529427051544
13:24:00,1,220,Jackson Av,-73.907807,40.81649,3152.529427051544
13:24:00,1,221,3 Av-149 St,-73.917757,40.816109,3027.529427051544
13:24:00,1,222,149 St-Grand Concourse,-73.926718,40.81841,2925.529427051544
12:54:00,1,224,135 St,-73.94077,40.814229,2984.88888835907
12:54:00,1,225,125 St,-73.945495,40.807754,2885.8888883590703
12:54:00,1,226,116 St,-73.949625,40.802098,2791.88888835907
12:54:00,1,227,Central Park North (110 St),-73.951822,40.799075,2722.88888835907
12:54:00,1,228,Park Place,-74.008811,40.713051,1673.7500000000002
13:21:30,1,229,Fulton St,-74.006571,40.709416,1576.0040986537936
13:21:30,1,230,Wall St,-74.0091,40.706821,1644.0040986537933
13:21:30,1,231,Clark St,-73.993086,40.697466,1590.75
12:06:00,2,232,Borough Hall,-73.989998,40.693219,1508.75
12:06:00,2,233,Hoyt St,-73.985065,40.690545,1589.75
12:06:00,2,234,Nevins St,-73.980492,40.688246,1628.75
12:06:00,2,235,Atlantic Av-Barclays Ctr,-73.977666,40.684359,1599.8421058654787
12:06:00,2,236,Bergen St,-73.975098,40.680829,1603.9396657943728
12:15:00,2,237,Grand Army Plaza,-73.971046,40.675235,1509.9396657943728
12:15:00,2,238,Eastern Pkwy-Brooklyn Museum,-73.964375,40.671987,1417.9396657943726
12:06:00,2,239,Franklin Av-Medgar Evers College,-73.958131,40.670682,1340.9396657943726
12:15:00,2,241,President St-Medgar Evers College,-73.950683,40.667883,1499.8421058654785
12:15:00,2,242,Sterling St,-73.95085,40.662742,1583.8421058654785
12:15:00,2,243,Winthrop St,-73.9502,40.656652,1666.8421058654785
12:15:00,2,244,Church Av,-73.949575,40.650843,1728.8421058654785
12:15:00,2,245,Beverly Rd,-73.948959,40.645098,1789.8421058654785
12:15:00,2,246,Newkirk Av-Little Haiti,-73.948411,40.639967,1869.8421058654785
12:15:00,2,247,Flatbush Av-Brooklyn College,-73.947642,40.632836,1950.8421058654785
12:06:00,2,248,Nostrand Av,-73.950466,40.669847,1443.6713724136353
13:43:00,2,249,Kingston Av,-73.942161,40.669399,1487.1023015975957
13:43:00,2,250,Crown Hts-Utica Av,-73.932942,40.668897,1424.1023015975957
13:43:00,2,251,Sutter Av-Rutland Rd,-73.92261,40.664717,1377.1023015975954
13:43:00,2,252,Saratoga Av,-73.916327,40.661453,1277.1023015975954
13:43:00,2,253,Rockaway Av,-73.908946,40.662549,1194.1023015975954
13:43:00,2,254,Junius St,-73.902447,40.663515,1117.1023015975952
13:21:30,2,255,Pennsylvania Av,-73.894895,40.664635,1210.1023015975954
13:21:30,2,256,Van Siclen Av,-73.889395,40.665449,1282.1023015975952
13:21:30,2,257,New Lots Av,-73.884079,40.666235,1340.1023015975952
12:54:00,1,301,Harlem-148 St,-73.93647,40.82388,3164.6388883590703
12:54:00,1,302,145 St,-73.936245,40.820421,3092.6388883590703
13:13:00,1,401,Woodlawn,-73.878751,40.886037,4035.279427051544
13:13:00,1,402,Mosholu Pkwy,-73.884655,40.87975,3941.2794270515446
13:13:00,1,405,Bedford Park Blvd-Lehman College,-73.890064,40.873412,3841.279427051544
13:13:00,1,406,Kingsbridge Rd,-73.897174,40.86776,3734.279427051544
13:13:00,1,407,Fordham Rd,-73.901034,40.862803,3643.279427051544
13:13:00,1,408,183 St,-73.903879,40.858407,3564.279427051544
13:13:00,1,409,Burnside Av,-73.907684,40.853453,3473.279427051544
13:13:00,1,410,176 St,-73.911794,40.84848,3412.279427051544
13:13:00,1,411,Mt Eden Av,-73.914685,40.844434,3339.279427051544
13:13:00,1,412,170 St,-73.917791,40.840075,3263.279427051544
13:13:00,1,413,167 St,-73.9214,40.835537,3179.279427051544
13:13:00,1,414,161 St-Yankee Stadium,-73.925831,40.827994,3070.279427051544
13:13:00,1,415,149 St-Grand Concourse,-73.927351,40.818375,2940.279427051544
13:13:00,1,416,138 St-Grand Concourse,-73.929849,40.813224,2808.5294270515437
13:51:30,1,418,Fulton St,-74.009509,40.710368,1581.6776323318484
13:51:30,1,419,Wall St,-74.011862,40.707557,1652.6776323318484
13:51:30,1,420,Bowling Green,-74.014065,40.704817,1721.6776323318481
12:06:00,2,423,Borough Hall,-73.990151,40.692404,1508.0147063732147
13:54:00,1,501,Eastchester-Dyre Av,-73.830834,40.8883,4347.529427051544
13:24:00,1,502,Baychester Av,-73.838591,40.878663,4253.529427051544
13:24:00,1,503,Gun Hill Rd,-73.846384,40.869526,4132.529427051544
13:24:00,1,504,Pelham Pkwy,-73.855359,40.858985,4002.529427051544
13:24:00,1,505,Morris Park,-73.860495,40.854364,3919.5294270515437
13:13:00,1,601,Pelham Bay Park,-73.828121,40.852462,4172.422285556793
13:13:00,1,602,Buhre Av,-73.832569,40.84681,4061.422285556794
13:13:00,1,603,Middletown Rd,-73.836322,40.843863,3992.4222855567937
13:13:00,1,604,Westchester Sq-E Tremont Av,-73.842952,40.839892,3900.4222855567937
13:13:00,1,606,Zerega Av,-73.847036,40.836488,3825.6722855567937
13:13:00,1,607,Castle Hill Av,-73.851222,40.834255,3761.672285556793
13:13:00,1,608,Parkchester,-73.860816,40.833226,3640.672285556793
13:13:00,1,609,St Lawrence Av,-73.867618,40.831509,3876.2665977478027
13:13:00,1,610,Morrison Av-Soundview,-73.874516,40.829521,3797.2665977478027
13:13:00,1,611,Elder Av,-73.879159,40.828584,3734.2665977478027
13:13:00,1,612,Whitlock Av,-73.886283,40.826525,3640.890535831451
13:13:00,1,613,Hunts Point Av,-73.890549,40.820948,3433.422285556793
13:24:00,1,614,Longwood Av,-73.896435,40.816104,3517.767800807953
13:24:00,1,615,E 149 St,-73.904098,40.812118,3424.767800807953
13:24:00,1,616,E 143 St-St Mary's St,-73.907657,40.808719,3354.767800807953
13:24:00,1,617,Cypress Av,-73.914042,40.805368,3244.767800807953
13:24:00,1,618,Brook Av,-73.91924,40.807566,3175.767800807953
13:13:00,1,619,3 Av-138 St,-73.926138,40.810476,3079.767800807953
13:13:00,1,621,125 St,-73.937594,40.804138,2678.279427051544
13:24:00,1,622,116 St,-73.941617,40.798629,2971.4643995761876
13:13:00,1,623,110 St,-73.94425,40.79502,2897.464399576187
13:13:00,1,624,103 St,-73.947478,40.7906,2824.464399576187
13:13:00,1,625,96 St,-73.95107,40.785672,2740.464399576187
13:13:00,1,626,86 St,-73.955589,40.779492,2413.279427051544
13:13:00,1,627,77 St,-73.959874,40.77362,2572.5294270515446
13:13:00,1,628,68 St-Hunter College,-73.96387,40.768141,2484.529427051544
13:13:00,1,629,59 St,-73.967967,40.762526,2226.279427051544
13:13:00,1,630,51 St,-73.97192,40.757107,2297.529427051544
13:13:00,1,631,Grand Central-42 St,-73.976848,40.751776,2068.529427051544
13:13:00,1,632,33 St,-73.982076,40.746081,2063.0198423862453
13:13:00,1,633,28 St,-73.984264,40.74307,2000.0198423862455
13:13:00,1,634,23 St,-73.986599,40.739864,1933.0198423862455
13:13:00,1,635,14 St-Union Sq,-73.989951,40.734673,1837.096031665802
13:51:30,1,636,Astor Pl,-73.99107,40.730054,1910.6388883590698
12:54:00,1,637,Bleecker St,-73.994659,40.725915,1843.7394399642947
12:54:00,1,638,Spring St,-73.997141,40.722301,1869.75
13:13:00,1,639,Canal St,-74.000193,40.718803,1796.75
13:13:00,1,640,Brooklyn Bridge-City Hall,-74.004131,40.713065,1684.6776323318481
13:21:30,1,701,Flushing-Main St,-73.83003,40.7596,3079.5892331600185
13:21:30,1,702,Mets-Willets Point,-73.845625,40.754622,2936.5892331600185
13:21:30,1,705,111 St,-73.855334,40.75173,2995.0776069164276
13:21:30,1,706,103 St-Corona Plaza,-73.8627,40.749865,2908.2913596630096
13:21:30,1,707,Junction Blvd,-73.869527,40.749145,2745.589233160019
13:21:30,1,708,90 St-Elmhurst Av,-73.876613,40.748408,2771.2913596630096
13:21:30,1,709,82 St-Jackson Hts,-73.883697,40.747659,2707.2913596630096
13:21:30,1,710,74 St-Broadway,-73.891394,40.746848,2560.291359663009
13:21:30,1,711,69 St,-73.896403,40.746325,2520.2913596630096
13:21:30,1,712,61 St-Woodside,-73.902984,40.74563,2454.291359663009
13:21:30,1,713,52 St,-73.912549,40.744149,2371.291359663009
13:21:30,1,714,46 St-Bliss St,-73.918435,40.743132,2321.291359663009
13:21:30,1,715,40 St-Lowery St,-73.924016,40.743781,2268.291359663009
13:21:30,1,716,33 St-Rawson St,-73.930997,40.744587,2207.291359663009
13:21:30,1,718,Queensboro Plaza,-73.940202,40.750582,2108.291359663009
13:21:30,1,719,Court Sq,-73.945264,40.747023,2033.2913596630094
13:21:30,1,720,Hunters Point Av,-73.948916,40.742216,2118.291359663009
13:21:30,1,721,Vernon Blvd-Jackson Av,-73.953581,40.742626,2136.041359663009
13:21:30,1,723,Grand Central-42 St,-73.976041,40.751431,2188.529427051544
13:21:30,1,724,5 Av,-73.981963,40.753821,2151.63888835907
12:35:00,1,725,Times Sq-42 St,-73.987691,40.755477,2096.63888835907
13:24:00,1,726,34 St-Hudson Yards,-74.00191,40.755882,2226.63888835907
13:21:30,1,901,Grand Central-42 St,-73.979189,40.752769,2117.6388883590703
13:21:30,1,902,Times Sq-42 St,-73.986229,40.755983,2036.63888835907
13:06:00,0,A02,Inwood-207 St,-73.919899,40.868072,3407.6388883590694
13:06:00,0,A03,Dyckman St,-73.927271,40.865491,3337.6388883590694
13:06:00,0,A05,190 St,-73.93418,40.859022,3217.6388883590694
13:06:00,0,A06,181 St,-73.937969,40.851695,3110.6388883590694
13:06:00,0,A07,175 St,-73.939704,40.847391,3041.63888835907
12:15:00,0,A09,168 St,-73.939561,40.840719,2921.63888835907
13:13:00,0,A10,163 St-Amsterdam Av,-73.939892,40.836013,2969.796784639359
13:13:00,0,A11,155 St,-73.941514,40.830518,2904.796784639359
12:15:00,0,A12,145 St,-73.944216,40.824783,2716.63888835907
12:15:00,0,A14,135 St,-73.947649,40.817894,2643.63888835907
12:15:00,0,A15,125 St,-73.952343,40.811109,2533.63888835907
13:13:00,0,A16,116 St,-73.954882,40.805085,2646.7967846393585
12:06:00,0,A17,Cathedral Pkwy (110 St),-73.958161,40.800603,2644.63888835907
12:06:00,0,A18,103 St,-73.961454,40.796092,2579.63888835907
12:06:00,0,A19,96 St,-73.964696,40.791642,2514.63888835907
12:06:00,0,A20,86 St,-73.968916,40.785868,2436.63888835907
12:06:00,0,A21,81 St-Museum of Natural History,-73.972143,40.781433,2361.63888835907
12:06:00,0,A22,72 St,-73.97641,40.775594,2293.63888835907
12:15:00,0,A24,59 St-Columbus Circle,-73.981736,40.768296,2111.63888835907
13:06:00,0,A25,50 St,-73.985984,40.762456,2088.63888835907
12:15:00,0,A27,42 St-Port Authority Bus Terminal,-73.989735,40.757308,1976.63888835907
12:15:00,0,A28,34 St-Penn Station,-73.993391,40.752287,1903.6388883590698
13:21:30,0,A30,23 St,-73.998041,40.745906,1846.63888835907
12:15:00,0,A31,14 St,-74.00169,40.740893,1780.6388883590698
12:15:00,0,A32,W 4 St-Wash Sq,-74.000495,40.732338,1698.7500000000002
13:13:00,0,A33,Spring St,-74.003739,40.726227,1685.5419063568118
12:15:00,0,A34,Canal St,-74.005229,40.720824,1548.7500000000002
12:15:00,0,A36,Chambers St,-74.008585,40.714111,1433.7500000000002
12:15:00,0,A38,Fulton St,-74.007691,40.710197,1358.7500000000002
12:15:00,0,A40,High St,-73.990531,40.699337,1180.75
12:15:00,0,A41,Jay St-MetroTech,-73.987342,40.692338,1060.75
12:15:00,0,A42,Hoyt-Schermerhorn Sts,-73.985001,40.688484,960.75
12:15:00,0,A43,Lafayette Av,-73.973946,40.686113,1006.5179839134216
12:15:00,0,A44,Clinton-Washington Avs,-73.965838,40.683263,941.5179839134216
12:15:00,0,A45,Franklin Av,-73.956848,40.68138,854.8421058654786
12:15:00,0,A46,Nostrand Av,-73.950426,40.680438,719.0
12:15:00,0,A47,Kingston-Throop Avs,-73.940858,40.679921,640.0
12:15:00,0,A48,Utica Av,-73.930729,40.679364,567.0
13:13:00,0,A49,Ralph Av,-73.920786,40.678822,519.0
13:13:00,0,A50,Rockaway Av,-73.911946,40.67834,444.0
12:06:00,0,A51,Broadway Junction,-73.905316,40.678334,372.0
13:21:30,0,A52,Liberty Av,-73.896548,40.674542,338.0
13:21:30,0,A53,Van Siclen Av,-73.890358,40.67271,273.0
13:21:30,0,A54,Shepherd Av,-73.88075,40.67413,193.0
12:06:00,0,A55,Euclid Av,-73.872106,40.675377,77.0
12:06:00,0,A57,Grant Av,-73.86505,40.677044,0.0
12:09:30,0,A59,80 St,-73.858992,40.679371,70.0
12:09:30,0,A60,88 St,-73.85147,40.679843,143.0
12:09:30,0,A61,Rockaway Blvd,-73.843853,40.680429,208.0
12:09:30,0,A63,104 St,-73.837683,40.681711,273.0
13:29:00,0,A64,111 St,-73.832163,40.684331,335.0
13:29:00,0,A65,Ozone Park-Lefferts Blvd,-73.825798,40.685951,405.0
12:54:00,0,B04,21 St-Queensbridge,-73.942836,40.754203,2657.2608675956735
12:54:00,0,B06,Roosevelt Island,-73.95326,40.759145,2515.9710854986697
12:54:00,0,B08,Lexington Av/63 St,-73.966113,40.764629,2375.279427051544
12:54:00,0,B10,57 St,-73.97745,40.763972,2282.9710854986697
12:06:00,1,B12,9 Av,-73.994324,40.646292,2220.1413037776947
12:06:00,1,B13,Fort Hamilton Pkwy,-73.994304,40.640914,2300.339623451233
12:06:00,1,B14,50 St,-73.994791,40.63626,2362.3396234512325
12:06:00,1,B15,55 St,-73.995476,40.631435,2437.3396234512325
12:06:00,1,B16,62 St,-73.996895,40.626472,2492.3396234512325
12:06:00,1,B17,71 St,-73.998864,40.619589,2572.3396234512325
12:06:00,1,B18,79 St,-74.00061,40.613501,2652.339623451233
12:06:00,1,B19,18 Av,-74.001736,40.607954,2715.3396234512325
12:06:00,1,B20,20 Av,-73.998168,40.604556,2779.339623451233
12:06:00,1,B21,Bay Pkwy,-73.993728,40.601875,2839.339623451233
12:06:00,1,B22,25 Av,-73.986829,40.597704,2797.7321076393123
12:15:00,1,B23,Bay 50 St,-73.983765,40.588841,2660.7321076393123
12:06:00,0,D01,Norwood-205 St,-73.878855,40.874811,3781.954680919647
12:06:00,0,D03,Bedford Park Blvd,-73.887138,40.873244,3666.954680919647
12:06:00,0,D04,Kingsbridge Rd,-73.893509,40.866978,3566.954680919647
12:06:00,0,D05,Fordham Rd,-73.897749,40.861296,3486.954680919647
12:06:00,0,D06,182-183 Sts,-73.900741,40.856093,3416.954680919647
13:06:00,0,D07,Tremont Av,-73.905227,40.85041,3352.954680919647
13:06:00,0,D08,174-175 Sts,-73.910136,40.8459,3315.802154541016
13:06:00,0,D09,170 St,-73.9134,40.839306,3240.9546809196477
13:06:00,0,D10,167 St,-73.91844,40.833771,3135.802154541016
13:06:00,0,D11,161 St-Yankee Stadium,-73.925651,40.827905,3010.8021545410156
13:06:00,0,D12,155 St,-73.938209,40.830135,2890.8021545410156
12:15:00,0,D13,145 St,-73.944216,40.824783,2775.802154541016
13:06:00,0,D14,7 Av,-73.981637,40.762862,2221.3888883590703
12:35:00,0,D15,47-50 Sts-Rockefeller Ctr,-73.981329,40.758663,2190.820707082748
12:35:00,0,D16,42 St-Bryant Pk,-73.984569,40.754222,2083.010867595673
12:35:00,0,D17,34 St-Herald Sq,-73.987823,40.749719,2018.0108675956728
12:54:00,0,D18,23 St,-73.992821,40.742878,1911.010867595673
12:54:00,0,D19,14 St,-73.996209,40.738228,1836.010867595673
12:54:00,0,D20,W 4 St-Wash Sq,-74.000495,40.732338,1766.0108675956728
12:54:00,0,D21,Broadway-Lafayette St,-73.996204,40.725297,1631.5108675956728
12:54:00,0,D22,Grand St,-73.993753,40.718267,1926.5108675956726
12:06:00,1,D24,Atlantic Av-Barclays Ctr,-73.97689,40.68446,1577.8421058654785
12:06:00,1,D25,7 Av,-73.972367,40.67705,1457.8421058654785
13:06:00,1,D26,Prospect Park,-73.962246,40.661614,1217.8421058654787
13:06:00,1,D27,Parkside Av,-73.961495,40.655292,1527.8421058654785
13:06:00,1,D28,Church Av,-73.962982,40.650527,1402.8421058654785
13:06:00,1,D29,Beverley Rd,-73.964492,40.644031,1501.5325834751131
13:06:00,1,D30,Cortelyou Rd,-73.963891,40.640927,1561.5325834751131
13:06:00,1,D31,Newkirk Plaza,-73.962793,40.635082,1547.8421058654787
13:06:00,1,D32,Avenue H,-73.961639,40.62927,1649.1621067523959
13:06:00,1,D33,Avenue J,-73.960803,40.625039,1719.1621067523959
13:06:00,1,D34,Avenue M,-73.959399,40.617618,1809.1621067523959
13:06:00,1,D35,Kings Hwy,-73.957734,40.60867,1774.0921058654785
12:15:00,1,D37,Avenue U,-73.955929,40.5993,1964.1024179458618
12:15:00,1,D38,Neck Rd,-73.955161,40.595246,2031.1024179458618
13:06:00,1,D39,Sheepshead Bay,-73.954155,40.586896,1979.0921058654785
12:15:00,1,D40,Brighton Beach,-73.961376,40.577621,2062.5921058654785
12:15:00,1,D41,Ocean Pkwy,-73.968501,40.576312,2292.5921058654785
12:15:00,1,D42,W 8 St-NY Aquarium,-73.975939,40.576127,2410.4821076393123
12:15:00,1,D43,Coney Island-Stillwell Av,-73.981233,40.577422,2472.4821076393123
12:54:00,0,E01,World Trade Center,-74.009781,40.712582,1672.5419063568118
12:26:00,1,F01,Jamaica-179 St,-73.783817,40.712646,2589.7348487377167
12:26:00,1,F02,169 St,-73.793604,40.71047,2565.9848487377167
13:21:30,1,F03,Parsons Blvd,-73.803326,40.707564,2400.9848487377167
13:21:30,1,F04,Sutphin Blvd,-73.810708,40.70546,2310.9848487377167
13:21:30,1,F05,Briarwood,-73.820574,40.709179,2150.9848487377167
13:21:30,1,F06,Kew Gardens-Union Tpke,-73.831008,40.714441,2225.9848487377167
13:21:30,1,F07,75 Av,-73.837324,40.718331,2330.9848487377167
13:21:30,0,F09,Court Sq-23 St,-73.946,40.747846,2033.2913596630094
13:21:30,0,F11,Lexington Av/53 St,-73.969055,40.757552,2213.291359663009
13:21:30,0,F12,5 Av/53 St,-73.975224,40.760167,2273.291359663009
12:54:00,0,F14,2 Av,-73.989938,40.723402,1556.5108675956728
12:54:00,0,F15,Delancey St-Essex St,-73.988114,40.718611,1479.5108675956728
12:54:00,0,F16,East Broadway,-73.990173,40.713715,1414.5108675956728
12:54:00,0,F18,York St,-73.986751,40.701397,1285.75
12:15:00,0,F20,Bergen St,-73.990862,40.686145,1279.8482122421265
12:15:00,0,F21,Carroll St,-73.995048,40.680303,1367.1413037776947
12:15:00,0,F22,Smith-9 Sts,-73.995959,40.67358,1487.1413037776947
12:15:00,0,F23,4 Av-9 St,-73.989779,40.670272,1552.1413037776947
12:15:00,0,F24,7 Av,-73.980305,40.666271,1566.5108675956726
12:15:00,0,F25,15 St-Prospect Park,-73.979493,40.660365,1722.6760065555575
12:15:00,0,F26,Fort Hamilton Pkwy,-73.975776,40.650782,1852.6760065555575
12:15:00,0,F27,Church Av,-73.979678,40.644041,1804.7608675956728
13:54:00,0,F29,Ditmas Av,-73.978172,40.636119,1930.2608675956728
13:54:00,0,F30,18 Av,-73.976971,40.629755,2040.5108675956728
13:54:00,0,F31,Avenue I,-73.976127,40.625322,2102.260867595673
13:54:00,0,F32,Bay Pkwy,-73.975264,40.620769,2165.2608675956726
13:54:00,0,F33,Avenue N,-73.974197,40.61514,2237.760867595673
13:54:00,0,F34,Avenue P,-73.973022,40.608944,2301.010867595673
13:54:00,0,F35,Kings Hwy,-73.972361,40.603217,2378.260867595673
13:24:00,0,F36,Avenue U,-73.973357,40.596063,2485.260867595673
13:24:00,0,F38,Avenue X,-73.97425,40.58962,2558.0108675956726
13:54:00,0,F39,Neptune Av,-73.974574,40.581011,2673.0108675956726
13:51:30,1,G05,Jamaica Center-Parsons/Archer,-73.801109,40.702147,1785.9848487377167
13:51:30,1,G06,Sutphin Blvd-Archer Av-JFK Airport,-73.807969,40.700486,1721.9848487377167
13:21:30,1,G07,Jamaica-Van Wyck,-73.816859,40.702566,2035.984848737717
13:21:30,1,G08,Forest Hills-71 Av,-73.844521,40.721691,2400.9848487377167
12:26:00,1,G09,67 Av,-73.852719,40.726523,2524.4241535663605
12:26:00,1,G10,63 Dr-Rego Park,-73.861604,40.729846,2608.7348487377167
12:26:00,1,G11,Woodhaven Blvd,-73.869229,40.733106,2679.42415356636
13:06:00,0,G12,Grand Av-Newtown,-73.877223,40.737015,2661.7913596630096
13:06:00,0,G13,Elmhurst Av,-73.882017,40.742454,2588.291359663009
13:06:00,0,G14,Jackson Hts-Roosevelt Av,-73.891338,40.746644,2463.2913596630096
13:06:00,0,G15,65 St,-73.898453,40.749669,2573.291359663009
13:06:00,0,G16,Northern Blvd,-73.906006,40.752885,2628.9740863619363
13:06:00,0,G18,46 St,-73.913333,40.756312,2538.9740863619363
13:06:00,0,G19,Steinway St,-73.92074,40.756879,2422.066869867091
13:06:00,0,G20,36 St,-73.928781,40.752039,2302.066869867091
13:21:30,0,G21,Queens Plaza,-73.937243,40.748973,2143.2913596630096
13:21:30,0,G22,Court Sq,-73.943832,40.746554,1924.5326714515688
13:21:30,0,G24,21 St,-73.949724,40.744065,1860.5326714515688
13:21:30,0,G26,Greenpoint Av,-73.954449,40.731352,1692.5326714515688
13:21:30,0,G28,Nassau Av,-73.951277,40.724635,1617.5326714515688
13:21:30,0,G29,Metropolitan Av,-73.951418,40.712792,1495.5326714515688
13:21:30,0,G30,Broadway,-73.950308,40.706092,1598.5326714515686
13:21:30,0,G31,Flushing Av,-73.950234,40.700377,1640.6413037776947
13:21:30,0,G32,Myrtle-Willoughby Avs,-73.949046,40.694568,1575.6413037776947
13:21:30,0,G33,Bedford-Nostrand Avs,-73.953522,40.689627,1478.8482122421265
13:21:30,0,G34,Classon Av,-73.96007,40.688873,1418.8482122421265
13:21:30,0,G35,Clinton-Washington Avs,-73.966839,40.688089,1357.8482122421265
13:21:30,0,G36,Fulton St,-73.975375,40.687119,1282.8482122421265
13:19:00,0,H01,Aqueduct Racetrack,-73.834058,40.668234,388.0
12:19:30,0,H02,Aqueduct-N Conduit Av,-73.834058,40.668234,412.0
12:19:30,0,H03,Howard Beach-JFK Airport,-73.830301,40.660476,515.0
12:19:30,0,H04,Broad Channel,-73.815925,40.608382,934.0
12:19:30,0,H06,Beach 67 St,-73.796924,40.590927,1194.9999999999998
13:19:00,0,H07,Beach 60 St,-73.788522,40.592374,1274.9999999999998
13:19:00,0,H08,Beach 44 St,-73.776013,40.592943,1364.9999999999998
13:19:00,0,H09,Beach 36 St,-73.768175,40.595398,1434.9999999999998
13:19:00,0,H10,Beach 25 St,-73.761353,40.600066,1499.9999999999998
13:19:00,0,H11,Far Rockaway-Mott Av,-73.755405,40.603995,1562.9999999999998
12:19:30,0,H12,Beach 90 St,-73.813641,40.588034,1174.0
12:19:30,0,H13,Beach 98 St,-73.820558,40.585307,1239.0
12:19:30,0,H14,Beach 105 St,-73.827559,40.583209,1303.0
12:19:30,0,H15,Rockaway Park-Beach 116 St,-73.835592,40.580903,1378.0
13:51:30,1,J12,121 St,-73.828294,40.700492,1648.7391300201416
13:51:30,1,J13,111 St,-73.836345,40.697418,1670.9848487377167
13:51:30,1,J14,104 St,-73.84433,40.695178,1468.7391300201416
13:51:30,1,J15,Woodhaven Blvd,-73.851576,40.693879,1231.5
13:51:30,1,J16,85 St-Forest Pkwy,-73.86001,40.692435,1181.9000005722048
13:51:30,1,J17,75 St-Elderts Ln,-73.867139,40.691324,1051.5
13:51:30,1,J19,Cypress Hills,-73.87255,40.689941,1061.9000005722048
13:51:30,1,J20,Crescent St,-73.873785,40.683194,951.9999999999999
13:51:30,1,J21,Norwood Av,-73.880039,40.68141,910.9999999999999
13:51:30,1,J22,Cleveland St,-73.884639,40.679947,885.1941752433777
13:51:30,1,J23,Van Siclen Av,-73.891688,40.678024,808.7391300201416
13:51:30,1,J24,Alabama Av,-73.898654,40.676992,730.0
13:21:30,1,J27,Broadway Junction,-73.904512,40.679498,615.0
12:46:00,1,J28,Chauncey St,-73.910456,40.682893,690.0
12:46:00,1,J29,Halsey St,-73.916559,40.68637,794.9000005722046
12:46:00,1,J30,Gates Av,-73.92227,40.68963,815.0
12:46:00,1,J31,Kosciuszko St,-73.928814,40.693342,926.9000005722046
13:13:00,1,L01,8 Av,-74.002578,40.739777,1720.6388883590698
13:13:00,1,L02,6 Av,-73.996786,40.737335,1660.6388883590698
13:13:00,1,L03,14 St-Union Sq,-73.99073,40.734789,1613.6388883590698
13:13:00,1,L05,3 Av,-73.986122,40.732849,1579.318387269974
13:13:00,1,L06,1 Av,-73.981628,40.730953,1540.6388883590696
13:13:00,1,L08,Bedford Av,-73.956872,40.717304,1347.6388883590698
13:13:00,1,L10,Lorimer St,-73.950275,40.714063,1282.318387269974
13:13:00,1,L11,Graham Av,-73.944053,40.714565,1252.318387269974
13:13:00,1,L12,Grand St,-73.94067,40.711926,1177.318387269974
13:13:00,1,L13,Montrose Av,-73.93985,40.707739,1144.3183872699738
13:13:00,1,L14,Morgan Av,-73.933147,40.706152,1075.6388883590698
13:13:00,1,L15,Jefferson St,-73.922913,40.706607,978.6388883590698
13:13:00,1,L16,DeKalb Av,-73.918425,40.703811,923.6388883590698
13:13:00,1,L17,Myrtle-Wyckoff Avs,-73.911586,40.699814,873.6388883590698
13:13:00,1,L19,Halsey St,-73.904084,40.695602,816.6388883590698
13:13:00,1,L20,Wilson Av,-73.904046,40.688764,693.6388883590698
13:13:00,1,L21,Bushwick Av-Aberdeen St,-73.905249,40.682829,638.6388883590698
12:06:00,1,L22,Broadway Junction,-73.90324,40.678856,607.6388883590698
12:06:00,1,L24,Atlantic Av,-73.903097,40.675345,663.6388883590698
12:06:00,1,L25,Sutter Av,-73.901975,40.669367,736.6388883590698
12:06:00,1,L26,Livonia Av,-73.900571,40.664038,785.6388883590698
12:06:00,1,L27,New Lots Av,-73.899232,40.658733,854.3183872699738
12:06:00,1,L28,East 105 St,-73.899485,40.650573,938.3183872699739
12:06:00,1,L29,Canarsie-Rockaway Pkwy,-73.90185,40.646654,986.6388883590698
13:36:00,1,M01,Middle Village-Metropolitan Av,-73.889601,40.711396,1376.629272699356
13:36:00,1,M04,Fresh Pond Rd,-73.895877,40.706186,1317.5951991081238
13:36:00,1,M05,Forest Av,-73.903077,40.704423,1238.629272699356
13:36:00,1,M06,Seneca Av,-73.90774,40.702762,1166.629272699356
13:36:00,1,M08,Myrtle-Wyckoff Avs,-73.912385,40.69943,1100.0951991081238
12:46:00,1,M09,Knickerbocker Av,-73.919711,40.698664,1178.0951991081238
13:36:00,1,M10,Central Av,-73.927397,40.697857,1134.912621498108
12:46:00,1,M11,Myrtle Av,-73.935657,40.697207,977.0000000000001
12:46:00,1,M12,Flushing Av,-73.941126,40.70026,1101.9000005722048
12:46:00,1,M13,Lorimer St,-73.947408,40.703869,1167.9000005722048
12:46:00,1,M14,Hewes St,-73.953431,40.70687,1237.900000572205
12:06:00,1,M16,Marcy Av,-73.957757,40.708359,1217.0
12:06:00,1,M18,Delancey St-Essex St,-73.987437,40.718315,1577.0
12:15:00,1,M19,Bowery,-73.993915,40.72028,1642.0
12:15:00,1,M20,Canal St,-73.999892,40.718092,1719.75
12:15:00,1,M21,Chambers St,-74.003401,40.713243,1648.75
12:15:00,1,M22,Fulton St,-74.007582,40.710374,1583.7500000000002
12:26:00,1,M23,Broad St,-74.011056,40.706476,1648.75
12:06:00,1,N02,8 Av,-74.011719,40.635064,2336.2053141593933
12:06:00,1,N03,Fort Hamilton Pkwy,-74.005351,40.631386,2421.2053141593933
12:06:00,1,N04,New Utrecht Av,-73.996353,40.624842,2533.9553141593938
12:06:00,1,N05,18 Av,-73.990414,40.620671,2607.2053141593933
12:06:00,1,N06,20 Av,-73.985026,40.61741,2672.2053141593938
12:06:00,1,N07,Bay Pkwy,-73.981848,40.611815,2742.2053141593933
12:06:00,1,N08,Kings Hwy,-73.980353,40.603923,2847.2053141593933
12:06:00,1,N09,Avenue U,-73.979137,40.597473,2777.4821076393123
12:15:00,1,N10,86 St,-73.97823,40.592721,2712.4821076393123
12:06:00,1,Q01,Canal St,-74.00046,40.718383,1957.249998807907
12:54:00,0,Q03,72 St,-73.958424,40.768799,2495.279427051544
12:54:00,0,Q04,86 St,-73.951787,40.777891,2614.279427051544
12:54:00,0,Q05,96 St,-73.947152,40.784318,2683.279427051544
12:06:00,2,R01,Astoria-Ditmars Blvd,-73.912034,40.775036,2652.2913613319392
12:06:00,2,R03,Astoria Blvd,-73.917843,40.770258,2577.2913613319392
12:06:00,2,R04,30 Av,-73.921479,40.766779,2505.2913613319392
12:06:00,2,R05,Broadway,-73.925508,40.76182,2440.291361331939
12:06:00,2,R06,36 Av,-73.929575,40.756804,2370.2913613319392
12:06:00,2,R08,39 Av-Dutch Kills,-73.932755,40.752882,2292.2913613319392
12:06:00,2,R09,Queensboro Plaza,-73.940202,40.750582,2172.2913613319392
12:06:00,2,R11,Lexington Av/59 St,-73.967258,40.76266,2374.2913613319392
12:15:00,2,R13,5 Av/59 St,-73.973347,40.764811,2368.63888835907
13:13:00,1,R14,57 St-7 Av,-73.980658,40.764664,2195.279427051544
13:13:00,1,R15,49 St,-73.984139,40.759901,2163.63888835907
12:35:00,1,R16,Times Sq-42 St,-73.986754,40.754672,2057.279427051544
12:06:00,2,R17,34 St-Herald Sq,-73.98795,40.749567,1982.2794270515442
12:06:00,2,R18,28 St,-73.988691,40.745494,1975.8888883590698
12:06:00,2,R19,23 St,-73.989344,40.741303,1912.2794270515444
13:36:00,1,R20,14 St-Union Sq,-73.990568,40.735736,1838.6388883590698
13:36:00,1,R21,8 St-NYU,-73.992629,40.730328,1937.2794270515442
13:36:00,1,R22,Prince St,-73.997702,40.724329,1963.5
13:36:00,1,R23,Canal St,-74.001775,40.719527,1873.5
13:36:00,1,R24,City Hall,-74.006978,40.713282,1748.5000000000002
13:36:00,1,R25,Cortlandt St,-74.011029,40.710668,1640.5
13:36:00,1,R26,Rector St,-74.013342,40.70722,1570.5
13:36:00,1,R27,Whitehall St-South Ferry,-74.012994,40.703087,1503.75
13:36:00,1,R28,Court St,-73.991777,40.6941,1268.75
12:06:00,1,R29,Jay St-MetroTech,-73.985942,40.69218,1195.75
12:54:00,1,R30,DeKalb Av,-73.981824,40.690635,1281.5108675956726
12:06:00,1,R31,Atlantic Av-Barclays Ctr,-73.97881,40.683666,1436.0
12:06:00,1,R32,Union St,-73.98311,40.677316,1540.2608675956726
12:06:00,1,R33,4 Av-9 St,-73.988302,40.670847,1618.0108675956728
12:06:00,1,R34,Prospect Av,-73.992872,40.665414,1708.0108675956728
12:06:00,1,R35,25 St,-73.998091,40.660397,1778.0
12:06:00,1,R36,36 St,-74.003549,40.655144,1869.0
12:06:00,1,R39,45 St,-74.010006,40.648939,2031.5108675956726
12:06:00,1,R40,53 St,-74.014034,40.645069,2098.5108675956726
12:06:00,1,R41,59 St,-74.017881,40.641362,2173.0
12:06:00,1,R42,Bay Ridge Av,-74.023377,40.634967,2303.5108675956726
12:06:00,1,R43,77 St,-74.02551,40.629742,2378.5108675956726
12:06:00,1,R44,86 St,-74.028398,40.622687,2453.5108675956726
12:06:00,1,R45,Bay Ridge-95 St,-74.030876,40.616622,2522.5108675956726
13:06:00,1,S01,Franklin Av,-73.955827,40.680596,914.8421058654786
13:06:00,1,S03,Park Pl,-73.957624,40.674772,1033.8421058654787
13:06:00,1,S04,Botanic Garden,-73.959245,40.670343,1099.8421058654785
