start_time,ntransfers,stop_id,stop_name,stop_lon,stop_lat,duration
13:43:00,1,101,Van Cortlandt Park-242 St,-73.898583,40.889248,2698.67318029199
13:43:00,1,103,238 St,-73.90087,40.884667,2633.466769645551
13:43:00,1,104,231 St,-73.904834,40.878856,2547.4667696455513
13:43:00,1,106,Marble Hill-225 St,-73.909831,40.874561,2467.4667696455513
13:43:00,1,107,215 St,-73.915279,40.869444,2377.4667696455513
13:43:00,1,108,207 St,-73.918822,40.864621,2305.466769645551
13:43:00,1,109,Dyckman St,-73.925536,40.860531,2237.6731802919894
13:43:00,1,110,191 St,-73.929412,40.855225,2162.6731802919894
13:43:00,1,111,181 St,-73.933596,40.849505,2075.6731802919894
13:28:00,1,112,168 St-Washington Hts,-73.940133,40.840556,1963.6731802919894
13:28:00,1,113,157 St,-73.94489,40.834041,1969.164968440869
13:28:00,1,114,145 St,-73.95036,40.826551,1864.164968440869
13:28:00,1,115,137 St-City College,-73.953676,40.822008,1795.664968440869
13:28:00,1,116,125 St,-73.958372,40.815581,1700.664968440869
13:28:00,1,117,116 St-Columbia University,-73.96411,40.807722,1598.6649684408692
13:28:00,1,118,Cathedral Pkwy (110 St),-73.966847,40.803967,1524.664968440869
13:28:00,1,119,103 St,-73.968379,40.799446,1450.664968440869
13:13:00,1,120,96 St,-73.972323,40.793919,1183.1840490797547
12:20:30,1,121,86 St,-73.976218,40.788644,1262.664968440869
12:20:30,1,122,79 St,-73.979917,40.783934,1195.1649684408692
13:13:00,1,123,72 St,-73.98197,40.778453,1016.1840490797546
12:20:30,1,124,66 St-Lincoln Center,-73.982209,40.77344,1069.1840490797547
13:13:00,1,125,59 St-Columbus Circle,-73.981929,40.768247,992.1840490797547
13:13:00,1,126,50 St,-73.983849,40.761728,896.1840490797546
13:13:00,1,127,Times Sq-42 St,-73.987495,40.75529,793.1840490797546
13:13:00,1,128,34 St-Penn Station,-73.991057,40.750373,886.1840490797547
13:13:00,1,129,28 St,-73.993365,40.747215,956.1840490797546
13:13:00,1,130,23 St,-73.995657,40.744081,1021.1840490797546
13:13:00,1,131,18 St,-73.997871,40.74104,1027.1840490797547
13:13:00,1,132,14 St,-74.000201,40.737826,957.1840490797546
13:13:00,1,133,Christopher St-Sheridan Sq,-74.002906,40.733422,1038.1840490797547
13:13:00,1,134,Houston St,-74.005367,40.728251,1114.1840490797545
13:13:00,1,135,Canal St,-74.006277,40.722854,1193.1840490797545
13:13:00,1,136,Franklin St,-74.006886,40.719318,1255.1840490797547
13:13:00,1,137,Chambers St,-74.009266,40.715478,1192.3321971395994
12:13:00,1,138,WTC Cortlandt,-74.012188,40.711835,1360.1840490797547
12:13:00,1,139,Rector St,-74.013783,40.707513,1437.1840490797547
12:13:00,1,142,South Ferry,-74.013664,40.702068,1528.1840490797547
13:57:30,1,201,Wakefield-241 St,-73.85062,40.903125,2966.4705848693843
13:57:30,1,204,Nereid Av,-73.854376,40.898379,2844.4705848693843
13:57:30,1,205,233 St,-73.857473,40.893193,2730.3425898551936
13:57:30,1,206,225 St,-73.860341,40.888022,2636.8425898551936
13:57:30,1,207,219 St,-73.862633,40.883895,2556.8425898551936
13:57:30,1,208,Gun Hill Rd,-73.866256,40.87785,2452.5925898551936
13:57:30,1,209,Burke Av,-73.867164,40.871356,2438.4705848693843
13:57:30,1,210,Allerton Av,-73.867352,40.865462,2352.4705848693848
13:57:30,1,211,Pelham Pkwy,-73.867615,40.857192,2250.4705848693848
13:57:30,1,212,Bronx Park East,-73.868457,40.848828,2134.4705848693848
13:57:30,1,213,E 180 St,-73.873488,40.841894,1979.4705848693845
13:57:30,1,214,West Farms Sq-E Tremont Av,-73.880049,40.840295,1981.092589855194
13:57:30,1,215,174 St,-73.887734,40.837288,1870.092589855194
13:57:30,1,216,Freeman St,-73.891865,40.829993,1762.092589855194
13:57:30,1,217,Simpson St,-73.893064,40.824073,1653.4705848693843
12:05:30,1,218,Intervale Av,-73.896736,40.822181,1580.4705848693845
12:05:30,1,219,Prospect Av,-73.90177,40.819585,1504.4705848693845
13:57:30,1,220,Jackson Av,-73.907807,40.81649,1413.4705848693845
12:05:30,1,221,3 Av-149 St,-73.917757,40.816109,1288.4705848693848
12:05:30,1,222,149 St-Grand Concourse,-73.926718,40.81841,1186.4705848693848
13:13:00,1,224,135 St,-73.94077,40.814229,1572.414957523346
13:13:00,1,225,125 St,-73.945495,40.807754,1582.4340490797547
13:13:00,1,226,116 St,-73.949625,40.802098,1488.4340490797547
13:13:00,1,227,Central Park North (110 St),-73.951822,40.799075,1419.4340490797547
13:13:00,1,228,Park Place,-74.008811,40.713051,1274.3321971395997
13:13:00,1,229,Fulton St,-74.006571,40.709416,1377.3321971395994
13:13:00,1,230,Wall St,-74.0091,40.706821,1446.3321971395994
13:13:00,1,231,Clark St,-73.993086,40.697466,1624.3321971395992
13:13:00,1,232,Borough Hall,-73.989998,40.693219,1734.3321971395992
13:13:00,1,233,Hoyt St,-73.985065,40.690545,1779.5803942680357
12:43:00,1,234,Nevins St,-73.980492,40.688246,1661.0925898551939
12:43:00,1,235,Atlantic Av-Barclays Ctr,-73.977666,40.684359,1748.0925898551939
13:57:30,1,236,Bergen St,-73.975098,40.680829,1845.5803942680357
13:57:30,1,237,Grand Army Plaza,-73.971046,40.675235,1939.5803942680357
13:57:30,1,238,Eastern Pkwy-Brooklyn Museum,-73.964375,40.671987,2031.5803942680354
13:57:30,1,239,Franklin Av-Medgar Evers College,-73.958131,40.670682,2014.0925898551939
13:57:30,1,241,President St-Medgar Evers College,-73.950683,40.667883,2151.3425898551945
13:57:30,1,242,Sterling St,-73.95085,40.662742,2235.342589855194
13:57:30,1,243,Winthrop St,-73.9502,40.656652,2318.342589855194
13:57:30,1,244,Church Av,-73.949575,40.650843,2380.342589855194
13:57:30,1,245,Beverly Rd,-73.948959,40.645098,2441.342589855194
13:57:30,1,246,Newkirk Av-Little Haiti,-73.948411,40.639967,2522.342589855194
13:57:30,1,247,Flatbush Av-Brooklyn College,-73.947642,40.632836,2614.342589855194
13:57:30,1,248,Nostrand Av,-73.950466,40.669847,2114.0925898551936
13:57:30,1,249,Kingston Av,-73.942161,40.669399,2193.8425898551945
13:57:30,1,250,Crown Hts-Utica Av,-73.932942,40.668897,2170.342589855194
13:57:30,1,251,Sutter Av-Rutland Rd,-73.92261,40.664717,2290.092589855194
13:57:30,1,252,Saratoga Av,-73.916327,40.661453,2396.092589855194
13:57:30,1,253,Rockaway Av,-73.908946,40.662549,2480.842589855194
13:57:30,1,254,Junius St,-73.902447,40.663515,2417.7956103781253
13:57:30,1,255,Pennsylvania Av,-73.894895,40.664635,2510.7956103781253
13:57:30,1,256,Van Siclen Av,-73.889395,40.665449,2582.7956103781253
13:57:30,1,257,New Lots Av,-73.884079,40.666235,2640.7956103781253
13:13:00,1,301,Harlem-148 St,-73.93647,40.82388,1861.1840490797547
13:13:00,1,302,145 St,-73.936245,40.820421,1789.1840490797547
12:58:00,1,401,Woodlawn,-73.878751,40.886037,2247.0925898551936
12:58:00,1,402,Mosholu Pkwy,-73.884655,40.87975,2153.0925898551936
12:58:00,1,405,Bedford Park Blvd-Lehman College,-73.890064,40.873412,2053.0925898551936
12:58:00,1,406,Kingsbridge Rd,-73.897174,40.86776,1946.0925898551939
12:58:00,1,407,Fordham Rd,-73.901034,40.862803,1855.0925898551936
12:58:00,1,408,183 St,-73.903879,40.858407,1776.0925898551936
12:58:00,1,409,Burnside Av,-73.907684,40.853453,1685.0925898551939
12:58:00,1,410,176 St,-73.911794,40.84848,1624.0925898551939
12:58:00,1,411,Mt Eden Av,-73.914685,40.844434,1551.0925898551939
12:58:00,1,412,170 St,-73.917791,40.840075,1475.092589855194
12:58:00,1,413,167 St,-73.9214,40.835537,1391.092589855194
12:58:00,1,414,161 St-Yankee Stadium,-73.925831,40.827994,1282.092589855194
12:58:00,1,415,149 St-Grand Concourse,-73.927351,40.818375,1152.092589855194
12:05:30,1,416,138 St-Grand Concourse,-73.929849,40.813224,1056.0925898551939
12:43:00,1,418,Fulton St,-74.009509,40.710368,1161.0925898551939
12:43:00,1,419,Wall St,-74.011862,40.707557,1232.092589855194
12:43:00,1,420,Bowling Green,-74.014065,40.704817,1301.0925898551939
12:43:00,1,423,Borough Hall,-73.990151,40.692404,1537.0925898551939
13:48:30,1,501,Eastchester-Dyre Av,-73.830834,40.8883,2608.4705848693848
13:57:30,1,502,Baychester Av,-73.838591,40.878663,2514.4705848693843
13:57:30,1,503,Gun Hill Rd,-73.846384,40.869526,2393.4705848693843
13:57:30,1,504,Pelham Pkwy,-73.855359,40.858985,2263.4705848693848
13:57:30,1,505,Morris Park,-73.860495,40.854364,2180.4705848693848
13:43:00,1,601,Pelham Bay Park,-73.828121,40.852462,2384.235448360443
13:43:00,1,602,Buhre Av,-73.832569,40.84681,2273.235448360443
13:43:00,1,603,Middletown Rd,-73.836322,40.843863,2204.235448360443
13:43:00,1,604,Westchester Sq-E Tremont Av,-73.842952,40.839892,2112.235448360443
13:43:00,1,606,Zerega Av,-73.847036,40.836488,2037.4854483604436
13:43:00,1,607,Castle Hill Av,-73.851222,40.834255,1973.4854483604433
12:58:00,1,608,Parkchester,-73.860816,40.833226,1852.4854483604431
12:58:00,1,609,St Lawrence Av,-73.867618,40.831509,2088.0797605514526
12:58:00,1,610,Morrison Av-Soundview,-73.874516,40.829521,2009.0797605514526
12:58:00,1,611,Elder Av,-73.879159,40.828584,1946.0797605514526
12:58:00,1,612,Whitlock Av,-73.886283,40.826525,1853.0797605514526
12:58:00,1,613,Hunts Point Av,-73.890549,40.820948,1645.2354483604431
12:05:30,1,614,Longwood Av,-73.896435,40.816104,1729.5809636116028
12:05:30,1,615,E 149 St,-73.904098,40.812118,1636.5809636116028
12:05:30,1,616,E 143 St-St Mary's St,-73.907657,40.808719,1564.4126996994016
12:05:30,1,617,Cypress Av,-73.914042,40.805368,1456.5809636116028
12:05:30,1,618,Brook Av,-73.91924,40.807566,1387.5809636116028
12:58:00,1,619,3 Av-138 St,-73.926138,40.810476,1291.5809636116028
12:05:30,1,621,125 St,-73.937594,40.804138,890.092589855194
12:05:30,1,622,116 St,-73.941617,40.798629,1027.4126996994019
12:43:00,1,623,110 St,-73.94425,40.79502,948.4126996994019
12:43:00,1,624,103 St,-73.947478,40.7906,873.4126996994019
12:43:00,1,625,96 St,-73.95107,40.785672,784.4126996994019
12:05:30,1,626,86 St,-73.955589,40.779492,625.0925898551941
12:43:00,1,627,77 St,-73.959874,40.77362,588.4126996994019
12:43:00,1,628,68 St-Hunter College,-73.96387,40.768141,498.41269969940186
12:43:00,1,629,59 St,-73.967967,40.762526,411.41269969940186
12:43:00,1,630,51 St,-73.97192,40.757107,506.41269969940186
12:43:00,1,631,Grand Central-42 St,-73.976848,40.751776,588.0925898551941
12:43:00,1,632,33 St,-73.982076,40.746081,746.0925898551941
12:43:00,1,633,28 St,-73.984264,40.74307,810.0925898551941
12:43:00,1,634,23 St,-73.986599,40.739864,876.0925898551941
12:43:00,1,635,14 St-Union Sq,-73.989951,40.734673,817.0925898551941
13:35:30,1,636,Astor Pl,-73.99107,40.730054,1070.0925898551943
13:35:30,1,637,Bleecker St,-73.994659,40.725915,1088.374526689389
13:57:30,1,638,Spring St,-73.997141,40.722301,1153.374526689389
12:43:00,1,639,Canal St,-74.000193,40.718803,1191.0925898551939
12:43:00,1,640,Brooklyn Bridge-City Hall,-74.004131,40.713065,1058.092589855194
12:14:00,1,701,Flushing-Main St,-73.83003,40.7596,1110.772513628006
12:14:00,1,702,Mets-Willets Point,-73.845625,40.754622,980.772513628006
12:14:00,1,705,111 St,-73.855334,40.75173,891.772513628006
12:14:00,1,706,103 St-Corona Plaza,-73.8627,40.749865,823.772513628006
12:14:00,1,707,Junction Blvd,-73.869527,40.749145,765.772513628006
12:14:00,1,708,90 St-Elmhurst Av,-73.876613,40.748408,705.772513628006
12:14:00,1,709,82 St-Jackson Hts,-73.883697,40.747659,639.772513628006
12:01:30,1,710,74 St-Broadway,-73.891394,40.746848,551.9574484825134
12:01:30,1,711,69 St,-73.896403,40.746325,591.9574484825134
12:01:30,1,712,61 St-Woodside,-73.902984,40.74563,657.9574484825134
12:01:30,1,713,52 St,-73.912549,40.744149,740.9574484825133
12:01:30,1,714,46 St-Bliss St,-73.918435,40.743132,790.9574484825134
12:01:30,1,715,40 St-Lowery St,-73.924016,40.743781,843.9574484825133
12:01:30,1,716,33 St-Rawson St,-73.930997,40.744587,797.5561802387238
12:20:30,1,718,Queensboro Plaza,-73.940202,40.750582,668.5561802387238
13:35:30,1,719,Court Sq,-73.945264,40.747023,760.5561802387238
13:48:30,1,720,Hunters Point Av,-73.948916,40.742216,846.5561802387238
13:48:30,1,721,Vernon Blvd-Jackson Av,-73.953581,40.742626,856.1840490797547
13:48:30,1,723,Grand Central-42 St,-73.976041,40.751431,653.1840490797547
13:20:30,1,724,5 Av,-73.981963,40.753821,618.1840490797547
12:13:00,1,725,Times Sq-42 St,-73.987691,40.755477,660.1840490797546
12:13:00,1,726,34 St-Hudson Yards,-74.00191,40.755882,790.1840490797546
13:13:00,1,901,Grand Central-42 St,-73.979189,40.752769,648.0925898551941
13:13:00,1,902,Times Sq-42 St,-73.986229,40.755983,733.0925898551941
13:43:00,0,A02,Inwood-207 St,-73.919899,40.868072,2224.1840490797545
13:43:00,0,A03,Dyckman St,-73.927271,40.865491,2154.184049079755
13:43:00,0,A05,190 St,-73.93418,40.859022,2034.1840490797547
13:43:00,0,A06,181 St,-73.937969,40.851695,1927.184049079755
13:43:00,0,A07,175 St,-73.939704,40.847391,1858.1840490797547
13:43:00,0,A09,168 St,-73.939561,40.840719,1738.1840490797547
13:43:00,0,A10,163 St-Amsterdam Av,-73.939892,40.836013,1722.4339701632045
13:43:00,0,A11,155 St,-73.941514,40.830518,1657.4339701632048
13:43:00,0,A12,145 St,-73.944216,40.824783,1518.4393400648619
13:43:00,0,A14,135 St,-73.947649,40.817894,1441.4339701632048
12:20:30,0,A15,125 St,-73.952343,40.811109,1286.2760738829163
12:13:00,0,A16,116 St,-73.954882,40.805085,1368.276073882916
12:13:00,0,A17,Cathedral Pkwy (110 St),-73.958161,40.800603,1303.276073882916
12:13:00,0,A18,103 St,-73.961454,40.796092,1238.276073882916
12:13:00,0,A19,96 St,-73.964696,40.791642,1172.276073882916
12:13:00,0,A20,86 St,-73.968916,40.785868,1092.276073882916
12:13:00,0,A21,81 St-Museum of Natural History,-73.972143,40.781433,1017.2760738829162
12:13:00,0,A22,72 St,-73.97641,40.775594,948.2760738829163
12:13:00,0,A24,59 St-Columbus Circle,-73.981736,40.768296,828.2760738829163
12:13:00,0,A25,50 St,-73.985984,40.762456,868.1840490797546
13:13:00,0,A27,42 St-Port Authority Bus Terminal,-73.989735,40.757308,793.1840490797546
13:13:00,0,A28,34 St-Penn Station,-73.993391,40.752287,866.1840490797546
12:20:30,0,A30,23 St,-73.998041,40.745906,960.1840490797546
13:13:00,0,A31,14 St,-74.00169,40.740893,975.3321971395995
13:13:00,0,A32,W 4 St-Wash Sq,-74.000495,40.732338,987.1840490797546
12:05:30,1,A33,Spring St,-74.003739,40.726227,1070.1840490797545
12:20:30,1,A34,Canal St,-74.005229,40.720824,1127.5054778555418
13:13:00,0,A36,Chambers St,-74.008585,40.714111,1232.5054778555418
13:13:00,0,A38,Fulton St,-74.007691,40.710197,1324.7554778555418
12:28:00,0,A40,High St,-73.990531,40.699337,1503.755477855542
12:20:30,0,A41,Jay St-MetroTech,-73.987342,40.692338,1334.1840490797545
13:13:00,0,A42,Hoyt-Schermerhorn Sts,-73.985001,40.688484,1579.3692335585142
12:28:00,0,A43,Lafayette Av,-73.973946,40.686113,1704.3692335585142
12:28:00,0,A44,Clinton-Washington Avs,-73.965838,40.683263,1766.3692335585142
12:28:00,0,A45,Franklin Av,-73.956848,40.68138,1846.3692335585142
13:13:00,0,A46,Nostrand Av,-73.950426,40.680438,1824.944916675427
12:13:00,0,A47,Kingston-Throop Avs,-73.940858,40.679921,1905.6949166754273
12:13:00,0,A48,Utica Av,-73.930729,40.679364,1978.6949166754273
12:13:00,0,A49,Ralph Av,-73.920786,40.678822,2083.6949166754275
12:13:00,0,A50,Rockaway Av,-73.911946,40.67834,2158.6949166754275
13:13:00,0,A51,Broadway Junction,-73.905316,40.678334,2125.9710854986697
12:13:00,0,A52,Liberty Av,-73.896548,40.674542,2245.9710854986697
12:13:00,0,A53,Van Siclen Av,-73.890358,40.67271,2320.9710854986697
13:48:30,0,A54,Shepherd Av,-73.88075,40.67413,2398.9710854986693
13:13:00,0,A55,Euclid Av,-73.872106,40.675377,2402.9710854986697
13:13:00,0,A57,Grant Av,-73.86505,40.677044,2515.9710854986697
13:13:00,0,A59,80 St,-73.858992,40.679371,2585.9710854986693
13:13:00,0,A60,88 St,-73.85147,40.679843,2658.9710854986697
13:13:00,0,A61,Rockaway Blvd,-73.843853,40.680429,2723.9710854986697
12:43:00,0,A63,104 St,-73.837683,40.681711,2788.9710854986697
12:43:00,0,A64,111 St,-73.832163,40.684331,2850.9710854986697
12:43:00,0,A65,Ozone Park-Lefferts Blvd,-73.825798,40.685951,2920.9710854986697
12:01:30,0,B04,21 St-Queensbridge,-73.942836,40.754203,51.0
12:01:30,0,B06,Roosevelt Island,-73.95326,40.759145,0.0
12:05:30,0,B08,Lexington Av/63 St,-73.966113,40.764629,63.0
12:05:30,0,B10,57 St,-73.97745,40.763972,232.99999999999997
12:20:30,0,B12,9 Av,-73.994324,40.646292,2225.1840490797545
12:20:30,0,B13,Fort Hamilton Pkwy,-73.994304,40.640914,2302.1840490797545
12:20:30,0,B14,50 St,-73.994791,40.63626,2364.1840490797545
12:20:30,0,B15,55 St,-73.995476,40.631435,2439.1840490797545
12:20:30,0,B16,62 St,-73.996895,40.626472,2494.184049079754
12:20:30,0,B17,71 St,-73.998864,40.619589,2574.1840490797545
12:20:30,0,B18,79 St,-74.00061,40.613501,2654.1840490797545
12:20:30,0,B19,18 Av,-74.001736,40.607954,2717.1840490797545
12:20:30,0,B20,20 Av,-73.998168,40.604556,2781.1840490797545
12:20:30,0,B21,Bay Pkwy,-73.993728,40.601875,2841.1840490797545
12:20:30,0,B22,25 Av,-73.986829,40.597704,2956.1840490797545
12:20:30,0,B23,Bay 50 St,-73.983765,40.588841,3093.184049079754
12:20:30,0,D01,Norwood-205 St,-73.878855,40.874811,2307.4005374908443
12:20:30,0,D03,Bedford Park Blvd,-73.887138,40.873244,2192.4005374908447
12:20:30,0,D04,Kingsbridge Rd,-73.893509,40.866978,2092.4005374908447
12:20:30,0,D05,Fordham Rd,-73.897749,40.861296,2012.4005374908445
12:20:30,0,D06,182-183 Sts,-73.900741,40.856093,1942.4005374908447
12:20:30,0,D07,Tremont Av,-73.905227,40.85041,1878.4005374908447
12:20:30,0,D08,174-175 Sts,-73.910136,40.8459,1805.9005374908447
12:20:30,0,D09,170 St,-73.9134,40.839306,1725.9005374908447
12:20:30,0,D10,167 St,-73.91844,40.833771,1640.9005374908447
12:20:30,0,D11,161 St-Yankee Stadium,-73.925651,40.827905,1535.9005374908447
12:20:30,0,D12,155 St,-73.938209,40.830135,1581.276073882916
12:20:30,0,D13,145 St,-73.944216,40.824783,1471.276073882916
12:13:00,0,D14,7 Av,-73.981637,40.762862,743.2760738829162
12:13:00,0,D15,47-50 Sts-Rockefeller Ctr,-73.981329,40.758663,323.1840490797546
12:13:00,0,D16,42 St-Bryant Pk,-73.984569,40.754222,393.1840490797546
12:13:00,0,D17,34 St-Herald Sq,-73.987823,40.749719,456.1840490797546
12:13:00,0,D18,23 St,-73.992821,40.742878,565.1840490797546
12:13:00,0,D19,14 St,-73.996209,40.738228,627.1840490797546
13:57:30,0,D20,W 4 St-Wash Sq,-74.000495,40.732338,747.1840490797546
13:57:30,0,D21,Broadway-Lafayette St,-73.996204,40.725297,872.1840490797546
13:57:30,0,D22,Grand St,-73.993753,40.718267,1098.1840490797547
13:57:30,0,D24,Atlantic Av-Barclays Ctr,-73.97689,40.68446,1678.1840490797545
13:57:30,0,D25,7 Av,-73.972367,40.67705,1798.1840490797545
13:57:30,0,D26,Prospect Park,-73.962246,40.661614,1973.1840490797545
13:13:00,0,D27,Parkside Av,-73.961495,40.655292,2043.1840490797542
13:57:30,0,D28,Church Av,-73.962982,40.650527,2103.1840490797545
13:13:00,0,D29,Beverley Rd,-73.964492,40.644031,2196.434049079754
13:13:00,0,D30,Cortelyou Rd,-73.963891,40.640927,2256.434049079754
13:57:30,0,D31,Newkirk Plaza,-73.962793,40.635082,2256.1840490797545
13:05:30,0,D32,Avenue H,-73.961639,40.62927,2357.5040499666716
13:05:30,0,D33,Avenue J,-73.960803,40.625039,2427.504049966671
13:05:30,0,D34,Avenue M,-73.959399,40.617618,2517.504049966671
13:57:30,0,D35,Kings Hwy,-73.957734,40.60867,2482.4340490797545
13:57:30,0,D37,Avenue U,-73.955929,40.5993,2672.4443611601378
13:57:30,0,D38,Neck Rd,-73.955161,40.595246,2739.4443611601378
13:57:30,0,D39,Sheepshead Bay,-73.954155,40.586896,2687.4340490797545
13:57:30,0,D40,Brighton Beach,-73.961376,40.577621,2770.9340490797545
13:57:30,0,D41,Ocean Pkwy,-73.968501,40.576312,2958.1840490797545
13:57:30,0,D42,W 8 St-NY Aquarium,-73.975939,40.576127,3022.119233558514
13:57:30,0,D43,Coney Island-Stillwell Av,-73.981233,40.577422,3105.1840490797545
13:57:30,0,E01,World Trade Center,-74.009781,40.712582,1251.2973842123533
12:36:30,0,F01,Jamaica-179 St,-73.783817,40.712646,1375.0
13:32:00,0,F02,169 St,-73.793604,40.71047,1323.0
12:01:30,0,F03,Parsons Blvd,-73.803326,40.707564,1203.0
12:01:30,0,F04,Sutphin Blvd,-73.810708,40.70546,1138.0
12:01:30,0,F05,Briarwood,-73.820574,40.709179,1018.0000000000001
12:01:30,0,F06,Kew Gardens-Union Tpke,-73.831008,40.714441,898.0
12:01:30,0,F07,75 Av,-73.837324,40.718331,820.0
12:20:30,0,F09,Court Sq-23 St,-73.946,40.747846,880.5561802387238
12:20:30,0,F11,Lexington Av/53 St,-73.969055,40.757552,741.0473670959473
12:20:30,0,F12,5 Av/53 St,-73.975224,40.760167,801.8888895511627
12:20:30,0,F14,2 Av,-73.989938,40.723402,937.1840490797546
12:20:30,0,F15,Delancey St-Essex St,-73.988114,40.718611,1012.1840490797546
12:20:30,0,F16,East Broadway,-73.990173,40.713715,1077.1840490797545
12:20:30,0,F18,York St,-73.986751,40.701397,1212.1840490797545
12:20:30,0,F20,Bergen St,-73.990862,40.686145,1456.1840490797542
12:20:30,0,F21,Carroll St,-73.995048,40.680303,1534.1840490797545
12:20:30,0,F22,Smith-9 Sts,-73.995959,40.67358,1655.1840490797542
12:20:30,0,F23,4 Av-9 St,-73.989779,40.670272,1717.1840490797545
12:20:30,0,F24,7 Av,-73.980305,40.666271,1827.1840490797542
12:20:30,0,F25,15 St-Prospect Park,-73.979493,40.660365,1940.1840490797545
12:20:30,0,F26,Fort Hamilton Pkwy,-73.975776,40.650782,2070.1840490797545
12:20:30,0,F27,Church Av,-73.979678,40.644041,2072.619233558514
12:28:00,0,F29,Ditmas Av,-73.978172,40.636119,2198.1192335585147
12:28:00,0,F30,18 Av,-73.976971,40.629755,2308.369233558514
12:28:00,0,F31,Avenue I,-73.976127,40.625322,2370.1192335585147
12:28:00,0,F32,Bay Pkwy,-73.975264,40.620769,2433.119233558514
12:28:00,0,F33,Avenue N,-73.974197,40.61514,2505.6192335585147
12:28:00,0,F34,Avenue P,-73.973022,40.608944,2568.8692335585147
12:28:00,0,F35,Kings Hwy,-73.972361,40.603217,2646.1192335585147
13:28:00,0,F36,Avenue U,-73.973357,40.596063,2753.1192335585147
13:57:30,0,F38,Avenue X,-73.97425,40.58962,2825.869233558514
13:57:30,0,F39,Neptune Av,-73.974574,40.581011,2940.869233558514
13:58:30,0,G05,Jamaica Center-Parsons/Archer,-73.801109,40.702147,1365.485547065735
12:14:00,0,G06,Sutphin Blvd-Archer Av-JFK Airport,-73.807969,40.700486,1290.485547065735
12:14:00,0,G07,Jamaica-Van Wyck,-73.816859,40.702566,1175.485547065735
12:01:30,0,G08,Forest Hills-71 Av,-73.844521,40.721691,705.0
12:01:30,0,G09,67 Av,-73.852719,40.726523,875.0
12:01:30,0,G10,63 Dr-Rego Park,-73.861604,40.729846,895.8611116409301
12:01:30,0,G11,Woodhaven Blvd,-73.869229,40.733106,825.8611116409302
12:01:30,0,G12,Grand Av-Newtown,-73.877223,40.737015,740.8611116409302
12:01:30,0,G13,Elmhurst Av,-73.882017,40.742454,670.8611116409302
12:01:30,0,G14,Jackson Hts-Roosevelt Av,-73.891338,40.746644,340.99999999999994
13:58:30,0,G15,65 St,-73.898453,40.749669,646.0
13:58:30,0,G16,Northern Blvd,-73.906006,40.752885,721.0
13:58:30,0,G18,46 St,-73.913333,40.756312,791.0
13:58:30,0,G19,Steinway St,-73.92074,40.756879,872.8611116409301
12:05:30,1,G20,36 St,-73.928781,40.752039,882.9090898036958
12:05:30,1,G21,Queens Plaza,-73.937243,40.748973,772.9090898036957
12:20:30,1,G22,Court Sq,-73.943832,40.746554,820.5561802387238
12:20:30,1,G24,21 St,-73.949724,40.744065,890.5561802387238
12:20:30,1,G26,Greenpoint Av,-73.954449,40.731352,1012.5561802387238
12:20:30,1,G28,Nassau Av,-73.951277,40.724635,1118.5561802387238
12:20:30,1,G29,Metropolitan Av,-73.951418,40.712792,1243.5561802387235
12:20:30,1,G30,Broadway,-73.950308,40.706092,1308.5561802387235
12:20:30,1,G31,Flushing Av,-73.950234,40.700377,1378.5561802387235
12:20:30,1,G32,Myrtle-Willoughby Avs,-73.949046,40.694568,1443.5561802387235
12:20:30,1,G33,Bedford-Nostrand Avs,-73.953522,40.689627,1528.0561802387235
12:20:30,1,G34,Classon Av,-73.96007,40.688873,1593.0561802387235
12:20:30,1,G35,Clinton-Washington Avs,-73.966839,40.688089,1656.0561802387235
12:20:30,1,G36,Fulton St,-73.975375,40.687119,1726.0561802387238
12:28:00,0,H01,Aqueduct Racetrack,-73.834058,40.668234,2903.9710854986697
13:13:00,0,H02,Aqueduct-N Conduit Av,-73.834058,40.668234,2957.694916675427
13:13:00,0,H03,Howard Beach-JFK Airport,-73.830301,40.660476,3030.9710854986697
13:13:00,0,H04,Broad Channel,-73.815925,40.608382,3449.9710854986697
13:13:00,0,H06,Beach 67 St,-73.796924,40.590927,3726.9710854986697
13:13:00,0,H07,Beach 60 St,-73.788522,40.592374,3804.2210854986697
13:13:00,0,H08,Beach 44 St,-73.776013,40.592943,3889.2210854986697
13:13:00,0,H09,Beach 36 St,-73.768175,40.595398,3964.2210854986697
13:13:00,0,H10,Beach 25 St,-73.761353,40.600066,4042.2210854986697
13:13:00,0,H11,Far Rockaway-Mott Av,-73.755405,40.603995,4107.22108549867
13:43:00,0,H12,Beach 90 St,-73.813641,40.588034,3689.9710854986697
13:43:00,0,H13,Beach 98 St,-73.820558,40.585307,3754.9710854986697
13:43:00,0,H14,Beach 105 St,-73.827559,40.583209,3818.97108549867
13:43:00,0,H15,Rockaway Park-Beach 116 St,-73.835592,40.580903,3893.9710854986697
13:58:30,0,J12,121 St,-73.828294,40.700492,1539.485547065735
13:58:30,0,J13,111 St,-73.836345,40.697418,1540.485547065735
13:58:30,0,J14,104 St,-73.84433,40.695178,1651.4855470657353
13:58:30,0,J15,Woodhaven Blvd,-73.851576,40.693879,1741.4855470657353
13:58:30,0,J16,85 St-Forest Pkwy,-73.86001,40.692435,2029.6673657894141
13:58:30,0,J17,75 St-Elderts Ln,-73.867139,40.691324,2143.4173657894144
13:58:30,0,J19,Cypress Hills,-73.87255,40.689941,2149.667365789414
13:58:30,0,J20,Crescent St,-73.873785,40.683194,2198.6673657894144
13:58:30,0,J21,Norwood Av,-73.880039,40.68141,2258.6673657894144
13:58:30,0,J22,Cleveland St,-73.884639,40.679947,2249.6673657894144
13:58:30,0,J23,Van Siclen Av,-73.891688,40.678024,2275.9710854986697
13:57:30,0,J24,Alabama Av,-73.898654,40.676992,2215.9710854986697
13:57:30,0,J27,Broadway Junction,-73.904512,40.679498,2125.9710854986697
13:57:30,0,J28,Chauncey St,-73.910456,40.682893,2138.535902212003
13:57:30,0,J29,Halsey St,-73.916559,40.68637,2086.535902212003
13:57:30,0,J30,Gates Av,-73.92227,40.68963,2013.5359022120024
13:57:30,0,J31,Kosciuszko St,-73.928814,40.693342,1954.5359022120024
13:57:30,1,L01,8 Av,-74.002578,40.739777,915.3321971395995
12:13:00,1,L02,6 Av,-73.996786,40.737335,852.1840490797546
12:13:00,1,L03,14 St-Union Sq,-73.99073,40.734789,902.3321971395995
12:13:00,1,L05,3 Av,-73.986122,40.732849,934.3321971395995
12:13:00,1,L06,1 Av,-73.981628,40.730953,975.3321971395995
12:13:00,1,L08,Bedford Av,-73.956872,40.717304,1168.3321971395997
12:13:00,1,L10,Lorimer St,-73.950275,40.714063,1228.3321971395997
12:13:00,1,L11,Graham Av,-73.944053,40.714565,1258.3321971395997
12:13:00,1,L12,Grand St,-73.94067,40.711926,1338.3321971395997
12:13:00,1,L13,Montrose Av,-73.93985,40.707739,1367.3321971395997
12:13:00,1,L14,Morgan Av,-73.933147,40.706152,1440.3321971395994
12:13:00,1,L15,Jefferson St,-73.922913,40.706607,1537.184049079755
12:13:00,1,L16,DeKalb Av,-73.918425,40.703811,1592.3321971395997
12:13:00,1,L17,Myrtle-Wyckoff Avs,-73.911586,40.699814,1642.3321971395994
12:13:00,1,L19,Halsey St,-73.904084,40.695602,1691.184049079755
12:13:00,1,L20,Wilson Av,-73.904046,40.688764,1801.184049079755
12:13:00,1,L21,Bushwick Av-Aberdeen St,-73.905249,40.682829,1877.3321971395997
12:13:00,1,L22,Broadway Junction,-73.90324,40.678856,1908.3321971395997
12:13:00,1,L24,Atlantic Av,-73.903097,40.675345,1964.3321971395997
12:13:00,1,L25,Sutter Av,-73.901975,40.669367,2037.3321971395997
12:13:00,1,L26,Livonia Av,-73.900571,40.664038,2086.3321971396
12:13:00,1,L27,New Lots Av,-73.899232,40.658733,2151.1840490797554
12:13:00,1,L28,East 105 St,-73.899485,40.650573,2235.1840490797554
12:13:00,1,L29,Canarsie-Rockaway Pkwy,-73.90185,40.646654,2287.3321971396
13:57:30,0,M01,Middle Village-Metropolitan Av,-73.889601,40.711396,2145.3225814798857
13:57:30,0,M04,Fresh Pond Rd,-73.895877,40.706186,2086.2885078886534
13:57:30,0,M05,Forest Av,-73.903077,40.704423,2007.322581479886
13:57:30,0,M06,Seneca Av,-73.90774,40.702762,1935.3225814798857
13:57:30,0,M08,Myrtle-Wyckoff Avs,-73.912385,40.69943,1868.7885078886534
13:57:30,0,M09,Knickerbocker Av,-73.919711,40.698664,1946.7885078886534
13:57:30,0,M10,Central Av,-73.927397,40.697857,1985.3321971395997
13:57:30,0,M11,Myrtle Av,-73.935657,40.697207,1849.5359022120024
13:57:30,0,M12,Flushing Av,-73.941126,40.70026,1795.3321971395999
13:57:30,0,M13,Lorimer St,-73.947408,40.703869,1725.3321971395997
13:57:30,0,M14,Hewes St,-73.953431,40.70687,1655.3321971395997
13:57:30,0,M16,Marcy Av,-73.957757,40.708359,1589.3321971395997
13:57:30,0,M18,Delancey St-Essex St,-73.987437,40.718315,1230.3321971395994
13:35:30,1,M19,Bowery,-73.993915,40.72028,1313.5359022120026
13:13:00,1,M20,Canal St,-73.999892,40.718092,1248.092589855194
13:13:00,1,M21,Chambers St,-74.003401,40.713243,1178.092589855194
13:13:00,1,M22,Fulton St,-74.007582,40.710374,1243.092589855194
13:13:00,1,M23,Broad St,-74.011056,40.706476,1307.092589855194
13:28:00,0,N02,8 Av,-74.011719,40.635064,2393.1840490797545
13:28:00,0,N03,Fort Hamilton Pkwy,-74.005351,40.631386,2481.184049079755
13:28:00,0,N04,New Utrecht Av,-73.996353,40.624842,2593.934049079755
13:28:00,0,N05,18 Av,-73.990414,40.620671,2667.184049079755
13:28:00,0,N06,20 Av,-73.985026,40.61741,2732.184049079755
13:28:00,0,N07,Bay Pkwy,-73.981848,40.611815,2802.184049079755
13:28:00,0,N08,Kings Hwy,-73.980353,40.603923,2907.184049079755
13:28:00,0,N09,Avenue U,-73.979137,40.597473,2977.184049079755
13:28:00,0,N10,86 St,-73.97823,40.592721,3057.184049079755
13:13:00,0,Q01,Canal St,-74.00046,40.718383,1056.1840490797545
12:50:30,0,Q03,72 St,-73.958424,40.768799,543.0
12:50:30,0,Q04,86 St,-73.951787,40.777891,662.0000000000001
12:50:30,0,Q05,96 St,-73.947152,40.784318,718.25
13:28:00,0,R01,Astoria-Ditmars Blvd,-73.912034,40.775036,1142.8061785697937
13:28:00,0,R03,Astoria Blvd,-73.917843,40.770258,1078.092589855194
13:28:00,0,R04,30 Av,-73.921479,40.766779,1006.0925898551941
13:28:00,0,R05,Broadway,-73.925508,40.76182,941.0925898551941
13:28:00,0,R06,36 Av,-73.929575,40.756804,861.5561785697937
13:28:00,0,R08,39 Av-Dutch Kills,-73.932755,40.752882,793.0925898551941
13:48:30,1,R09,Queensboro Plaza,-73.940202,40.750582,621.5561785697937
13:13:00,0,R11,Lexington Av/59 St,-73.967258,40.76266,412.9090898036957
12:13:00,1,R13,5 Av/59 St,-73.973347,40.764811,482.9090898036957
13:13:00,0,R14,57 St-7 Av,-73.980658,40.764664,576.75
13:13:00,0,R15,49 St,-73.984139,40.759901,683.0925898551941
13:13:00,0,R16,Times Sq-42 St,-73.986754,40.754672,741.0000000000001
13:13:00,0,R17,34 St-Herald Sq,-73.98795,40.749567,681.1840490797546
13:13:00,0,R18,28 St,-73.988691,40.745494,743.1840490797546
13:13:00,0,R19,23 St,-73.989344,40.741303,808.1840490797546
13:13:00,0,R20,14 St-Union Sq,-73.990568,40.735736,816.1840490797546
13:13:00,0,R21,8 St-NYU,-73.992629,40.730328,963.1840490797547
13:13:00,0,R22,Prince St,-73.997702,40.724329,1061.4340490797547
13:13:00,0,R23,Canal St,-74.001775,40.719527,1136.4340490797547
13:13:00,0,R24,City Hall,-74.006978,40.713282,1256.4340490797547
13:13:00,0,R25,Cortlandt St,-74.011029,40.710668,1351.6126195887114
13:13:00,0,R26,Rector St,-74.013342,40.70722,1446.4340490797547
13:13:00,0,R27,Whitehall St-South Ferry,-74.012994,40.703087,1516.4340490797547
13:13:00,0,R28,Court St,-73.991777,40.6941,1542.1840490797542
13:13:00,0,R29,Jay St-MetroTech,-73.985942,40.69218,1469.1840490797545
13:57:30,0,R30,DeKalb Av,-73.981824,40.690635,1484.1840490797547
12:20:30,0,R31,Atlantic Av-Barclays Ctr,-73.97881,40.683666,1644.1840490797547
12:20:30,0,R32,Union St,-73.98311,40.677316,1736.1840490797547
12:20:30,0,R33,4 Av-9 St,-73.988302,40.670847,1811.1840490797547
12:20:30,0,R34,Prospect Av,-73.992872,40.665414,1888.4340490797547
12:20:30,0,R35,25 St,-73.998091,40.660397,1968.434049079755
12:20:30,0,R36,36 St,-74.003549,40.655144,1979.184049079755
12:20:30,0,R39,45 St,-74.010006,40.648939,2131.184049079755
13:28:00,0,R40,53 St,-74.014034,40.645069,2198.184049079755
13:28:00,0,R41,59 St,-74.017881,40.641362,2246.1840490797545
12:20:30,0,R42,Bay Ridge Av,-74.023377,40.634967,2400.724589298108
12:20:30,0,R43,77 St,-74.02551,40.629742,2463.7245892981077
12:20:30,0,R44,86 St,-74.028398,40.622687,2588.724589298108
12:20:30,0,R45,Bay Ridge-95 St,-74.030876,40.616622,2649.724589298108
13:57:30,0,S01,Franklin Av,-73.955827,40.680596,1906.3692335585142
13:57:30,0,S03,Park Pl,-73.957624,40.674772,2025.3692335585142
13:57:30,0,S04,Botanic Garden,-73.959245,40.670343,2091.369233558514
