start_time,ntransfers,stop_id,stop_name,stop_lon,stop_lat,duration
13:50:00,1,101,Van Cortlandt Park-242 St,-73.898583,40.889248,4358.304923772812
12:50:00,1,103,238 St,-73.90087,40.884667,4293.098513126373
12:50:00,1,104,231 St,-73.904834,40.878856,4207.098513126373
12:50:00,1,106,Marble Hill-225 St,-73.909831,40.874561,4127.098513126373
12:50:00,1,107,215 St,-73.915279,40.869444,4037.0985131263733
12:50:00,1,108,207 St,-73.918822,40.864621,3965.098513126373
12:50:00,1,109,Dyckman St,-73.925536,40.860531,3897.304923772812
12:50:00,1,110,191 St,-73.929412,40.855225,3822.304923772812
12:50:00,1,111,181 St,-73.933596,40.849505,3735.3049237728114
12:50:00,1,112,168 St-Washington Hts,-73.940133,40.840556,3623.3049237728114
12:50:00,1,113,157 St,-73.94489,40.834041,3688.320542812348
12:50:00,1,114,145 St,-73.95036,40.826551,3583.320542812348
12:50:00,1,115,137 St-City College,-73.953676,40.822008,3514.8205428123483
12:50:00,1,116,125 St,-73.958372,40.815581,3419.8205428123483
12:50:00,1,117,116 St-Columbia University,-73.96411,40.807722,3317.820542812348
12:50:00,1,118,Cathedral Pkwy (110 St),-73.966847,40.803967,3243.820542812348
12:50:00,1,119,103 St,-73.968379,40.799446,3169.820542812348
13:20:00,1,120,96 St,-73.972323,40.793919,2902.339623451233
13:20:00,1,121,86 St,-73.976218,40.788644,2981.820542812348
13:20:00,1,122,79 St,-73.979917,40.783934,2914.3205428123474
13:20:00,1,123,72 St,-73.98197,40.778453,2735.339623451233
13:00:00,1,124,66 St-Lincoln Center,-73.982209,40.77344,2764.0
13:30:00,1,125,59 St-Columbus Circle,-73.981929,40.768247,2687.0
13:30:00,1,126,50 St,-73.983849,40.761728,2615.339623451233
12:10:00,1,127,Times Sq-42 St,-73.987495,40.75529,2512.339623451233
12:10:00,1,128,34 St-Penn Station,-73.991057,40.750373,2570.0
12:20:00,1,129,28 St,-73.993365,40.747215,2675.339623451233
12:20:00,1,130,23 St,-73.995657,40.744081,2740.3396234512334
12:20:00,1,131,18 St,-73.997871,40.74104,2682.3006632328033
12:10:00,1,132,14 St,-74.000201,40.737826,2423.0
12:30:00,1,133,Christopher St-Sheridan Sq,-74.002906,40.733422,2641.474756717681
12:30:00,1,134,Houston St,-74.005367,40.728251,2564.474756717681
12:30:00,1,135,Canal St,-74.006277,40.722854,2485.474756717681
12:30:00,1,136,Franklin St,-74.006886,40.719318,2423.474756717681
12:10:00,1,137,Chambers St,-74.009266,40.715478,2206.0
12:10:00,1,138,WTC Cortlandt,-74.012188,40.711835,2306.4747567176814
12:10:00,1,139,Rector St,-74.013783,40.707513,2235.4747567176814
12:10:00,1,142,South Ferry,-74.013664,40.702068,2151.4747567176814
13:30:00,1,201,Wakefield-241 St,-73.85062,40.903125,5242.0
13:30:00,1,204,Nereid Av,-73.854376,40.898379,5120.000000000001
13:30:00,1,205,233 St,-73.857473,40.893193,5058.000000000001
13:30:00,1,206,225 St,-73.860341,40.888022,4971.000000000001
13:30:00,1,207,219 St,-73.862633,40.883895,4893.2290070056915
13:30:00,1,208,Gun Hill Rd,-73.866256,40.87785,4788.9790070056915
13:30:00,1,209,Burke Av,-73.867164,40.871356,4714.000000000001
13:30:00,1,210,Allerton Av,-73.867352,40.865462,4628.0
13:30:00,1,211,Pelham Pkwy,-73.867615,40.857192,4526.0
13:30:00,1,212,Bronx Park East,-73.868457,40.848828,4410.0
13:30:00,1,213,E 180 St,-73.873488,40.841894,4255.0
12:10:00,1,214,West Farms Sq-E Tremont Av,-73.880049,40.840295,4257.000000000001
12:10:00,1,215,174 St,-73.887734,40.837288,4148.000000000001
12:10:00,1,216,Freeman St,-73.891865,40.829993,4048.000000000001
12:10:00,1,217,Simpson St,-73.893064,40.824073,3929.000000000001
13:30:00,1,218,Intervale Av,-73.896736,40.822181,3856.000000000001
13:30:00,1,219,Prospect Av,-73.90177,40.819585,3780.0000000000005
12:10:00,1,220,Jackson Av,-73.907807,40.81649,3689.0000000000005
13:30:00,1,221,3 Av-149 St,-73.917757,40.816109,3564.0000000000005
12:10:00,1,222,149 St-Grand Concourse,-73.926718,40.81841,3462.0
13:20:00,1,224,135 St,-73.94077,40.814229,3400.589623451233
13:20:00,1,225,125 St,-73.945495,40.807754,3301.589623451233
13:20:00,1,226,116 St,-73.949625,40.802098,3207.589623451233
13:20:00,1,227,Central Park North (110 St),-73.951822,40.799075,3138.589623451233
12:10:00,1,228,Park Place,-74.008811,40.713051,2124.0
12:10:00,1,229,Fulton St,-74.006571,40.709416,2020.9999999999998
12:10:00,1,230,Wall St,-74.0091,40.706821,1952.0
12:10:00,1,231,Clark St,-73.993086,40.697466,1774.0
12:10:00,1,232,Borough Hall,-73.989998,40.693219,1664.0
12:10:00,1,233,Hoyt St,-73.985065,40.690545,1582.0
12:10:00,1,234,Nevins St,-73.980492,40.688246,1495.0
12:10:00,1,235,Atlantic Av-Barclays Ctr,-73.977666,40.684359,1418.0
12:20:00,1,236,Bergen St,-73.975098,40.680829,1490.0
12:20:00,1,237,Grand Army Plaza,-73.971046,40.675235,1595.9999999999998
12:20:00,1,238,Eastern Pkwy-Brooklyn Museum,-73.964375,40.671987,1698.9999999999998
12:10:00,1,239,Franklin Av-Medgar Evers College,-73.958131,40.670682,1800.6000032424927
12:30:00,1,241,President St-Medgar Evers College,-73.950683,40.667883,1947.9999999999998
12:30:00,1,242,Sterling St,-73.95085,40.662742,2031.9999999999995
12:30:00,1,243,Winthrop St,-73.9502,40.656652,2114.9999999999995
12:30:00,1,244,Church Av,-73.949575,40.650843,2176.9999999999995
12:30:00,1,245,Beverly Rd,-73.948959,40.645098,2237.9999999999995
12:30:00,1,246,Newkirk Av-Little Haiti,-73.948411,40.639967,2317.9999999999995
12:30:00,1,247,Flatbush Av-Brooklyn College,-73.947642,40.632836,2398.9999999999995
12:30:00,1,248,Nostrand Av,-73.950466,40.669847,1900.6000032424927
12:30:00,1,249,Kingston Av,-73.942161,40.669399,1982.6000032424927
12:10:00,1,250,Crown Hts-Utica Av,-73.932942,40.668897,1959.6000032424927
12:30:00,1,251,Sutter Av-Rutland Rd,-73.92261,40.664717,2092.3500032424927
12:30:00,1,252,Saratoga Av,-73.916327,40.661453,2190.3500032424927
12:30:00,1,253,Rockaway Av,-73.908946,40.662549,2271.3500032424927
12:30:00,1,254,Junius St,-73.902447,40.663515,2350.350003242493
12:30:00,1,255,Pennsylvania Av,-73.894895,40.664635,2444.350003242493
12:30:00,1,256,Van Siclen Av,-73.889395,40.665449,2518.350003242493
12:30:00,1,257,New Lots Av,-73.884079,40.666235,2577.350003242493
12:10:00,1,301,Harlem-148 St,-73.93647,40.82388,3580.3396234512334
12:10:00,1,302,145 St,-73.936245,40.820421,3508.339623451233
13:50:00,1,401,Woodlawn,-73.878751,40.886037,4565.289470672607
13:50:00,1,402,Mosholu Pkwy,-73.884655,40.87975,4470.289470672607
12:30:00,1,405,Bedford Park Blvd-Lehman College,-73.890064,40.873412,4366.289470672607
12:30:00,1,406,Kingsbridge Rd,-73.897174,40.86776,4264.307947635651
12:30:00,1,407,Fordham Rd,-73.901034,40.862803,4173.307947635651
12:30:00,1,408,183 St,-73.903879,40.858407,4094.307947635651
12:30:00,1,409,Burnside Av,-73.907684,40.853453,4003.307947635651
12:30:00,1,410,176 St,-73.911794,40.84848,3933.039470672608
12:30:00,1,411,Mt Eden Av,-73.914685,40.844434,3858.039470672608
12:30:00,1,412,170 St,-73.917791,40.840075,3780.039470672608
12:30:00,1,413,167 St,-73.9214,40.835537,3695.039470672608
12:30:00,1,414,161 St-Yankee Stadium,-73.925831,40.827994,3591.039470672608
12:30:00,1,415,149 St-Grand Concourse,-73.927351,40.818375,3472.0
12:10:00,1,416,138 St-Grand Concourse,-73.929849,40.813224,3345.0
12:10:00,1,418,Fulton St,-74.009509,40.710368,2040.2290070056915
12:10:00,1,419,Wall St,-74.011862,40.707557,1969.2290070056918
12:10:00,1,420,Bowling Green,-74.014065,40.704817,1900.2290070056915
12:10:00,1,423,Borough Hall,-73.990151,40.692404,1660.2290070056915
13:30:00,1,501,Eastchester-Dyre Av,-73.830834,40.8883,4884.0
13:30:00,1,502,Baychester Av,-73.838591,40.878663,4790.000000000001
13:30:00,1,503,Gun Hill Rd,-73.846384,40.869526,4669.000000000001
13:30:00,1,504,Pelham Pkwy,-73.855359,40.858985,4539.0
13:30:00,1,505,Morris Park,-73.860495,40.854364,4456.0
13:10:00,1,601,Pelham Bay Park,-73.828121,40.852462,4704.142858505249
13:10:00,1,602,Buhre Av,-73.832569,40.84681,4593.142858505249
13:10:00,1,603,Middletown Rd,-73.836322,40.843863,4524.142858505249
13:10:00,1,604,Westchester Sq-E Tremont Av,-73.842952,40.839892,4432.142858505249
13:10:00,1,606,Zerega Av,-73.847036,40.836488,4357.392858505249
13:10:00,1,607,Castle Hill Av,-73.851222,40.834255,4293.392858505249
12:30:00,1,608,Parkchester,-73.860816,40.833226,4172.392858505249
12:30:00,1,609,St Lawrence Av,-73.867618,40.831509,4407.9871706962585
12:30:00,1,610,Morrison Av-Soundview,-73.874516,40.829521,4328.9871706962585
12:30:00,1,611,Elder Av,-73.879159,40.828584,4265.9871706962585
12:30:00,1,612,Whitlock Av,-73.886283,40.826525,4172.9871706962585
12:30:00,1,613,Hunts Point Av,-73.890549,40.820948,3965.142858505249
12:10:00,1,614,Longwood Av,-73.896435,40.816104,4049.4883737564087
12:10:00,1,615,E 149 St,-73.904098,40.812118,3956.488373756409
12:10:00,1,616,E 143 St-St Mary's St,-73.907657,40.808719,3886.4883737564087
12:10:00,1,617,Cypress Av,-73.914042,40.805368,3776.4883737564087
12:10:00,1,618,Brook Av,-73.91924,40.807566,3707.4883737564087
12:10:00,1,619,3 Av-138 St,-73.926138,40.810476,3611.4883737564087
12:10:00,1,621,125 St,-73.937594,40.804138,3210.0
12:10:00,1,622,116 St,-73.941617,40.798629,3398.2285723686223
12:10:00,1,623,110 St,-73.94425,40.79502,3324.2285723686223
12:10:00,1,624,103 St,-73.947478,40.7906,3251.2285723686223
12:10:00,1,625,96 St,-73.95107,40.785672,3167.2285723686223
12:10:00,1,626,86 St,-73.955589,40.779492,2945.0
12:10:00,1,627,77 St,-73.959874,40.77362,2977.2285723686223
12:10:00,1,628,68 St-Hunter College,-73.96387,40.768141,2889.2285723686223
12:10:00,1,629,59 St,-73.967967,40.762526,2755.0000000000005
12:10:00,1,630,51 St,-73.97192,40.757107,2702.2285723686223
12:10:00,1,631,Grand Central-42 St,-73.976848,40.751776,2593.228572368622
12:00:00,1,632,33 St,-73.982076,40.746081,2487.2285723686223
12:00:00,1,633,28 St,-73.984264,40.74307,2423.228572368622
12:00:00,1,634,23 St,-73.986599,40.739864,2357.228572368622
12:10:00,1,635,14 St-Union Sq,-73.989951,40.734673,2237.228572368622
12:00:00,1,636,Astor Pl,-73.99107,40.730054,2163.228572368622
14:00:00,1,637,Bleecker St,-73.994659,40.725915,2075.228572368622
14:00:00,1,638,Spring St,-73.997141,40.722301,2139.228572368622
12:10:00,1,639,Canal St,-74.000193,40.718803,2120.339623451233
12:10:00,1,640,Brooklyn Bridge-City Hall,-74.004131,40.713065,2143.2290070056915
14:00:00,1,701,Flushing-Main St,-73.83003,40.7596,3798.047873497009
14:00:00,1,702,Mets-Willets Point,-73.845625,40.754622,3655.0478734970093
12:20:00,1,705,111 St,-73.855334,40.75173,3713.536247253418
12:20:00,1,706,103 St-Corona Plaza,-73.8627,40.749865,3626.75
14:00:00,1,707,Junction Blvd,-73.869527,40.749145,3464.0478734970093
12:20:00,1,708,90 St-Elmhurst Av,-73.876613,40.748408,3489.75
12:20:00,1,709,82 St-Jackson Hts,-73.883697,40.747659,3425.75
12:00:00,1,710,74 St-Broadway,-73.891394,40.746848,3278.7499999999995
12:00:00,1,711,69 St,-73.896403,40.746325,3238.75
14:00:00,1,712,61 St-Woodside,-73.902984,40.74563,3172.75
12:00:00,1,713,52 St,-73.912549,40.744149,3089.75
12:00:00,1,714,46 St-Bliss St,-73.918435,40.743132,3039.7499999999995
12:00:00,1,715,40 St-Lowery St,-73.924016,40.743781,2986.7499999999995
12:00:00,1,716,33 St-Rawson St,-73.930997,40.744587,2925.7499999999995
12:00:00,1,718,Queensboro Plaza,-73.940202,40.750582,2826.75
12:00:00,1,719,Court Sq,-73.945264,40.747023,2751.75
12:00:00,1,720,Hunters Point Av,-73.948916,40.742216,2743.0
12:00:00,1,721,Vernon Blvd-Jackson Av,-73.953581,40.742626,2688.0000000000005
12:00:00,1,723,Grand Central-42 St,-73.976041,40.751431,2485.0000000000005
14:00:00,1,724,5 Av,-73.981963,40.753821,2450.0
12:00:00,1,725,Times Sq-42 St,-73.987691,40.755477,2492.0000000000005
12:00:00,1,726,34 St-Hudson Yards,-74.00191,40.755882,2622.0
13:20:00,1,901,Grand Central-42 St,-73.979189,40.752769,2533.339623451233
13:20:00,1,902,Times Sq-42 St,-73.986229,40.755983,2452.339623451233
13:00:00,0,A02,Inwood-207 St,-73.919899,40.868072,3883.815792560577
13:00:00,0,A03,Dyckman St,-73.927271,40.865491,3813.815792560577
13:00:00,0,A05,190 St,-73.93418,40.859022,3693.815792560577
13:00:00,0,A06,181 St,-73.937969,40.851695,3586.815792560577
13:00:00,0,A07,175 St,-73.939704,40.847391,3517.815792560577
13:00:00,0,A09,168 St,-73.939561,40.840719,3397.815792560577
12:10:00,0,A10,163 St-Amsterdam Av,-73.939892,40.836013,3355.657896280289
12:10:00,0,A11,155 St,-73.941514,40.830518,3290.6578962802887
12:20:00,0,A12,145 St,-73.944216,40.824783,3151.663266181946
12:20:00,0,A14,135 St,-73.947649,40.817894,3074.6578962802887
12:50:00,0,A15,125 St,-73.952343,40.811109,2919.5
12:00:00,0,A16,116 St,-73.954882,40.805085,3032.6578962802887
13:00:00,0,A17,Cathedral Pkwy (110 St),-73.958161,40.800603,3096.6578962802887
13:00:00,0,A18,103 St,-73.961454,40.796092,3078.339623451233
13:00:00,0,A19,96 St,-73.964696,40.791642,3013.339623451233
13:00:00,0,A20,86 St,-73.968916,40.785868,2935.339623451233
13:00:00,0,A21,81 St-Museum of Natural History,-73.972143,40.781433,2860.339623451233
13:00:00,0,A22,72 St,-73.97641,40.775594,2792.339623451233
12:50:00,0,A24,59 St-Columbus Circle,-73.981736,40.768296,2462.0
12:50:00,0,A25,50 St,-73.985984,40.762456,2587.339623451233
14:00:00,0,A27,42 St-Port Authority Bus Terminal,-73.989735,40.757308,2512.339623451233
12:00:00,1,A28,34 St-Penn Station,-73.993391,40.752287,2487.631579399109
12:30:00,1,A30,23 St,-73.998041,40.745906,2417.0
13:10:00,1,A31,14 St,-74.00169,40.740893,2342.0
13:10:00,1,A32,W 4 St-Wash Sq,-74.000495,40.732338,2228.0
13:00:00,1,A33,Spring St,-74.003739,40.726227,2311.0
13:10:00,1,A34,Canal St,-74.005229,40.720824,2260.589623451233
13:10:00,1,A36,Chambers St,-74.008585,40.714111,2141.99587225914
13:10:00,1,A38,Fulton St,-74.007691,40.710197,2066.99587225914
13:10:00,1,A40,High St,-73.990531,40.699337,1891.99587225914
13:40:00,1,A41,Jay St-MetroTech,-73.987342,40.692338,1700.25
13:20:00,1,A42,Hoyt-Schermerhorn Sts,-73.985001,40.688484,1681.25
12:10:00,1,A43,Lafayette Av,-73.973946,40.686113,1996.9958722591402
13:20:00,1,A44,Clinton-Washington Avs,-73.965838,40.683263,2059.5539076328278
13:20:00,1,A45,Franklin Av,-73.956848,40.68138,2052.6400017738347
13:20:00,1,A46,Nostrand Av,-73.950426,40.680438,2115.6400017738342
12:10:00,1,A47,Kingston-Throop Avs,-73.940858,40.679921,2190.6400017738342
13:20:00,1,A48,Utica Av,-73.930729,40.679364,2268.6400017738342
12:10:00,1,A49,Ralph Av,-73.920786,40.678822,2373.6400017738342
12:10:00,1,A50,Rockaway Av,-73.911946,40.67834,2445.6400017738342
13:20:00,1,A51,Broadway Junction,-73.905316,40.678334,2467.339623451233
13:20:00,1,A52,Liberty Av,-73.896548,40.674542,2586.339623451233
13:20:00,1,A53,Van Siclen Av,-73.890358,40.67271,2651.3396234512334
13:20:00,1,A54,Shepherd Av,-73.88075,40.67413,2731.3396234512334
13:20:00,1,A55,Euclid Av,-73.872106,40.675377,2762.339623451233
13:20:00,1,A57,Grant Av,-73.86505,40.677044,2839.339623451233
13:20:00,1,A59,80 St,-73.858992,40.679371,2924.3396234512325
13:20:00,1,A60,88 St,-73.85147,40.679843,2989.339623451233
13:20:00,1,A61,Rockaway Blvd,-73.843853,40.680429,3079.339623451233
13:10:00,1,A63,104 St,-73.837683,40.681711,3144.339623451233
13:10:00,1,A64,111 St,-73.832163,40.684331,3211.339623451233
13:10:00,1,A65,Ozone Park-Lefferts Blvd,-73.825798,40.685951,3275.339623451233
12:20:00,0,B04,21 St-Queensbridge,-73.942836,40.754203,3013.1840490797545
12:20:00,0,B06,Roosevelt Island,-73.95326,40.759145,2841.1840490797545
12:20:00,0,B08,Lexington Av/63 St,-73.966113,40.764629,2756.5896234512325
12:20:00,0,B10,57 St,-73.97745,40.763972,2608.1840490797545
12:00:00,0,B12,9 Av,-73.994324,40.646292,616.0
12:00:00,0,B13,Fort Hamilton Pkwy,-73.994304,40.640914,539.0
12:00:00,0,B14,50 St,-73.994791,40.63626,476.99999999999994
12:00:00,0,B15,55 St,-73.995476,40.631435,401.99999999999994
12:00:00,0,B16,62 St,-73.996895,40.626472,338.0
12:00:00,0,B17,71 St,-73.998864,40.619589,263.0
12:00:00,0,B18,79 St,-74.00061,40.613501,186.99999999999997
12:00:00,0,B19,18 Av,-74.001736,40.607954,123.99999999999999
12:00:00,0,B20,20 Av,-73.998168,40.604556,60.0
12:00:00,0,B21,Bay Pkwy,-73.993728,40.601875,0.0
12:04:00,0,B22,25 Av,-73.986829,40.597704,75.0
12:04:00,0,B23,Bay 50 St,-73.983765,40.588841,195.0
12:00:00,0,D01,Norwood-205 St,-73.878855,40.874811,4077.5000000000005
12:00:00,0,D03,Bedford Park Blvd,-73.887138,40.873244,3962.5000000000005
12:00:00,0,D04,Kingsbridge Rd,-73.893509,40.866978,3862.5
12:00:00,0,D05,Fordham Rd,-73.897749,40.861296,3782.5000000000005
12:00:00,0,D06,182-183 Sts,-73.900741,40.856093,3712.5000000000005
12:50:00,0,D07,Tremont Av,-73.905227,40.85041,3648.5
12:50:00,0,D08,174-175 Sts,-73.910136,40.8459,3616.5000000000005
12:50:00,0,D09,170 St,-73.9134,40.839306,3536.5
12:50:00,0,D10,167 St,-73.91844,40.833771,3451.5000000000005
12:50:00,0,D11,161 St-Yankee Stadium,-73.925651,40.827905,3346.5000000000005
12:50:00,0,D12,155 St,-73.938209,40.830135,3229.5
12:50:00,0,D13,145 St,-73.944216,40.824783,3104.5
12:50:00,0,D14,7 Av,-73.981637,40.762862,2377.0
12:00:00,0,D15,47-50 Sts-Rockefeller Ctr,-73.981329,40.758663,2295.0
12:00:00,0,D16,42 St-Bryant Pk,-73.984569,40.754222,2225.0
12:00:00,0,D17,34 St-Herald Sq,-73.987823,40.749719,2160.0
13:00:00,0,D18,23 St,-73.992821,40.742878,2367.4999999999995
13:00:00,0,D19,14 St,-73.996209,40.738228,2292.4999999999995
12:00:00,0,D20,W 4 St-Wash Sq,-74.000495,40.732338,1988.0
12:00:00,0,D21,Broadway-Lafayette St,-73.996204,40.725297,1862.9999999999998
12:00:00,0,D22,Grand St,-73.993753,40.718267,1742.9999999999998
12:30:00,0,D24,Atlantic Av-Barclays Ctr,-73.97689,40.68446,1540.2619032859802
12:10:00,1,D25,7 Av,-73.972367,40.67705,1660.2619032859802
12:30:00,0,D26,Prospect Park,-73.962246,40.661614,1557.0
12:30:00,0,D27,Parkside Av,-73.961495,40.655292,1578.9404776096344
12:04:00,0,D28,Church Av,-73.962982,40.650527,1437.0
12:04:00,0,D29,Beverley Rd,-73.964492,40.644031,1406.1666650772095
12:04:00,0,D30,Cortelyou Rd,-73.963891,40.640927,1361.1666650772095
12:04:00,0,D31,Newkirk Plaza,-73.962793,40.635082,1267.0
12:04:00,0,D32,Avenue H,-73.961639,40.62927,1268.2500000000002
12:04:00,0,D33,Avenue J,-73.960803,40.625039,1213.25
12:04:00,0,D34,Avenue M,-73.959399,40.617618,1123.25
12:04:00,0,D35,Kings Hwy,-73.957734,40.60867,1012.0
12:04:00,0,D37,Avenue U,-73.955929,40.5993,944.0
12:04:00,0,D38,Neck Rd,-73.955161,40.595246,876.9999999999999
12:04:00,0,D39,Sheepshead Bay,-73.954155,40.586896,764.0
12:04:00,0,D40,Brighton Beach,-73.961376,40.577621,644.0
12:04:00,0,D41,Ocean Pkwy,-73.968501,40.576312,582.0
12:34:00,0,D42,W 8 St-NY Aquarium,-73.975939,40.576127,497.0
12:04:00,0,D43,Coney Island-Stillwell Av,-73.981233,40.577422,375.0
13:40:00,1,E01,World Trade Center,-74.009781,40.712582,2201.339623451233
12:00:00,0,F01,Jamaica-179 St,-73.783817,40.712646,4223.25
12:20:00,0,F02,169 St,-73.793604,40.71047,4158.749999999999
12:20:00,0,F03,Parsons Blvd,-73.803326,40.707564,4035.0
12:20:00,0,F04,Sutphin Blvd,-73.810708,40.70546,3964.9999999999995
12:20:00,0,F05,Briarwood,-73.820574,40.709179,3824.75
14:00:00,0,F06,Kew Gardens-Union Tpke,-73.831008,40.714441,3704.75
12:20:00,0,F07,75 Av,-73.837324,40.718331,3625.75
14:00:00,0,F09,Court Sq-23 St,-73.946,40.747846,2751.75
14:00:00,0,F11,Lexington Av/53 St,-73.969055,40.757552,2756.439253807068
14:00:00,0,F12,5 Av/53 St,-73.975224,40.760167,2671.530612244898
14:00:00,0,F14,2 Av,-73.989938,40.723402,2095.25
12:20:00,1,F15,Delancey St-Essex St,-73.988114,40.718611,2018.2500000000002
12:20:00,1,F16,East Broadway,-73.990173,40.713715,1953.25
13:50:00,1,F18,York St,-73.986751,40.701397,1822.2499999999998
12:30:00,1,F20,Bergen St,-73.990862,40.686145,1574.2499999999998
12:30:00,1,F21,Carroll St,-73.995048,40.680303,1500.25
13:20:00,1,F22,Smith-9 Sts,-73.995959,40.67358,1379.25
12:34:00,0,F23,4 Av-9 St,-73.989779,40.670272,1317.25
14:00:00,1,F24,7 Av,-73.980305,40.666271,1420.2499999999998
12:34:00,0,F25,15 St-Prospect Park,-73.979493,40.660365,1528.25
12:34:00,0,F26,Fort Hamilton Pkwy,-73.975776,40.650782,1530.25
12:34:00,0,F27,Church Av,-73.979678,40.644041,1425.25
12:34:00,0,F29,Ditmas Av,-73.978172,40.636119,1305.25
12:34:00,0,F30,18 Av,-73.976971,40.629755,1225.25
12:34:00,0,F31,Avenue I,-73.976127,40.625322,1160.2500000000002
12:34:00,0,F32,Bay Pkwy,-73.975264,40.620769,1097.25
12:34:00,0,F33,Avenue N,-73.974197,40.61514,1025.2500000000002
12:34:00,0,F34,Avenue P,-73.973022,40.608944,961.7500000000001
12:34:00,0,F35,Kings Hwy,-73.972361,40.603217,891.75
12:34:00,0,F36,Avenue U,-73.973357,40.596063,796.75
12:34:00,0,F38,Avenue X,-73.97425,40.58962,725.75
12:34:00,0,F39,Neptune Av,-73.974574,40.581011,610.75
13:00:00,0,G05,Jamaica Center-Parsons/Archer,-73.801109,40.702147,3888.2605721950536
14:00:00,0,G06,Sutphin Blvd-Archer Av-JFK Airport,-73.807969,40.700486,3824.260572195054
14:00:00,0,G07,Jamaica-Van Wyck,-73.816859,40.702566,3894.7499999999995
14:00:00,0,G08,Forest Hills-71 Av,-73.844521,40.721691,3529.75
13:00:00,0,G09,67 Av,-73.852719,40.726523,3635.25
13:00:00,0,G10,63 Dr-Rego Park,-73.861604,40.729846,3555.25
13:00:00,0,G11,Woodhaven Blvd,-73.869229,40.733106,3480.25
13:00:00,0,G12,Grand Av-Newtown,-73.877223,40.737015,3380.25
13:00:00,0,G13,Elmhurst Av,-73.882017,40.742454,3306.75
14:00:00,0,G14,Jackson Hts-Roosevelt Av,-73.891338,40.746644,3181.75
13:00:00,0,G15,65 St,-73.898453,40.749669,3291.75
12:10:00,0,G16,Northern Blvd,-73.906006,40.752885,3347.4327266989267
12:10:00,0,G18,46 St,-73.913333,40.756312,3257.4327266989267
12:10:00,0,G19,Steinway St,-73.92074,40.756879,3140.525510204082
12:10:00,0,G20,36 St,-73.928781,40.752039,3020.525510204082
14:00:00,0,G21,Queens Plaza,-73.937243,40.748973,2861.75
12:20:00,1,G22,Court Sq,-73.943832,40.746554,2691.75
14:00:00,1,G24,21 St,-73.949724,40.744065,2621.75
12:20:00,1,G26,Greenpoint Av,-73.954449,40.731352,2499.75
12:20:00,1,G28,Nassau Av,-73.951277,40.724635,2393.75
12:20:00,1,G29,Metropolitan Av,-73.951418,40.712792,2268.75
12:20:00,1,G30,Broadway,-73.950308,40.706092,2202.25
12:20:00,1,G31,Flushing Av,-73.950234,40.700377,2133.75
12:20:00,1,G32,Myrtle-Willoughby Avs,-73.949046,40.694568,2068.75
12:20:00,1,G33,Bedford-Nostrand Avs,-73.953522,40.689627,1964.2499999999998
12:20:00,1,G34,Classon Av,-73.96007,40.688873,1904.2499999999998
12:20:00,1,G35,Clinton-Washington Avs,-73.966839,40.688089,1843.25
12:20:00,1,G36,Fulton St,-73.975375,40.687119,1768.25
12:20:00,1,H01,Aqueduct Racetrack,-73.834058,40.668234,3281.5539076328278
13:20:00,1,H02,Aqueduct-N Conduit Av,-73.834058,40.668234,3251.339623451233
13:20:00,1,H03,Howard Beach-JFK Airport,-73.830301,40.660476,3371.339623451233
13:20:00,1,H04,Broad Channel,-73.815925,40.608382,3781.339623451233
13:20:00,1,H06,Beach 67 St,-73.796924,40.590927,4034.3396234512325
13:20:00,1,H07,Beach 60 St,-73.788522,40.592374,4114.339623451232
13:20:00,1,H08,Beach 44 St,-73.776013,40.592943,4204.339623451232
13:20:00,1,H09,Beach 36 St,-73.768175,40.595398,4274.339623451233
13:20:00,1,H10,Beach 25 St,-73.761353,40.600066,4339.339623451232
13:20:00,1,H11,Far Rockaway-Mott Av,-73.755405,40.603995,4402.339623451232
13:50:00,1,H12,Beach 90 St,-73.813641,40.588034,4067.553907632828
13:50:00,1,H13,Beach 98 St,-73.820558,40.585307,4132.553907632828
13:50:00,1,H14,Beach 105 St,-73.827559,40.583209,4196.553907632828
13:50:00,1,H15,Rockaway Park-Beach 116 St,-73.835592,40.580903,4271.553907632828
12:00:00,2,J12,121 St,-73.828294,40.700492,3715.3900017738347
13:10:00,2,J13,111 St,-73.836345,40.697418,3773.260572195054
13:10:00,2,J14,104 St,-73.84433,40.695178,3535.3900017738347
13:10:00,2,J15,Woodhaven Blvd,-73.851576,40.693879,3345.0539076328273
13:10:00,2,J16,85 St-Forest Pkwy,-73.86001,40.692435,3284.0787534713754
13:10:00,2,J17,75 St-Elderts Ln,-73.867139,40.691324,3165.0539076328273
13:10:00,2,J19,Cypress Hills,-73.87255,40.689941,3164.0787534713754
13:10:00,2,J20,Crescent St,-73.873785,40.683194,3065.5539076328273
13:10:00,2,J21,Norwood Av,-73.880039,40.68141,3024.5539076328273
13:10:00,2,J22,Cleveland St,-73.884639,40.679947,2998.7480828762054
13:10:00,2,J23,Van Siclen Av,-73.891688,40.678024,2875.3900017738347
13:10:00,2,J24,Alabama Av,-73.898654,40.676992,2815.3900017738347
13:10:00,2,J27,Broadway Junction,-73.904512,40.679498,2725.3900017738347
13:10:00,2,J28,Chauncey St,-73.910456,40.682893,2785.3900017738347
12:00:00,2,J29,Halsey St,-73.916559,40.68637,2897.0787534713745
12:00:00,2,J30,Gates Av,-73.92227,40.68963,2928.5539076328278
12:30:00,0,J31,Kosciuszko St,-73.928814,40.693342,2951.060776472092
12:00:00,1,L01,8 Av,-74.002578,40.739777,2414.631579399109
12:00:00,1,L02,6 Av,-73.996786,40.737335,2402.3006632328033
12:00:00,1,L03,14 St-Union Sq,-73.99073,40.734789,2334.3006632328033
13:20:00,1,L05,3 Av,-73.986122,40.732849,2388.3006632328033
13:20:00,1,L06,1 Av,-73.981628,40.730953,2413.3006632328033
13:20:00,1,L08,Bedford Av,-73.956872,40.717304,2578.464284181595
13:20:00,1,L10,Lorimer St,-73.950275,40.714063,2518.464284181595
13:20:00,1,L11,Graham Av,-73.944053,40.714565,2548.464284181595
13:20:00,1,L12,Grand St,-73.94067,40.711926,2623.464284181595
13:20:00,1,L13,Montrose Av,-73.93985,40.707739,2656.464284181595
13:20:00,1,L14,Morgan Av,-73.933147,40.706152,2707.464284181595
13:20:00,1,L15,Jefferson St,-73.922913,40.706607,2784.464284181595
13:20:00,1,L16,DeKalb Av,-73.918425,40.703811,2843.464284181595
13:20:00,1,L17,Myrtle-Wyckoff Avs,-73.911586,40.699814,2909.464284181595
12:00:00,2,L19,Halsey St,-73.904084,40.695602,2930.192795991897
13:20:00,2,L20,Wilson Av,-73.904046,40.688764,2807.192795991897
13:20:00,2,L21,Bushwick Av-Aberdeen St,-73.905249,40.682829,2752.1927959918976
13:20:00,2,L22,Broadway Junction,-73.90324,40.678856,2721.1927959918976
13:20:00,2,L24,Atlantic Av,-73.903097,40.675345,2777.192795991897
13:20:00,2,L25,Sutter Av,-73.901975,40.669367,2738.1000020504002
13:20:00,2,L26,Livonia Av,-73.900571,40.664038,2689.1000020504002
13:20:00,2,L27,New Lots Av,-73.899232,40.658733,2735.3500020504002
13:20:00,2,L28,East 105 St,-73.899485,40.650573,2819.3500020504002
13:50:00,2,L29,Canarsie-Rockaway Pkwy,-73.90185,40.646654,2890.1000020504002
13:00:00,0,M01,Middle Village-Metropolitan Av,-73.889601,40.711396,3412.454668521881
12:40:00,0,M04,Fresh Pond Rd,-73.895877,40.706186,3351.964284181595
13:00:00,0,M05,Forest Av,-73.903077,40.704423,3274.454668521881
12:40:00,0,M06,Seneca Av,-73.90774,40.702762,3202.454668521881
12:40:00,0,M08,Myrtle-Wyckoff Avs,-73.912385,40.69943,3134.464284181595
12:10:00,0,M09,Knickerbocker Av,-73.919711,40.698664,3068.9733979702
12:40:00,0,M10,Central Av,-73.927397,40.697857,3003.9733979702
12:10:00,0,M11,Myrtle Av,-73.935657,40.697207,2846.060776472092
12:10:00,0,M12,Flushing Av,-73.941126,40.70026,2807.0607764720917
12:10:00,0,M13,Lorimer St,-73.947408,40.703869,2739.5192313194275
12:10:00,0,M14,Hewes St,-73.953431,40.70687,2671.0607764720917
12:10:00,0,M16,Marcy Av,-73.957757,40.708359,2601.0607764720917
12:10:00,0,M18,Delancey St-Essex St,-73.987437,40.718315,2248.060776472092
12:00:00,1,M19,Bowery,-73.993915,40.72028,2186.060776472092
12:00:00,1,M20,Canal St,-73.999892,40.718092,2106.0607764720917
12:00:00,1,M21,Chambers St,-74.003401,40.713243,2202.060776472092
12:00:00,1,M22,Fulton St,-74.007582,40.710374,2267.060776472092
12:00:00,1,M23,Broad St,-74.011056,40.706476,2331.060776472092
13:40:00,1,N02,8 Av,-74.011719,40.635064,754.1226429939269
13:40:00,1,N03,Fort Hamilton Pkwy,-74.005351,40.631386,689.1226429939269
13:30:00,1,N04,New Utrecht Av,-73.996353,40.624842,571.9999999999999
12:00:00,1,N05,18 Av,-73.990414,40.620671,642.9999999999999
12:00:00,1,N06,20 Av,-73.985026,40.61741,707.9999999999999
12:00:00,1,N07,Bay Pkwy,-73.981848,40.611815,782.6226429939269
12:00:00,1,N08,Kings Hwy,-73.980353,40.603923,752.0
12:00:00,1,N09,Avenue U,-73.979137,40.597473,680.0
12:00:00,1,N10,86 St,-73.97823,40.592721,615.0
14:00:00,0,Q01,Canal St,-74.00046,40.718383,1880.339623451233
14:00:00,0,Q03,72 St,-73.958424,40.768799,2876.5896234512325
14:00:00,0,Q04,86 St,-73.951787,40.777891,2996.5896234512325
14:00:00,0,Q05,96 St,-73.947152,40.784318,3066.5896234512325
13:40:00,0,R01,Astoria-Ditmars Blvd,-73.912034,40.775036,3370.7500016689296
13:40:00,0,R03,Astoria Blvd,-73.917843,40.770258,3295.7500016689296
13:40:00,0,R04,30 Av,-73.921479,40.766779,3223.7500016689296
13:40:00,0,R05,Broadway,-73.925508,40.76182,3158.7500016689296
13:40:00,0,R06,36 Av,-73.929575,40.756804,3088.7500016689296
13:40:00,0,R08,39 Av-Dutch Kills,-73.932755,40.752882,3010.7500016689296
13:40:00,0,R09,Queensboro Plaza,-73.940202,40.750582,2890.7500016689296
13:20:00,0,R11,Lexington Av/59 St,-73.967258,40.76266,2780.5896234512325
13:20:00,0,R13,5 Av/59 St,-73.973347,40.764811,2698.5896234512325
14:00:00,0,R14,57 St-7 Av,-73.980658,40.764664,2576.5896234512325
14:00:00,0,R15,49 St,-73.984139,40.759901,2496.5896234512325
14:00:00,0,R16,Times Sq-42 St,-73.986754,40.754672,2392.339623451233
14:00:00,0,R17,34 St-Herald Sq,-73.98795,40.749567,2307.3396234512334
13:20:00,0,R18,28 St,-73.988691,40.745494,2441.0056178569794
12:10:00,0,R19,23 St,-73.989344,40.741303,2420.339623451233
14:00:00,0,R20,14 St-Union Sq,-73.990568,40.735736,2120.339623451233
12:30:00,0,R21,8 St-NYU,-73.992629,40.730328,2332.049297332764
12:30:00,0,R22,Prince St,-73.997702,40.724329,2229.0492973327637
12:30:00,0,R23,Canal St,-74.001775,40.719527,2124.0492973327637
12:30:00,0,R24,City Hall,-74.006978,40.713282,2196.339623451232
12:30:00,0,R25,Cortlandt St,-74.011029,40.710668,2088.3396234512325
12:30:00,0,R26,Rector St,-74.013342,40.70722,2014.3396234512327
12:30:00,0,R27,Whitehall St-South Ferry,-74.012994,40.703087,1944.339623451233
12:30:00,0,R28,Court St,-73.991777,40.6941,1714.3396234512327
12:30:00,0,R29,Jay St-MetroTech,-73.985942,40.69218,1634.339623451233
12:30:00,0,R30,DeKalb Av,-73.981824,40.690635,1365.0
12:00:00,0,R31,Atlantic Av-Barclays Ctr,-73.97881,40.683666,1193.0
12:00:00,0,R32,Union St,-73.98311,40.677316,1170.5
12:20:00,0,R33,4 Av-9 St,-73.988302,40.670847,1092.25
12:20:00,0,R34,Prospect Av,-73.992872,40.665414,1018.9999999999999
12:20:00,0,R35,25 St,-73.998091,40.660397,938.9999999999999
12:00:00,0,R36,36 St,-74.003549,40.655144,811.0
12:00:00,0,R39,45 St,-74.010006,40.648939,1080.3396234512327
12:00:00,1,R40,53 St,-74.014034,40.645069,1012.9999999999998
13:40:00,1,R41,59 St,-74.017881,40.641362,925.75
12:00:00,0,R42,Bay Ridge Av,-74.023377,40.634967,1080.2905402183533
12:00:00,0,R43,77 St,-74.02551,40.629742,1143.2905402183533
12:00:00,0,R44,86 St,-74.028398,40.622687,1268.2905402183533
12:00:00,0,R45,Bay Ridge-95 St,-74.030876,40.616622,1329.2905402183533
12:00:00,0,S01,Franklin Av,-73.955827,40.680596,1932.6400017738345
12:00:00,0,S03,Park Pl,-73.957624,40.674772,1871.6400017738345
12:00:00,0,S04,Botanic Garden,-73.959245,40.670343,1807.6400017738345
