start_time,ntransfers,stop_id,stop_name,stop_lon,stop_lat,duration
12:21:00,1,101,Van Cortlandt Park-242 St,-73.898583,40.889248,3474.4891312122345
12:21:00,1,103,238 St,-73.90087,40.884667,3409.2827205657954
12:21:00,1,104,231 St,-73.904834,40.878856,3323.282720565796
12:21:00,1,106,Marble Hill-225 St,-73.909831,40.874561,3243.2827205657954
12:21:00,1,107,215 St,-73.915279,40.869444,3153.2827205657954
12:21:00,1,108,207 St,-73.918822,40.864621,3081.2827205657954
12:21:00,1,109,Dyckman St,-73.925536,40.860531,3013.489131212234
12:21:00,1,110,191 St,-73.929412,40.855225,2938.489131212234
12:21:00,1,111,181 St,-73.933596,40.849505,2851.489131212234
12:21:00,1,112,168 St-Washington Hts,-73.940133,40.840556,2739.489131212234
13:36:00,1,113,157 St,-73.94489,40.834041,2744.9809193611145
12:21:00,1,114,145 St,-73.95036,40.826551,2639.9809193611145
12:21:00,1,115,137 St-City College,-73.953676,40.822008,2571.480919361115
12:21:00,1,116,125 St,-73.958372,40.815581,2476.4809193611145
12:21:00,1,117,116 St-Columbia University,-73.96411,40.807722,2374.4809193611145
12:21:00,1,118,Cathedral Pkwy (110 St),-73.966847,40.803967,2300.4809193611145
12:21:00,1,119,103 St,-73.968379,40.799446,2226.4809193611145
12:54:00,1,120,96 St,-73.972323,40.793919,1958.9999999999995
12:21:00,1,121,86 St,-73.976218,40.788644,2038.4809193611145
12:21:00,1,122,79 St,-73.979917,40.783934,1970.980919361114
12:21:00,1,123,72 St,-73.98197,40.778453,1791.9999999999995
12:21:00,1,124,66 St-Lincoln Center,-73.982209,40.77344,1844.9999999999998
12:21:00,1,125,59 St-Columbus Circle,-73.981929,40.768247,1767.9999999999998
12:13:30,1,126,50 St,-73.983849,40.761728,1671.9999999999995
12:13:30,1,127,Times Sq-42 St,-73.987495,40.75529,1568.9999999999998
12:54:00,1,128,34 St-Penn Station,-73.991057,40.750373,1661.9999999999998
12:54:00,1,129,28 St,-73.993365,40.747215,1731.9999999999995
12:54:00,1,130,23 St,-73.995657,40.744081,1796.9999999999995
12:54:00,1,131,18 St,-73.997871,40.74104,1859.9999999999995
12:54:00,1,132,14 St,-74.000201,40.737826,1808.9999999999998
12:54:00,1,133,Christopher St-Sheridan Sq,-74.002906,40.733422,2010.9999999999995
12:54:00,1,134,Houston St,-74.005367,40.728251,2086.9999999999995
12:54:00,1,135,Canal St,-74.006277,40.722854,2165.9999999999995
12:54:00,1,136,Franklin St,-74.006886,40.719318,2227.9999999999995
12:54:00,1,137,Chambers St,-74.009266,40.715478,2027.9999999999998
13:55:00,1,138,WTC Cortlandt,-74.012188,40.711835,2292.254098653793
13:55:00,1,139,Rector St,-74.013783,40.707513,2363.254098653793
13:55:00,1,142,South Ferry,-74.013664,40.702068,2447.254098653793
12:51:00,1,201,Wakefield-241 St,-73.85062,40.903125,3921.4705848693843
12:51:00,1,204,Nereid Av,-73.854376,40.898379,3799.4705848693848
12:51:00,1,205,233 St,-73.857473,40.893193,3684.858697891235
12:51:00,1,206,225 St,-73.860341,40.888022,3591.3586978912354
12:51:00,1,207,219 St,-73.862633,40.883895,3511.358697891235
12:51:00,1,208,Gun Hill Rd,-73.866256,40.87785,3407.1086978912354
12:51:00,1,209,Burke Av,-73.867164,40.871356,3393.4705848693848
12:51:00,1,210,Allerton Av,-73.867352,40.865462,3307.4705848693848
12:51:00,1,211,Pelham Pkwy,-73.867615,40.857192,3205.4705848693848
12:51:00,1,212,Bronx Park East,-73.868457,40.848828,3089.470584869385
12:51:00,1,213,E 180 St,-73.873488,40.841894,2934.4705848693848
12:51:00,1,214,West Farms Sq-E Tremont Av,-73.880049,40.840295,2935.6086978912354
12:51:00,1,215,174 St,-73.887734,40.837288,2824.6086978912354
12:51:00,1,216,Freeman St,-73.891865,40.829993,2716.608697891236
12:51:00,1,217,Simpson St,-73.893064,40.824073,2608.470584869385
12:51:00,1,218,Intervale Av,-73.896736,40.822181,2535.4705848693848
12:51:00,1,219,Prospect Av,-73.90177,40.819585,2459.470584869385
12:51:00,1,220,Jackson Av,-73.907807,40.81649,2368.470584869385
12:51:00,1,221,3 Av-149 St,-73.917757,40.816109,2243.4705848693848
12:51:00,1,222,149 St-Grand Concourse,-73.926718,40.81841,2141.4705848693848
12:54:00,1,224,135 St,-73.94077,40.814229,2457.2499999999995
12:54:00,1,225,125 St,-73.945495,40.807754,2358.2499999999995
12:54:00,1,226,116 St,-73.949625,40.802098,2264.2499999999995
12:54:00,1,227,Central Park North (110 St),-73.951822,40.799075,2195.2499999999995
12:54:00,1,228,Park Place,-74.008811,40.713051,2107.0
12:54:00,1,229,Fulton St,-74.006571,40.709416,2208.0
12:54:00,1,230,Wall St,-74.0091,40.706821,2276.0
12:54:00,1,231,Clark St,-73.993086,40.697466,2449.9999999999995
12:54:00,1,232,Borough Hall,-73.989998,40.693219,2559.0
14:00:00,1,233,Hoyt St,-73.985065,40.690545,2640.0
13:42:00,1,234,Nevins St,-73.980492,40.688246,2576.0
13:42:00,1,235,Atlantic Av-Barclays Ctr,-73.977666,40.684359,2663.0
12:58:30,1,236,Bergen St,-73.975098,40.680829,2760.487804412842
12:58:30,1,237,Grand Army Plaza,-73.971046,40.675235,2854.487804412842
12:58:30,1,238,Eastern Pkwy-Brooklyn Museum,-73.964375,40.671987,2861.8324086666116
12:58:30,1,239,Franklin Av-Medgar Evers College,-73.958131,40.670682,2784.8324086666116
12:58:30,1,241,President St-Medgar Evers College,-73.950683,40.667883,2943.7348487377176
12:58:30,1,242,Sterling St,-73.95085,40.662742,3027.7348487377176
12:58:30,1,243,Winthrop St,-73.9502,40.656652,3110.734848737717
12:58:30,1,244,Church Av,-73.949575,40.650843,3172.734848737717
12:58:30,1,245,Beverly Rd,-73.948959,40.645098,3233.734848737717
12:58:30,1,246,Newkirk Av-Little Haiti,-73.948411,40.639967,3313.734848737717
12:58:30,1,247,Flatbush Av-Brooklyn College,-73.947642,40.632836,3394.7348487377176
12:58:30,1,248,Nostrand Av,-73.950466,40.669847,2760.284120321274
12:58:30,1,249,Kingston Av,-73.942161,40.669399,2671.284120321274
13:17:30,2,250,Crown Hts-Utica Av,-73.932942,40.668897,2608.284120321274
13:17:30,2,251,Sutter Av-Rutland Rd,-73.92261,40.664717,2561.284120321274
13:17:30,2,252,Saratoga Av,-73.916327,40.661453,2461.284120321274
13:17:30,2,253,Rockaway Av,-73.908946,40.662549,2378.284120321274
13:17:30,2,254,Junius St,-73.902447,40.663515,2301.2841203212743
12:57:00,2,255,Pennsylvania Av,-73.894895,40.664635,2394.284120321274
12:57:00,2,256,Van Siclen Av,-73.889395,40.665449,2466.2841203212743
12:57:00,2,257,New Lots Av,-73.884079,40.666235,2524.2841203212743
12:54:00,1,301,Harlem-148 St,-73.93647,40.82388,2636.9999999999995
12:54:00,1,302,145 St,-73.936245,40.820421,2564.9999999999995
12:39:00,1,401,Woodlawn,-73.878751,40.886037,3201.506580829621
12:39:00,1,402,Mosholu Pkwy,-73.884655,40.87975,3107.506580829621
12:39:00,1,405,Bedford Park Blvd-Lehman College,-73.890064,40.873412,3007.506580829621
12:39:00,1,406,Kingsbridge Rd,-73.897174,40.86776,2900.506580829621
12:39:00,1,407,Fordham Rd,-73.901034,40.862803,2809.506580829621
12:39:00,1,408,183 St,-73.903879,40.858407,2730.506580829621
12:39:00,1,409,Burnside Av,-73.907684,40.853453,2639.506580829621
12:39:00,1,410,176 St,-73.911794,40.84848,2578.506580829621
12:39:00,1,411,Mt Eden Av,-73.914685,40.844434,2505.506580829621
12:39:00,1,412,170 St,-73.917791,40.840075,2429.506580829621
12:39:00,1,413,167 St,-73.9214,40.835537,2345.506580829621
12:39:00,1,414,161 St-Yankee Stadium,-73.925831,40.827994,2236.506580829621
12:39:00,1,415,149 St-Grand Concourse,-73.927351,40.818375,2106.506580829621
12:51:00,1,416,138 St-Grand Concourse,-73.929849,40.813224,2010.5065808296208
13:42:00,1,418,Fulton St,-74.009509,40.710368,2076.0
13:42:00,1,419,Wall St,-74.011862,40.707557,2147.0
13:42:00,1,420,Bowling Green,-74.014065,40.704817,2216.0
13:42:00,1,423,Borough Hall,-73.990151,40.692404,2451.9999999999995
13:29:30,1,501,Eastchester-Dyre Av,-73.830834,40.8883,3563.4705848693848
12:51:00,1,502,Baychester Av,-73.838591,40.878663,3469.4705848693848
12:51:00,1,503,Gun Hill Rd,-73.846384,40.869526,3348.4705848693848
12:51:00,1,504,Pelham Pkwy,-73.855359,40.858985,3218.4705848693848
12:51:00,1,505,Morris Park,-73.860495,40.854364,3135.4705848693848
13:43:00,1,601,Pelham Bay Park,-73.828121,40.852462,3320.0000000000005
13:43:00,1,602,Buhre Av,-73.832569,40.84681,3209.0000000000005
13:43:00,1,603,Middletown Rd,-73.836322,40.843863,3140.0000000000005
13:43:00,1,604,Westchester Sq-E Tremont Av,-73.842952,40.839892,3048.000000000001
13:43:00,1,606,Zerega Av,-73.847036,40.836488,2973.250000000001
13:43:00,1,607,Castle Hill Av,-73.851222,40.834255,2909.250000000001
12:39:00,1,608,Parkchester,-73.860816,40.833226,2788.250000000001
12:39:00,1,609,St Lawrence Av,-73.867618,40.831509,3023.84431219101
12:39:00,1,610,Morrison Av-Soundview,-73.874516,40.829521,2944.84431219101
12:39:00,1,611,Elder Av,-73.879159,40.828584,2881.84431219101
12:39:00,1,612,Whitlock Av,-73.886283,40.826525,2788.8443121910104
12:39:00,1,613,Hunts Point Av,-73.890549,40.820948,2581.000000000001
12:51:00,1,614,Longwood Av,-73.896435,40.816104,2667.999999999999
12:51:00,1,615,E 149 St,-73.904098,40.812118,2574.9999999999995
12:51:00,1,616,E 143 St-St Mary's St,-73.907657,40.808719,2504.9999999999995
12:51:00,1,617,Cypress Av,-73.914042,40.805368,2394.9999999999995
12:51:00,1,618,Brook Av,-73.91924,40.807566,2325.9999999999995
12:39:00,1,619,3 Av-138 St,-73.926138,40.810476,2229.9999999999995
12:51:00,1,621,125 St,-73.937594,40.804138,1844.5065808296206
13:42:00,1,622,116 St,-73.941617,40.798629,1964.0000000000005
13:42:00,1,623,110 St,-73.94425,40.79502,1891.0000000000005
13:42:00,1,624,103 St,-73.947478,40.7906,1817.0000000000002
13:42:00,1,625,96 St,-73.95107,40.785672,1732.0000000000002
12:51:00,1,626,86 St,-73.955589,40.779492,1579.5065808296206
13:42:00,1,627,77 St,-73.959874,40.77362,1541.0000000000002
13:42:00,1,628,68 St-Hunter College,-73.96387,40.768141,1453.4126996994019
12:13:30,1,629,59 St,-73.967967,40.762526,1363.0
13:42:00,1,630,51 St,-73.97192,40.757107,1368.4761898517609
12:21:00,1,631,Grand Central-42 St,-73.976848,40.751776,1479.4761898517609
12:21:00,1,632,33 St,-73.982076,40.746081,1585.931033372879
12:21:00,1,633,28 St,-73.984264,40.74307,1649.931033372879
12:21:00,1,634,23 St,-73.986599,40.739864,1715.931033372879
13:42:00,1,635,14 St-Union Sq,-73.989951,40.734673,1727.25
12:21:00,1,636,Astor Pl,-73.99107,40.730054,1909.931033372879
12:21:00,1,637,Bleecker St,-73.994659,40.725915,1997.9310333728793
12:21:00,1,638,Spring St,-73.997141,40.722301,2061.9310333728795
12:21:00,1,639,Canal St,-74.000193,40.718803,2135.9310333728795
13:42:00,1,640,Brooklyn Bridge-City Hall,-74.004131,40.713065,1973.0
12:13:30,1,701,Flushing-Main St,-73.83003,40.7596,1292.772513628006
12:13:30,1,702,Mets-Willets Point,-73.845625,40.754622,1162.772513628006
12:13:30,1,705,111 St,-73.855334,40.75173,1073.7725136280058
12:13:30,1,706,103 St-Corona Plaza,-73.8627,40.749865,1005.7725136280059
12:13:30,1,707,Junction Blvd,-73.869527,40.749145,947.772513628006
12:13:30,1,708,90 St-Elmhurst Av,-73.876613,40.748408,887.772513628006
12:13:30,1,709,82 St-Jackson Hts,-73.883697,40.747659,821.772513628006
14:00:00,1,710,74 St-Broadway,-73.891394,40.746848,733.9574484825134
14:00:00,1,711,69 St,-73.896403,40.746325,773.9574484825134
14:00:00,1,712,61 St-Woodside,-73.902984,40.74563,839.9574484825134
14:00:00,1,713,52 St,-73.912549,40.744149,922.9574484825133
14:00:00,1,714,46 St-Bliss St,-73.918435,40.743132,972.9574484825134
14:00:00,1,715,40 St-Lowery St,-73.924016,40.743781,1025.9574484825134
14:00:00,1,716,33 St-Rawson St,-73.930997,40.744587,1086.9574484825132
14:00:00,1,718,Queensboro Plaza,-73.940202,40.750582,1148.0
14:00:00,1,719,Court Sq,-73.945264,40.747023,1073.0
13:42:00,1,720,Hunters Point Av,-73.948916,40.742216,1158.0
13:42:00,1,721,Vernon Blvd-Jackson Av,-73.953581,40.742626,1175.75
13:42:00,1,723,Grand Central-42 St,-73.976041,40.751431,1377.0000000000002
13:42:00,1,724,5 Av,-73.981963,40.753821,1451.0000000000002
12:09:00,1,725,Times Sq-42 St,-73.987691,40.755477,1493.0000000000002
12:09:00,1,726,34 St-Hudson Yards,-74.00191,40.755882,1623.0000000000002
12:54:00,1,901,Grand Central-42 St,-73.979189,40.752769,1446.0
13:42:00,2,902,Times Sq-42 St,-73.986229,40.755983,1508.9999999999998
13:36:00,0,A02,Inwood-207 St,-73.919899,40.868072,2999.999999999999
13:36:00,0,A03,Dyckman St,-73.927271,40.865491,2929.999999999999
13:36:00,0,A05,190 St,-73.93418,40.859022,2809.999999999999
13:36:00,0,A06,181 St,-73.937969,40.851695,2702.9999999999995
13:36:00,0,A07,175 St,-73.939704,40.847391,2633.9999999999995
12:21:00,0,A09,168 St,-73.939561,40.840719,2513.9999999999995
13:36:00,0,A10,163 St-Amsterdam Av,-73.939892,40.836013,2475.3313980102535
13:36:00,0,A11,155 St,-73.941514,40.830518,2405.331398010254
12:21:00,0,A12,145 St,-73.944216,40.824783,2308.9999999999995
12:13:30,0,A14,135 St,-73.947649,40.817894,2230.0813980102535
13:13:30,0,A15,125 St,-73.952343,40.811109,2082.164738416672
13:54:00,0,A16,116 St,-73.954882,40.805085,2159.6647384166718
12:06:00,0,A17,Cathedral Pkwy (110 St),-73.958161,40.800603,2094.6647384166718
12:06:00,0,A18,103 St,-73.961454,40.796092,2029.6647384166718
12:06:00,0,A19,96 St,-73.964696,40.791642,1963.6647384166715
12:06:00,0,A20,86 St,-73.968916,40.785868,1883.6647384166718
12:06:00,0,A21,81 St-Museum of Natural History,-73.972143,40.781433,1808.6647384166718
12:06:00,0,A22,72 St,-73.97641,40.775594,1739.6647384166718
13:13:30,0,A24,59 St-Columbus Circle,-73.981736,40.768296,1619.6647384166718
12:06:00,0,A25,50 St,-73.985984,40.762456,1373.2499999999998
13:21:00,0,A27,42 St-Port Authority Bus Terminal,-73.989735,40.757308,1448.9999999999998
13:21:00,0,A28,34 St-Penn Station,-73.993391,40.752287,1558.9999999999995
13:21:00,0,A30,23 St,-73.998041,40.745906,1673.9999999999998
13:21:00,0,A31,14 St,-74.00169,40.740893,1748.9999999999998
13:21:00,0,A32,W 4 St-Wash Sq,-74.000495,40.732338,1861.9999999999998
13:21:00,0,A33,Spring St,-74.003739,40.726227,1961.9999999999998
13:21:00,0,A34,Canal St,-74.005229,40.720824,2034.9999999999995
13:21:00,0,A36,Chambers St,-74.008585,40.714111,2149.999999999999
13:21:00,0,A38,Fulton St,-74.007691,40.710197,2224.999999999999
13:21:00,0,A40,High St,-73.990531,40.699337,2402.9999999999995
12:06:00,1,A41,Jay St-MetroTech,-73.987342,40.692338,2292.7500000000005
12:06:00,1,A42,Hoyt-Schermerhorn Sts,-73.985001,40.688484,2023.5
12:06:00,1,A43,Lafayette Av,-73.973946,40.686113,2370.095746278763
12:27:30,1,A44,Clinton-Washington Avs,-73.965838,40.683263,2375.734848737717
12:27:30,1,A45,Franklin Av,-73.956848,40.68138,2298.7348487377176
12:27:30,1,A46,Nostrand Av,-73.950426,40.680438,2164.984848737717
12:27:30,1,A47,Kingston-Throop Avs,-73.940858,40.679921,2128.9209487438206
12:27:30,1,A48,Utica Av,-73.930729,40.679364,2030.9848487377171
12:33:30,1,A49,Ralph Av,-73.920786,40.678822,1976.9848487377171
12:33:30,1,A50,Rockaway Av,-73.911946,40.67834,1901.9848487377171
12:27:30,1,A51,Broadway Junction,-73.905316,40.678334,1835.9848487377171
12:27:30,1,A52,Liberty Av,-73.896548,40.674542,1955.9848487377171
12:27:30,1,A53,Van Siclen Av,-73.890358,40.67271,2030.9848487377171
12:27:30,1,A54,Shepherd Av,-73.88075,40.67413,2108.984848737717
13:17:30,1,A55,Euclid Av,-73.872106,40.675377,2112.984848737717
13:17:30,1,A57,Grant Av,-73.86505,40.677044,2225.984848737717
13:17:30,1,A59,80 St,-73.858992,40.679371,2295.984848737717
13:17:30,1,A60,88 St,-73.85147,40.679843,2368.984848737717
13:17:30,1,A61,Rockaway Blvd,-73.843853,40.680429,2433.984848737717
12:27:30,1,A63,104 St,-73.837683,40.681711,2498.9848487377176
12:46:00,1,A64,111 St,-73.832163,40.684331,2560.984848737717
12:46:00,1,A65,Ozone Park-Lefferts Blvd,-73.825798,40.685951,2630.984848737717
12:01:30,0,B04,21 St-Queensbridge,-73.942836,40.754203,847.0
12:01:30,0,B06,Roosevelt Island,-73.95326,40.759145,898.0
12:01:30,0,B08,Lexington Av/63 St,-73.966113,40.764629,1018.0000000000001
12:01:30,0,B10,57 St,-73.97745,40.763972,1180.0
13:43:00,0,B12,9 Av,-73.994324,40.646292,3055.5000000000005
13:43:00,0,B13,Fort Hamilton Pkwy,-73.994304,40.640914,3165.75
13:43:00,0,B14,50 St,-73.994791,40.63626,3227.75
13:43:00,0,B15,55 St,-73.995476,40.631435,3302.75
13:43:00,0,B16,62 St,-73.996895,40.626472,3357.75
13:43:00,0,B17,71 St,-73.998864,40.619589,3437.75
13:43:00,0,B18,79 St,-74.00061,40.613501,3517.75
13:43:00,0,B19,18 Av,-74.001736,40.607954,3580.75
13:43:00,0,B20,20 Av,-73.998168,40.604556,3644.75
13:43:00,0,B21,Bay Pkwy,-73.993728,40.601875,3704.75
13:43:00,0,B22,25 Av,-73.986829,40.597704,3817.5000000000005
13:43:00,0,B23,Bay 50 St,-73.983765,40.588841,3937.5
13:54:00,0,D01,Norwood-205 St,-73.878855,40.874811,3240.164738416672
13:54:00,0,D03,Bedford Park Blvd,-73.887138,40.873244,3125.1647384166727
13:54:00,0,D04,Kingsbridge Rd,-73.893509,40.866978,3025.1647384166727
13:54:00,0,D05,Fordham Rd,-73.897749,40.861296,2945.1647384166727
13:54:00,0,D06,182-183 Sts,-73.900741,40.856093,2875.1647384166727
13:13:30,0,D07,Tremont Av,-73.905227,40.85041,2811.1647384166727
13:13:30,0,D08,174-175 Sts,-73.910136,40.8459,2760.3145284652715
13:13:30,0,D09,170 St,-73.9134,40.839306,2680.314528465271
13:13:30,0,D10,167 St,-73.91844,40.833771,2595.3145284652715
13:13:30,0,D11,161 St-Yankee Stadium,-73.925651,40.827905,2490.3145284652715
13:13:30,0,D12,155 St,-73.938209,40.830135,2377.6647384166718
13:13:30,0,D13,145 St,-73.944216,40.824783,2267.164738416672
12:06:00,0,D14,7 Av,-73.981637,40.762862,1304.0
12:01:30,0,D15,47-50 Sts-Rockefeller Ctr,-73.981329,40.758663,1301.25
12:01:30,0,D16,42 St-Bryant Pk,-73.984569,40.754222,1421.25
12:01:30,0,D17,34 St-Herald Sq,-73.987823,40.749719,1486.25
12:01:30,0,D18,23 St,-73.992821,40.742878,1593.25
12:01:30,0,D19,14 St,-73.996209,40.738228,1668.25
12:28:30,0,D20,W 4 St-Wash Sq,-74.000495,40.732338,1738.25
12:28:30,0,D21,Broadway-Lafayette St,-73.996204,40.725297,1872.7500000000002
12:28:30,0,D22,Grand St,-73.993753,40.718267,2128.25
12:28:30,0,D24,Atlantic Av-Barclays Ctr,-73.97689,40.68446,2640.9999999999995
12:28:30,0,D25,7 Av,-73.972367,40.67705,2760.9999999999995
12:28:30,0,D26,Prospect Park,-73.962246,40.661614,2661.7348487377176
12:54:00,0,D27,Parkside Av,-73.961495,40.655292,2971.7348487377176
12:28:30,0,D28,Church Av,-73.962982,40.650527,2846.7348487377176
12:54:00,0,D29,Beverley Rd,-73.964492,40.644031,2945.4253263473515
12:54:00,0,D30,Cortelyou Rd,-73.963891,40.640927,3005.4253263473515
12:28:30,0,D31,Newkirk Plaza,-73.962793,40.635082,2991.734848737717
13:28:30,0,D32,Avenue H,-73.961639,40.62927,3093.0548496246342
13:28:30,0,D33,Avenue J,-73.960803,40.625039,3163.0548496246342
13:28:30,0,D34,Avenue M,-73.959399,40.617618,3253.0548496246342
12:28:30,0,D35,Kings Hwy,-73.957734,40.60867,3217.9848487377176
12:28:30,0,D37,Avenue U,-73.955929,40.5993,3407.995160818101
12:28:30,0,D38,Neck Rd,-73.955161,40.595246,3474.995160818101
12:28:30,0,D39,Sheepshead Bay,-73.954155,40.586896,3422.984848737717
12:28:30,0,D40,Brighton Beach,-73.961376,40.577621,3506.484848737717
12:28:30,0,D41,Ocean Pkwy,-73.968501,40.576312,3736.4848487377176
12:28:30,0,D42,W 8 St-NY Aquarium,-73.975939,40.576127,3726.4151389598846
12:28:30,0,D43,Coney Island-Stillwell Av,-73.981233,40.577422,3827.1651389598846
12:06:00,0,E01,World Trade Center,-74.009781,40.712582,2141.0
12:55:30,0,F01,Jamaica-179 St,-73.783817,40.712646,473.49999999999994
13:50:30,0,F02,169 St,-73.793604,40.71047,394.0
12:02:30,0,F03,Parsons Blvd,-73.803326,40.707564,295.0
12:02:30,0,F04,Sutphin Blvd,-73.810708,40.70546,225.0
12:02:30,0,F05,Briarwood,-73.820574,40.709179,118.0
13:29:30,0,F06,Kew Gardens-Union Tpke,-73.831008,40.714441,0.0
12:01:30,0,F07,75 Av,-73.837324,40.718331,75.75
12:06:00,0,F09,Court Sq-23 St,-73.946,40.747846,953.0000000000001
12:06:00,0,F11,Lexington Av/53 St,-73.969055,40.757552,1133.0
12:06:00,0,F12,5 Av/53 St,-73.975224,40.760167,1193.0
12:01:30,0,F14,2 Av,-73.989938,40.723402,1947.7500000000005
12:01:30,0,F15,Delancey St-Essex St,-73.988114,40.718611,2024.7500000000002
12:01:30,0,F16,East Broadway,-73.990173,40.713715,2089.7500000000005
12:01:30,0,F18,York St,-73.986751,40.701397,2215.7500000000005
12:06:00,1,F20,Bergen St,-73.990862,40.686145,2130.5
12:06:00,1,F21,Carroll St,-73.995048,40.680303,2202.5
12:06:00,1,F22,Smith-9 Sts,-73.995959,40.67358,2322.5
12:06:00,1,F23,4 Av-9 St,-73.989779,40.670272,2387.5000000000005
12:06:00,1,F24,7 Av,-73.980305,40.666271,2490.5000000000005
12:06:00,1,F25,15 St-Prospect Park,-73.979493,40.660365,2598.5
12:06:00,1,F26,Fort Hamilton Pkwy,-73.975776,40.650782,2728.5
12:06:00,1,F27,Church Av,-73.979678,40.644041,2776.915138959885
12:06:00,1,F29,Ditmas Av,-73.978172,40.636119,2898.665138959885
12:06:00,1,F30,18 Av,-73.976971,40.629755,3012.665138959885
12:06:00,1,F31,Avenue I,-73.976127,40.625322,3074.415138959885
12:06:00,1,F32,Bay Pkwy,-73.975264,40.620769,3137.415138959885
12:06:00,1,F33,Avenue N,-73.974197,40.61514,3209.915138959885
12:06:00,1,F34,Avenue P,-73.973022,40.608944,3273.165138959885
12:06:00,1,F35,Kings Hwy,-73.972361,40.603217,3350.415138959885
12:06:00,1,F36,Avenue U,-73.973357,40.596063,3457.415138959885
12:06:00,1,F38,Avenue X,-73.97425,40.58962,3530.165138959885
13:37:30,0,F39,Neptune Av,-73.974574,40.581011,3645.1651389598846
12:03:30,0,G05,Jamaica Center-Parsons/Archer,-73.801109,40.702147,380.0
12:03:30,0,G06,Sutphin Blvd-Archer Av-JFK Airport,-73.807969,40.700486,305.0
12:03:30,0,G07,Jamaica-Van Wyck,-73.816859,40.702566,190.0
12:06:00,0,G08,Forest Hills-71 Av,-73.844521,40.721691,162.25
13:48:00,0,G09,67 Av,-73.852719,40.726523,282.25
13:48:00,0,G10,63 Dr-Rego Park,-73.861604,40.729846,362.25
13:48:00,0,G11,Woodhaven Blvd,-73.869229,40.733106,437.25
13:48:00,0,G12,Grand Av-Newtown,-73.877223,40.737015,532.75
13:48:00,0,G13,Elmhurst Av,-73.882017,40.742454,608.4393048286438
12:06:00,0,G14,Jackson Hts-Roosevelt Av,-73.891338,40.746644,523.0
12:21:00,0,G15,65 St,-73.898453,40.749669,598.25
12:21:00,0,G16,Northern Blvd,-73.906006,40.752885,673.25
12:21:00,0,G18,46 St,-73.913333,40.756312,748.25
12:21:00,0,G19,Steinway St,-73.92074,40.756879,838.25
13:42:00,0,G20,36 St,-73.928781,40.752039,953.25
12:06:00,0,G21,Queens Plaza,-73.937243,40.748973,843.0
13:36:00,1,G22,Court Sq,-73.943832,40.746554,1013.0
12:06:00,1,G24,21 St,-73.949724,40.744065,1083.0
12:06:00,1,G26,Greenpoint Av,-73.954449,40.731352,1205.0000000000002
12:06:00,1,G28,Nassau Av,-73.951277,40.724635,1311.0
12:06:00,1,G29,Metropolitan Av,-73.951418,40.712792,1436.0
12:06:00,1,G30,Broadway,-73.950308,40.706092,1501.0
12:06:00,1,G31,Flushing Av,-73.950234,40.700377,1571.0
12:06:00,1,G32,Myrtle-Willoughby Avs,-73.949046,40.694568,1636.0
12:06:00,1,G33,Bedford-Nostrand Avs,-73.953522,40.689627,1720.5
12:06:00,1,G34,Classon Av,-73.96007,40.688873,1785.5
12:06:00,1,G35,Clinton-Washington Avs,-73.966839,40.688089,1848.5
12:06:00,1,G36,Fulton St,-73.975375,40.687119,1918.5
12:33:30,1,H01,Aqueduct Racetrack,-73.834058,40.668234,2613.984848737717
13:17:30,1,H02,Aqueduct-N Conduit Av,-73.834058,40.668234,2644.92094874382
13:17:30,1,H03,Howard Beach-JFK Airport,-73.830301,40.660476,2740.984848737717
13:17:30,1,H04,Broad Channel,-73.815925,40.608382,3159.984848737717
13:17:30,1,H06,Beach 67 St,-73.796924,40.590927,3427.9209487438206
13:17:30,1,H07,Beach 60 St,-73.788522,40.592374,3507.9209487438206
13:17:30,1,H08,Beach 44 St,-73.776013,40.592943,3597.9209487438206
13:17:30,1,H09,Beach 36 St,-73.768175,40.595398,3667.9209487438206
13:17:30,1,H10,Beach 25 St,-73.761353,40.600066,3732.9209487438206
13:17:30,1,H11,Far Rockaway-Mott Av,-73.755405,40.603995,3795.92094874382
12:57:00,1,H12,Beach 90 St,-73.813641,40.588034,3399.984848737717
12:57:00,1,H13,Beach 98 St,-73.820558,40.585307,3464.9848487377176
12:57:00,1,H14,Beach 105 St,-73.827559,40.583209,3528.9848487377176
12:57:00,1,H15,Rockaway Park-Beach 116 St,-73.835592,40.580903,3603.9848487377176
12:27:30,0,J12,121 St,-73.828294,40.700492,554.0
12:27:30,0,J13,111 St,-73.836345,40.697418,555.0
12:27:30,0,J14,104 St,-73.84433,40.695178,666.0
12:27:30,0,J15,Woodhaven Blvd,-73.851576,40.693879,756.0
12:27:30,0,J16,85 St-Forest Pkwy,-73.86001,40.692435,1044.1818187236786
12:27:30,0,J17,75 St-Elderts Ln,-73.867139,40.691324,1157.9318187236786
12:27:30,0,J19,Cypress Hills,-73.87255,40.689941,1164.1818187236786
12:27:30,0,J20,Crescent St,-73.873785,40.683194,1213.1818187236786
12:27:30,0,J21,Norwood Av,-73.880039,40.68141,1273.1818187236786
12:27:30,0,J22,Cleveland St,-73.884639,40.679947,1264.1818187236788
12:27:30,0,J23,Van Siclen Av,-73.891688,40.678024,1329.1818187236786
12:27:30,0,J24,Alabama Av,-73.898654,40.676992,1464.1818187236786
12:27:30,0,J27,Broadway Junction,-73.904512,40.679498,1574.1818187236786
12:27:30,0,J28,Chauncey St,-73.910456,40.682893,1649.1818187236786
12:27:30,0,J29,Halsey St,-73.916559,40.68637,1717.1818187236786
12:27:30,0,J30,Gates Av,-73.92227,40.68963,1784.1818187236786
12:27:30,0,J31,Kosciuszko St,-73.928814,40.693342,1849.1818187236786
13:43:00,1,L01,8 Av,-74.002578,40.739777,1808.9999999999998
13:42:00,1,L02,6 Av,-73.996786,40.737335,1868.9999999999998
12:09:00,1,L03,14 St-Union Sq,-73.99073,40.734789,1915.9999999999998
12:09:00,1,L05,3 Av,-73.986122,40.732849,1947.9999999999998
12:09:00,1,L06,1 Av,-73.981628,40.730953,1956.972972393036
12:06:00,2,L08,Bedford Av,-73.956872,40.717304,1763.972972393036
12:06:00,2,L10,Lorimer St,-73.950275,40.714063,1703.972972393036
12:06:00,2,L11,Graham Av,-73.944053,40.714565,1733.972972393036
12:06:00,2,L12,Grand St,-73.94067,40.711926,1808.972972393036
12:06:00,2,L13,Montrose Av,-73.93985,40.707739,1841.972972393036
12:06:00,2,L14,Morgan Av,-73.933147,40.706152,1892.9729723930361
12:06:00,2,L15,Jefferson St,-73.922913,40.706607,1969.972972393036
12:06:00,2,L16,DeKalb Av,-73.918425,40.703811,2028.972972393036
12:06:00,2,L17,Myrtle-Wyckoff Avs,-73.911586,40.699814,2057.8207070827484
12:27:30,1,L19,Halsey St,-73.904084,40.695602,2000.8207070827482
12:27:30,1,L20,Wilson Av,-73.904046,40.688764,1877.8207070827484
12:27:30,1,L21,Bushwick Av-Aberdeen St,-73.905249,40.682829,1822.8207070827484
12:27:30,1,L22,Broadway Junction,-73.90324,40.678856,1791.8207070827484
12:27:30,1,L24,Atlantic Av,-73.903097,40.675345,1847.8207070827484
12:27:30,1,L25,Sutter Av,-73.901975,40.669367,1920.8207070827486
12:27:30,1,L26,Livonia Av,-73.900571,40.664038,1969.8207070827489
12:27:30,1,L27,New Lots Av,-73.899232,40.658733,2038.5002059936526
12:27:30,1,L28,East 105 St,-73.899485,40.650573,2122.5002059936523
12:27:30,1,L29,Canarsie-Rockaway Pkwy,-73.90185,40.646654,2170.820707082749
13:17:30,0,M01,Middle Village-Metropolitan Av,-73.889601,40.711396,2544.094440221787
13:17:30,0,M04,Fresh Pond Rd,-73.895877,40.706186,2488.094440221787
13:17:30,0,M05,Forest Av,-73.903077,40.704423,2406.094440221787
13:17:30,0,M06,Seneca Av,-73.90774,40.702762,2334.094440221787
13:17:30,0,M08,Myrtle-Wyckoff Avs,-73.912385,40.69943,2280.094440221787
12:27:30,0,M09,Knickerbocker Av,-73.919711,40.698664,2177.0944402217865
13:17:30,0,M10,Central Av,-73.927397,40.697857,2112.0944402217865
12:27:30,0,M11,Myrtle Av,-73.935657,40.697207,1954.1818187236786
12:27:30,0,M12,Flushing Av,-73.941126,40.70026,2024.1818187236784
12:27:30,0,M13,Lorimer St,-73.947408,40.703869,2090.1818187236786
12:27:30,0,M14,Hewes St,-73.953431,40.70687,2160.181818723678
12:28:30,0,M16,Marcy Av,-73.957757,40.708359,2199.1818187236786
12:28:30,0,M18,Delancey St-Essex St,-73.987437,40.718315,2253.2857142857147
13:16:30,1,M19,Bowery,-73.993915,40.72028,2307.2500000000005
12:54:00,1,M20,Canal St,-73.999892,40.718092,2201.25
12:54:00,1,M21,Chambers St,-74.003401,40.713243,2131.25
12:54:00,1,M22,Fulton St,-74.007582,40.710374,2196.2500000000005
12:54:00,1,M23,Broad St,-74.011056,40.706476,2260.2500000000005
13:09:00,0,N02,8 Av,-74.011719,40.635064,3177.2500000000005
13:09:00,0,N03,Fort Hamilton Pkwy,-74.005351,40.631386,3298.2500000000005
13:09:00,0,N04,New Utrecht Av,-73.996353,40.624842,3418.2500000000005
13:09:00,0,N05,18 Av,-73.990414,40.620671,3489.25
13:09:00,0,N06,20 Av,-73.985026,40.61741,3554.2500000000005
13:09:00,0,N07,Bay Pkwy,-73.981848,40.611815,3632.25
13:09:00,0,N08,Kings Hwy,-73.980353,40.603923,3742.25
13:09:00,0,N09,Avenue U,-73.979137,40.597473,3814.2500000000005
13:09:00,0,N10,86 St,-73.97823,40.592721,3874.2500000000005
12:54:00,0,Q01,Canal St,-74.00046,40.718383,2018.9999999999995
12:31:30,0,Q03,72 St,-73.958424,40.768799,1498.0
12:31:30,0,Q04,86 St,-73.951787,40.777891,1617.0000000000002
12:31:30,0,Q05,96 St,-73.947152,40.784318,1673.25
14:00:00,2,R01,Astoria-Ditmars Blvd,-73.912034,40.775036,1692.00000166893
14:00:00,2,R03,Astoria Blvd,-73.917843,40.770258,1617.00000166893
14:00:00,2,R04,30 Av,-73.921479,40.766779,1545.00000166893
14:00:00,2,R05,Broadway,-73.925508,40.76182,1480.0000016689303
14:00:00,2,R06,36 Av,-73.929575,40.756804,1410.00000166893
14:00:00,2,R08,39 Av-Dutch Kills,-73.932755,40.752882,1332.00000166893
13:42:00,0,R09,Queensboro Plaza,-73.940202,40.750582,1212.00000166893
13:42:00,0,R11,Lexington Av/59 St,-73.967258,40.76266,1367.5145618915558
13:42:00,0,R13,5 Av/59 St,-73.973347,40.764811,1437.514561891556
12:54:00,0,R14,57 St-7 Av,-73.980658,40.764664,1531.75
12:54:00,0,R15,49 St,-73.984139,40.759901,1635.9999999999998
12:54:00,0,R16,Times Sq-42 St,-73.986754,40.754672,1568.9999999999998
12:54:00,0,R17,34 St-Herald Sq,-73.98795,40.749567,1643.9999999999998
12:54:00,0,R18,28 St,-73.988691,40.745494,1719.4999999999998
12:54:00,0,R19,23 St,-73.989344,40.741303,1779.4999999999998
12:54:00,0,R20,14 St-Union Sq,-73.990568,40.735736,1778.9999999999998
12:54:00,0,R21,8 St-NYU,-73.992629,40.730328,1950.2499999999998
12:54:00,0,R22,Prince St,-73.997702,40.724329,2026.2499999999998
12:54:00,0,R23,Canal St,-74.001775,40.719527,2101.2499999999995
12:54:00,0,R24,City Hall,-74.006978,40.713282,2221.2499999999995
12:54:00,0,R25,Cortlandt St,-74.011029,40.710668,2246.0
12:54:00,0,R26,Rector St,-74.013342,40.70722,2351.0
12:54:00,0,R27,Whitehall St-South Ferry,-74.012994,40.703087,2416.0
12:54:00,0,R28,Court St,-73.991777,40.6941,2500.7500000000005
12:54:00,0,R29,Jay St-MetroTech,-73.985942,40.69218,2427.7500000000005
12:28:30,0,R30,DeKalb Av,-73.981824,40.690635,2498.9999999999995
13:43:00,0,R31,Atlantic Av-Barclays Ctr,-73.97881,40.683666,2665.25
13:43:00,0,R32,Union St,-73.98311,40.677316,2687.5000000000005
13:43:00,0,R33,4 Av-9 St,-73.988302,40.670847,2612.5000000000005
13:43:00,0,R34,Prospect Av,-73.992872,40.665414,2682.2500000000005
13:43:00,0,R35,25 St,-73.998091,40.660397,2742.2500000000005
13:43:00,0,R36,36 St,-74.003549,40.655144,2802.2500000000005
13:43:00,0,R39,45 St,-74.010006,40.648939,2977.25
13:43:00,0,R40,53 St,-74.014034,40.645069,3052.5000000000005
13:09:00,0,R41,59 St,-74.017881,40.641362,3042.2500000000005
13:43:00,0,R42,Bay Ridge Av,-74.023377,40.634967,3196.7905402183537
13:43:00,0,R43,77 St,-74.02551,40.629742,3259.7905402183537
13:43:00,0,R44,86 St,-74.028398,40.622687,3384.7905402183537
13:43:00,0,R45,Bay Ridge-95 St,-74.030876,40.616622,3445.7905402183537
12:28:30,0,S01,Franklin Av,-73.955827,40.680596,2358.7348487377176
12:27:30,2,S03,Park Pl,-73.957624,40.674772,2477.7348487377176
12:28:30,0,S04,Botanic Garden,-73.959245,40.670343,2543.7348487377176
