start_time,ntransfers,stop_id,stop_name,stop_lon,stop_lat,duration
12:01:30,1,101,Van Cortlandt Park-242 St,-73.898583,40.889248,2651.489131212235
12:01:30,1,103,238 St,-73.90087,40.884667,2586.2827205657964
12:01:30,1,104,231 St,-73.904834,40.878856,2500.2827205657964
12:01:30,1,106,Marble Hill-225 St,-73.909831,40.874561,2420.2827205657964
12:01:30,1,107,215 St,-73.915279,40.869444,2330.2827205657964
12:01:30,1,108,207 St,-73.918822,40.864621,2258.2827205657964
12:01:30,1,109,Dyckman St,-73.925536,40.860531,2190.489131212235
12:01:30,1,110,191 St,-73.929412,40.855225,2115.489131212235
12:01:30,1,111,181 St,-73.933596,40.849505,2028.4891312122347
12:01:30,1,112,168 St-Washington Hts,-73.940133,40.840556,1916.4891312122347
12:01:30,1,113,157 St,-73.94489,40.834041,2009.4891312122345
12:01:30,1,114,145 St,-73.95036,40.826551,1906.4916572570799
12:01:30,1,115,137 St-City College,-73.953676,40.822008,1817.4916572570799
12:01:30,1,116,125 St,-73.958372,40.815581,1722.49165725708
12:01:30,1,117,116 St-Columbia University,-73.96411,40.807722,1620.49165725708
12:01:30,1,118,Cathedral Pkwy (110 St),-73.966847,40.803967,1546.4916572570799
12:01:30,1,119,103 St,-73.968379,40.799446,1472.4916572570799
13:06:30,1,120,96 St,-73.972323,40.793919,1256.0000000000002
13:06:30,1,121,86 St,-73.976218,40.788644,1284.4916572570799
13:06:30,1,122,79 St,-73.979917,40.783934,1219.49165725708
13:06:30,1,123,72 St,-73.98197,40.778453,1089.0000000000002
13:00:00,1,124,66 St-Lincoln Center,-73.982209,40.77344,1142.0000000000002
13:45:30,1,125,59 St-Columbus Circle,-73.981929,40.768247,1065.0000000000002
13:45:30,1,126,50 St,-73.983849,40.761728,969.0000000000001
13:06:30,1,127,Times Sq-42 St,-73.987495,40.75529,866.0000000000001
13:06:30,1,128,34 St-Penn Station,-73.991057,40.750373,780.09375
13:51:00,1,129,28 St,-73.993365,40.747215,807.5
13:51:00,1,130,23 St,-73.995657,40.744081,742.5
13:51:00,1,131,18 St,-73.997871,40.74104,679.5
13:51:00,1,132,14 St,-74.000201,40.737826,609.5
13:06:30,1,133,Christopher St-Sheridan Sq,-74.002906,40.733422,690.5
13:06:30,1,134,Houston St,-74.005367,40.728251,766.4999999999999
13:06:30,1,135,Canal St,-74.006277,40.722854,845.4999999999999
13:06:30,1,136,Franklin St,-74.006886,40.719318,907.4999999999999
12:53:00,1,137,Chambers St,-74.009266,40.715478,855.09375
12:01:30,1,138,WTC Cortlandt,-74.012188,40.711835,1012.5
12:01:30,1,139,Rector St,-74.013783,40.707513,1073.3028364181519
12:01:30,1,142,South Ferry,-74.013664,40.702068,989.3028364181519
12:29:30,1,201,Wakefield-241 St,-73.85062,40.903125,3523.440477609634
12:29:30,1,204,Nereid Av,-73.854376,40.898379,3401.440477609634
12:29:30,1,205,233 St,-73.857473,40.893193,3339.440477609634
12:29:30,1,206,225 St,-73.860341,40.888022,3250.4357156753535
12:29:30,1,207,219 St,-73.862633,40.883895,3170.4357156753535
12:29:30,1,208,Gun Hill Rd,-73.866256,40.87785,3066.1857156753535
12:29:30,1,209,Burke Av,-73.867164,40.871356,2995.440477609634
12:29:30,1,210,Allerton Av,-73.867352,40.865462,2909.440477609634
12:29:30,1,211,Pelham Pkwy,-73.867615,40.857192,2807.440477609634
12:29:30,1,212,Bronx Park East,-73.868457,40.848828,2691.4404776096344
12:29:30,1,213,E 180 St,-73.873488,40.841894,2536.440477609634
12:29:30,1,214,West Farms Sq-E Tremont Av,-73.880049,40.840295,2538.4404776096344
12:29:30,1,215,174 St,-73.887734,40.837288,2429.440477609634
12:29:30,1,216,Freeman St,-73.891865,40.829993,2329.4404776096344
12:29:30,1,217,Simpson St,-73.893064,40.824073,2210.4404776096344
12:29:30,1,218,Intervale Av,-73.896736,40.822181,2137.440477609634
12:29:30,1,219,Prospect Av,-73.90177,40.819585,2061.4404776096344
12:29:30,1,220,Jackson Av,-73.907807,40.81649,1970.4404776096342
12:29:30,1,221,3 Av-149 St,-73.917757,40.816109,1845.4404776096342
12:29:30,1,222,149 St-Grand Concourse,-73.926718,40.81841,1743.4404776096342
13:06:30,1,224,135 St,-73.94077,40.814229,1744.09375
13:06:30,1,225,125 St,-73.945495,40.807754,1646.09375
13:06:30,1,226,116 St,-73.949625,40.802098,1557.0937499999998
13:06:30,1,227,Central Park North (110 St),-73.951822,40.799075,1492.2500000000002
12:53:00,1,228,Park Place,-74.008811,40.713051,794.4285705089569
12:53:00,1,229,Fulton St,-74.006571,40.709416,909.1785705089569
13:24:30,1,230,Wall St,-74.0091,40.706821,983.1785705089569
12:09:30,2,231,Clark St,-73.993086,40.697466,875.0
13:30:00,1,232,Borough Hall,-73.989998,40.693219,793.0
13:30:00,1,233,Hoyt St,-73.985065,40.690545,874.0
13:30:00,1,234,Nevins St,-73.980492,40.688246,913.0
13:30:00,1,235,Atlantic Av-Barclays Ctr,-73.977666,40.684359,945.25
12:08:30,1,236,Bergen St,-73.975098,40.680829,1017.25
12:08:30,1,237,Grand Army Plaza,-73.971046,40.675235,1123.25
12:08:30,1,238,Eastern Pkwy-Brooklyn Museum,-73.964375,40.671987,1220.2500000000002
13:30:00,1,239,Franklin Av-Medgar Evers College,-73.958131,40.670682,1180.25
13:30:00,1,241,President St-Medgar Evers College,-73.950683,40.667883,1336.2500000000002
13:30:00,1,242,Sterling St,-73.95085,40.662742,1421.2500000000002
13:30:00,1,243,Winthrop St,-73.9502,40.656652,1508.2500000000002
13:30:00,1,244,Church Av,-73.949575,40.650843,1573.25
13:30:00,1,245,Beverly Rd,-73.948959,40.645098,1642.25
13:30:00,1,246,Newkirk Av-Little Haiti,-73.948411,40.639967,1723.25
13:30:00,1,247,Flatbush Av-Brooklyn College,-73.947642,40.632836,1815.2500000000002
13:30:00,1,248,Nostrand Av,-73.950466,40.669847,1301.25
13:30:00,1,249,Kingston Av,-73.942161,40.669399,1389.5
13:30:00,1,250,Crown Hts-Utica Av,-73.932942,40.668897,1371.2499999999998
13:30:00,1,251,Sutter Av-Rutland Rd,-73.92261,40.664717,1490.9999999999998
13:30:00,1,252,Saratoga Av,-73.916327,40.661453,1596.9999999999998
13:30:00,1,253,Rockaway Av,-73.908946,40.662549,1681.75
13:30:00,1,254,Junius St,-73.902447,40.663515,1762.5
13:30:00,1,255,Pennsylvania Av,-73.894895,40.664635,1860.5
13:30:00,1,256,Van Siclen Av,-73.889395,40.665449,1937.4999999999998
13:30:00,1,257,New Lots Av,-73.884079,40.666235,1987.5
12:29:30,1,301,Harlem-148 St,-73.93647,40.82388,1934.0
12:29:30,1,302,145 St,-73.936245,40.820421,1850.0937499999998
13:30:00,1,401,Woodlawn,-73.878751,40.886037,2860.6857156753545
13:30:00,1,402,Mosholu Pkwy,-73.884655,40.87975,2766.685715675354
13:30:00,1,405,Bedford Park Blvd-Lehman College,-73.890064,40.873412,2666.685715675354
13:30:00,1,406,Kingsbridge Rd,-73.897174,40.86776,2559.6857156753545
13:30:00,1,407,Fordham Rd,-73.901034,40.862803,2468.6857156753545
13:30:00,1,408,183 St,-73.903879,40.858407,2389.685715675354
13:30:00,1,409,Burnside Av,-73.907684,40.853453,2298.6857156753545
13:30:00,1,410,176 St,-73.911794,40.84848,2237.6857156753545
13:30:00,1,411,Mt Eden Av,-73.914685,40.844434,2164.685715675354
13:30:00,1,412,170 St,-73.917791,40.840075,2088.6857156753545
13:30:00,1,413,167 St,-73.9214,40.835537,2004.6857156753545
13:30:00,1,414,161 St-Yankee Stadium,-73.925831,40.827994,1895.6857156753542
13:30:00,1,415,149 St-Grand Concourse,-73.927351,40.818375,1765.685715675354
12:29:30,1,416,138 St-Grand Concourse,-73.929849,40.813224,1626.4404776096342
12:15:30,1,418,Fulton St,-74.009509,40.710368,659.1904776096344
12:15:30,1,419,Wall St,-74.011862,40.707557,736.4785723686217
12:15:30,1,420,Bowling Green,-74.014065,40.704817,805.4785723686218
12:08:30,1,423,Borough Hall,-73.990151,40.692404,792.2647063732147
12:29:30,1,501,Eastchester-Dyre Av,-73.830834,40.8883,3165.440477609634
12:29:30,1,502,Baychester Av,-73.838591,40.878663,3071.440477609634
12:29:30,1,503,Gun Hill Rd,-73.846384,40.869526,2950.440477609634
12:29:30,1,504,Pelham Pkwy,-73.855359,40.858985,2820.440477609634
12:29:30,1,505,Morris Park,-73.860495,40.854364,2737.440477609634
13:45:30,1,601,Pelham Bay Park,-73.828121,40.852462,2970.6904776096344
13:45:30,1,602,Buhre Av,-73.832569,40.84681,2859.6904776096344
13:45:30,1,603,Middletown Rd,-73.836322,40.843863,2790.6904776096344
13:45:30,1,604,Westchester Sq-E Tremont Av,-73.842952,40.839892,2698.6904776096344
13:45:30,1,606,Zerega Av,-73.847036,40.836488,2623.9404776096344
13:45:30,1,607,Castle Hill Av,-73.851222,40.834255,2559.9404776096344
13:30:00,1,608,Parkchester,-73.860816,40.833226,2438.9404776096344
13:30:00,1,609,St Lawrence Av,-73.867618,40.831509,2674.534789800644
13:30:00,1,610,Morrison Av-Soundview,-73.874516,40.829521,2595.534789800644
13:30:00,1,611,Elder Av,-73.879159,40.828584,2532.534789800644
13:30:00,1,612,Whitlock Av,-73.886283,40.826525,2439.534789800644
13:30:00,1,613,Hunts Point Av,-73.890549,40.820948,2231.6904776096344
12:01:30,1,614,Longwood Av,-73.896435,40.816104,2312.228572368621
12:01:30,1,615,E 149 St,-73.904098,40.812118,2219.228572368621
12:01:30,1,616,E 143 St-St Mary's St,-73.907657,40.808719,2149.2285723686214
12:01:30,1,617,Cypress Av,-73.914042,40.805368,2039.2285723686211
12:01:30,1,618,Brook Av,-73.91924,40.807566,1970.2285723686211
13:30:00,1,619,3 Av-138 St,-73.926138,40.810476,1874.2285723686214
12:29:30,1,621,125 St,-73.937594,40.804138,1497.4404776096342
12:29:30,1,622,116 St,-73.941617,40.798629,1610.2285723686214
13:30:00,1,623,110 St,-73.94425,40.79502,1536.2285723686214
13:30:00,1,624,103 St,-73.947478,40.7906,1463.2285723686214
13:30:00,1,625,96 St,-73.95107,40.785672,1379.2285723686216
12:29:30,1,626,86 St,-73.955589,40.779492,1233.4404776096344
13:30:00,1,627,77 St,-73.959874,40.77362,1189.2285723686218
13:30:00,1,628,68 St-Hunter College,-73.96387,40.768141,1101.2285723686218
12:29:30,1,629,59 St,-73.967967,40.762526,1007.2285723686218
13:30:00,1,630,51 St,-73.97192,40.757107,914.2285723686218
12:29:30,1,631,Grand Central-42 St,-73.976848,40.751776,798.6904776096343
13:30:00,1,632,33 St,-73.982076,40.746081,689.6904776096344
13:30:00,1,633,28 St,-73.984264,40.74307,625.6904776096344
13:30:00,1,634,23 St,-73.986599,40.739864,559.6904776096344
13:30:00,1,635,14 St-Union Sq,-73.989951,40.734673,440.1904776096344
13:30:00,1,636,Astor Pl,-73.99107,40.730054,368.1904776096344
12:15:30,1,637,Bleecker St,-73.994659,40.725915,281.1904776096344
12:15:30,1,638,Spring St,-73.997141,40.722301,346.19047760963434
12:15:30,1,639,Canal St,-74.000193,40.718803,408.5
12:15:30,1,640,Brooklyn Bridge-City Hall,-74.004131,40.713065,474.5
12:15:30,1,701,Flushing-Main St,-73.83003,40.7596,2160.522513628006
12:15:30,1,702,Mets-Willets Point,-73.845625,40.754622,2030.522513628006
12:15:30,1,705,111 St,-73.855334,40.75173,1941.522513628006
12:15:30,1,706,103 St-Corona Plaza,-73.8627,40.749865,1873.522513628006
12:15:30,1,707,Junction Blvd,-73.869527,40.749145,1815.5225136280062
12:15:30,1,708,90 St-Elmhurst Av,-73.876613,40.748408,1755.5225136280062
12:15:30,1,709,82 St-Jackson Hts,-73.883697,40.747659,1689.522513628006
13:00:00,1,710,74 St-Broadway,-73.891394,40.746848,1601.7074484825134
13:00:00,1,711,69 St,-73.896403,40.746325,1641.7074484825134
13:00:00,1,712,61 St-Woodside,-73.902984,40.74563,1599.4999999999998
13:06:30,1,713,52 St,-73.912549,40.744149,1516.4999999999998
13:06:30,1,714,46 St-Bliss St,-73.918435,40.743132,1466.4999999999998
13:06:30,1,715,40 St-Lowery St,-73.924016,40.743781,1413.4999999999998
13:06:30,1,716,33 St-Rawson St,-73.930997,40.744587,1352.4999999999998
13:06:30,1,718,Queensboro Plaza,-73.940202,40.750582,1220.5
13:06:30,1,719,Court Sq,-73.945264,40.747023,1129.5000000000002
13:06:30,1,720,Hunters Point Av,-73.948916,40.742216,1044.5
13:06:30,1,721,Vernon Blvd-Jackson Av,-73.953581,40.742626,989.5
13:06:30,1,723,Grand Central-42 St,-73.976041,40.751431,786.5
13:06:30,1,724,5 Av,-73.981963,40.753821,751.5
13:06:30,1,725,Times Sq-42 St,-73.987691,40.755477,793.5
13:06:30,1,726,34 St-Hudson Yards,-74.00191,40.755882,923.5
12:08:30,2,901,Grand Central-42 St,-73.979189,40.752769,846.5
13:45:30,2,902,Times Sq-42 St,-73.986229,40.755983,806.0000000000001
13:37:30,0,A02,Inwood-207 St,-73.919899,40.868072,2177.0
13:00:00,0,A03,Dyckman St,-73.927271,40.865491,2107.0
13:00:00,0,A05,190 St,-73.93418,40.859022,1987.0
13:00:00,0,A06,181 St,-73.937969,40.851695,1880.0000000000002
13:00:00,0,A07,175 St,-73.939704,40.847391,1811.0000000000002
13:00:00,0,A09,168 St,-73.939561,40.840719,1691.0000000000002
13:37:30,0,A10,163 St-Amsterdam Av,-73.939892,40.836013,1739.1578962802885
13:37:30,0,A11,155 St,-73.941514,40.830518,1674.1578962802887
13:00:00,0,A12,145 St,-73.944216,40.824783,1486.0000000000002
13:00:00,0,A14,135 St,-73.947649,40.817894,1413.0
13:45:30,0,A15,125 St,-73.952343,40.811109,1303.0
13:00:00,0,A16,116 St,-73.954882,40.805085,1416.1578962802887
13:00:00,0,A17,Cathedral Pkwy (110 St),-73.958161,40.800603,1365.5
13:00:00,0,A18,103 St,-73.961454,40.796092,1300.5
13:00:00,0,A19,96 St,-73.964696,40.791642,1234.5
13:00:00,0,A20,86 St,-73.968916,40.785868,1154.5
13:00:00,0,A21,81 St-Museum of Natural History,-73.972143,40.781433,1079.5
13:00:00,0,A22,72 St,-73.97641,40.775594,1010.5000000000001
13:00:00,0,A24,59 St-Columbus Circle,-73.981736,40.768296,881.0000000000001
14:00:00,0,A25,50 St,-73.985984,40.762456,864.6315793991089
12:01:30,1,A27,42 St-Port Authority Bus Terminal,-73.989735,40.757308,746.0000000000001
13:30:00,1,A28,34 St-Penn Station,-73.993391,40.752287,673.0000000000001
13:00:00,1,A30,23 St,-73.998041,40.745906,618.0
13:00:00,1,A31,14 St,-74.00169,40.740893,543.0
13:30:00,1,A32,W 4 St-Wash Sq,-74.000495,40.732338,430.0
13:00:00,1,A33,Spring St,-74.003739,40.726227,513.0
13:00:00,1,A34,Canal St,-74.005229,40.720824,570.3214287757874
12:15:30,1,A36,Chambers St,-74.008585,40.714111,675.3214287757874
12:46:30,0,A38,Fulton St,-74.007691,40.710197,767.5714287757874
12:46:30,0,A40,High St,-73.990531,40.699337,602.6562488079071
12:01:00,0,A41,Jay St-MetroTech,-73.987342,40.692338,345.0
12:32:00,0,A42,Hoyt-Schermerhorn Sts,-73.985001,40.688484,582.6562488079071
12:17:00,0,A43,Lafayette Av,-73.973946,40.686113,707.6562488079071
12:17:00,0,A44,Clinton-Washington Avs,-73.965838,40.683263,772.6562488079071
12:17:00,0,A45,Franklin Av,-73.956848,40.68138,849.6562488079071
12:32:00,0,A46,Nostrand Av,-73.950426,40.680438,835.7608675956726
12:17:00,0,A47,Kingston-Throop Avs,-73.940858,40.679921,916.5108675956726
12:32:00,0,A48,Utica Av,-73.930729,40.679364,989.5108675956725
12:17:00,0,A49,Ralph Av,-73.920786,40.678822,1094.5108675956724
12:17:00,0,A50,Rockaway Av,-73.911946,40.67834,1169.5108675956724
12:32:00,0,A51,Broadway Junction,-73.905316,40.678334,1184.5108675956724
12:32:00,0,A52,Liberty Av,-73.896548,40.674542,1303.5108675956726
12:32:00,0,A53,Van Siclen Av,-73.890358,40.67271,1368.5108675956724
12:32:00,0,A54,Shepherd Av,-73.88075,40.67413,1448.5108675956724
12:32:00,0,A55,Euclid Av,-73.872106,40.675377,1479.5108675956726
12:32:00,0,A57,Grant Av,-73.86505,40.677044,1556.5108675956726
12:32:00,0,A59,80 St,-73.858992,40.679371,1641.5108675956726
12:32:00,0,A60,88 St,-73.85147,40.679843,1706.5108675956726
12:32:00,0,A61,Rockaway Blvd,-73.843853,40.680429,1796.5108675956726
13:01:30,0,A63,104 St,-73.837683,40.681711,1861.5108675956726
13:01:30,0,A64,111 St,-73.832163,40.684331,1928.5108675956724
13:01:30,0,A65,Ozone Park-Lefferts Blvd,-73.825798,40.685951,1992.5108675956726
12:01:30,0,B04,21 St-Queensbridge,-73.942836,40.754203,1100.75
12:01:30,0,B06,Roosevelt Island,-73.95326,40.759145,937.1840490797546
12:01:30,0,B08,Lexington Av/63 St,-73.966113,40.764629,874.1840490797546
12:01:30,0,B10,57 St,-73.97745,40.763972,704.1840490797547
12:23:30,0,B12,9 Av,-73.994324,40.646292,1446.0
12:23:30,0,B13,Fort Hamilton Pkwy,-73.994304,40.640914,1556.2500000000002
12:23:30,0,B14,50 St,-73.994791,40.63626,1618.2500000000002
12:23:30,0,B15,55 St,-73.995476,40.631435,1693.2500000000002
12:23:30,0,B16,62 St,-73.996895,40.626472,1748.2500000000005
12:23:30,0,B17,71 St,-73.998864,40.619589,1828.2500000000002
12:23:30,0,B18,79 St,-74.00061,40.613501,1908.2500000000002
12:23:30,0,B19,18 Av,-74.001736,40.607954,1971.2500000000002
12:23:30,0,B20,20 Av,-73.998168,40.604556,2035.2500000000005
12:23:30,0,B21,Bay Pkwy,-73.993728,40.601875,2095.2500000000005
12:23:30,0,B22,25 Av,-73.986829,40.597704,2208.0
12:23:30,0,B23,Bay 50 St,-73.983765,40.588841,2218.2500000000005
13:06:30,0,D01,Norwood-205 St,-73.878855,40.874811,2513.0
13:06:30,0,D03,Bedford Park Blvd,-73.887138,40.873244,2398.0
13:06:30,0,D04,Kingsbridge Rd,-73.893509,40.866978,2298.0000000000005
13:06:30,0,D05,Fordham Rd,-73.897749,40.861296,2218.0
13:06:30,0,D06,182-183 Sts,-73.900741,40.856093,2148.0000000000005
13:45:30,0,D07,Tremont Av,-73.905227,40.85041,2084.0
13:45:30,0,D08,174-175 Sts,-73.910136,40.8459,2052.0
13:45:30,0,D09,170 St,-73.9134,40.839306,1972.0
13:45:30,0,D10,167 St,-73.91844,40.833771,1887.0
13:45:30,0,D11,161 St-Yankee Stadium,-73.925651,40.827905,1780.163266181946
13:45:30,0,D12,155 St,-73.938209,40.830135,1660.163266181946
13:45:30,0,D13,145 St,-73.944216,40.824783,1540.0
13:00:00,0,D14,7 Av,-73.981637,40.762862,810.5000000000001
13:00:00,0,D15,47-50 Sts-Rockefeller Ctr,-73.981329,40.758663,614.0
13:00:00,0,D16,42 St-Bryant Pk,-73.984569,40.754222,526.5
13:00:00,0,D17,34 St-Herald Sq,-73.987823,40.749719,461.5
12:01:30,0,D18,23 St,-73.992821,40.742878,354.5
12:01:30,0,D19,14 St,-73.996209,40.738228,279.5
13:00:00,0,D20,W 4 St-Wash Sq,-74.000495,40.732338,190.00000000000003
12:01:30,0,D21,Broadway-Lafayette St,-73.996204,40.725297,65.0
12:40:30,0,D22,Grand St,-73.993753,40.718267,418.5
12:08:30,0,D24,Atlantic Av-Barclays Ctr,-73.97689,40.68446,965.6915121078491
12:08:30,0,D25,7 Av,-73.972367,40.67705,1085.6915121078491
12:08:30,0,D26,Prospect Park,-73.962246,40.661614,1212.656248807907
12:08:30,0,D27,Parkside Av,-73.961495,40.655292,1330.6915121078491
12:08:30,0,D28,Church Av,-73.962982,40.650527,1395.691512107849
12:08:30,0,D29,Beverley Rd,-73.964492,40.644031,1487.1677031517029
12:08:30,0,D30,Cortelyou Rd,-73.963891,40.640927,1547.1677031517029
12:40:30,0,D31,Newkirk Plaza,-73.962793,40.635082,1542.656248807907
12:40:30,0,D32,Avenue H,-73.961639,40.62927,1643.9762496948244
12:40:30,0,D33,Avenue J,-73.960803,40.625039,1713.9762496948244
12:40:30,0,D34,Avenue M,-73.959399,40.617618,1803.9762496948244
12:40:30,0,D35,Kings Hwy,-73.957734,40.60867,1768.906248807907
12:29:30,0,D37,Avenue U,-73.955929,40.5993,1958.9165608882904
12:29:30,0,D38,Neck Rd,-73.955161,40.595246,2025.9165608882904
12:40:30,0,D39,Sheepshead Bay,-73.954155,40.586896,1973.9062488079069
12:29:30,0,D40,Brighton Beach,-73.961376,40.577621,2057.406248807907
12:29:30,0,D41,Ocean Pkwy,-73.968501,40.576312,2237.0
12:29:30,0,D42,W 8 St-NY Aquarium,-73.975939,40.576127,1929.25
12:29:30,0,D43,Coney Island-Stillwell Av,-73.981233,40.577422,2030.0000000000002
12:01:30,1,E01,World Trade Center,-74.009781,40.712582,694.1133351325989
12:15:30,0,F01,Jamaica-179 St,-73.783817,40.712646,2424.75
13:11:00,0,F02,169 St,-73.793604,40.71047,2372.75
12:29:30,0,F03,Parsons Blvd,-73.803326,40.707564,2252.75
12:29:30,0,F04,Sutphin Blvd,-73.810708,40.70546,2187.75
12:29:30,0,F05,Briarwood,-73.820574,40.709179,2067.75
14:00:00,0,F06,Kew Gardens-Union Tpke,-73.831008,40.714441,1947.75
12:29:30,0,F07,75 Av,-73.837324,40.718331,1869.75
13:00:00,0,F09,Court Sq-23 St,-73.946,40.747846,1249.5000000000002
13:00:00,0,F11,Lexington Av/53 St,-73.969055,40.757552,1060.3961044379644
13:00:00,0,F12,5 Av/53 St,-73.975224,40.760167,961.2124309685767
13:51:00,0,F14,2 Av,-73.989938,40.723402,0.0
12:01:00,0,F15,Delancey St-Essex St,-73.988114,40.718611,75.0
12:01:00,0,F16,East Broadway,-73.990173,40.713715,139.99999999999997
12:01:00,0,F18,York St,-73.986751,40.701397,268.0
12:01:00,0,F20,Bergen St,-73.990862,40.686145,460.0
12:01:00,0,F21,Carroll St,-73.995048,40.680303,590.0
12:01:00,0,F22,Smith-9 Sts,-73.995959,40.67358,708.0
12:01:00,0,F23,4 Av-9 St,-73.989779,40.670272,778.0
12:01:00,0,F24,7 Av,-73.980305,40.666271,741.5
12:01:00,0,F25,15 St-Prospect Park,-73.979493,40.660365,897.6651389598848
12:01:00,0,F26,Fort Hamilton Pkwy,-73.975776,40.650782,1027.6651389598849
12:01:00,0,F27,Church Av,-73.979678,40.644041,979.75
12:17:00,0,F29,Ditmas Av,-73.978172,40.636119,1105.25
12:17:00,0,F30,18 Av,-73.976971,40.629755,1215.5
12:17:00,0,F31,Avenue I,-73.976127,40.625322,1277.2499999999998
12:17:00,0,F32,Bay Pkwy,-73.975264,40.620769,1340.25
12:17:00,0,F33,Avenue N,-73.974197,40.61514,1412.7499999999998
12:17:00,0,F34,Avenue P,-73.973022,40.608944,1475.9999999999998
12:17:00,0,F35,Kings Hwy,-73.972361,40.603217,1553.25
13:46:30,0,F36,Avenue U,-73.973357,40.596063,1660.25
13:46:30,0,F38,Avenue X,-73.97425,40.58962,1733.0
12:40:30,0,F39,Neptune Av,-73.974574,40.581011,1848.0
14:00:00,0,G05,Jamaica Center-Parsons/Archer,-73.801109,40.702147,2415.2355470657344
13:00:00,0,G06,Sutphin Blvd-Archer Av-JFK Airport,-73.807969,40.700486,2340.2355470657344
13:00:00,0,G07,Jamaica-Van Wyck,-73.816859,40.702566,2225.235547065735
14:00:00,0,G08,Forest Hills-71 Av,-73.844521,40.721691,1754.75
12:29:30,0,G09,67 Av,-73.852719,40.726523,1924.75
12:29:30,0,G10,63 Dr-Rego Park,-73.861604,40.729846,1945.6111116409302
12:01:30,2,G11,Woodhaven Blvd,-73.869229,40.733106,1875.6111116409304
12:01:30,2,G12,Grand Av-Newtown,-73.877223,40.737015,1790.6111116409302
12:01:30,2,G13,Elmhurst Av,-73.882017,40.742454,1720.6111116409302
14:00:00,0,G14,Jackson Hts-Roosevelt Av,-73.891338,40.746644,1390.75
14:00:00,0,G15,65 St,-73.898453,40.749669,1695.75
14:00:00,0,G16,Northern Blvd,-73.906006,40.752885,1770.75
14:00:00,0,G18,46 St,-73.913333,40.756312,1755.1827266989271
14:00:00,0,G19,Steinway St,-73.92074,40.756879,1638.275510204082
14:00:00,0,G20,36 St,-73.928781,40.752039,1518.275510204082
13:00:00,0,G21,Queens Plaza,-73.937243,40.748973,1359.5
12:15:30,1,G22,Court Sq,-73.943832,40.746554,1189.5000000000002
12:15:30,1,G24,21 St,-73.949724,40.744065,1259.5000000000002
12:15:30,1,G26,Greenpoint Av,-73.954449,40.731352,1287.7142841815948
12:08:30,2,G28,Nassau Av,-73.951277,40.724635,1212.7142841815948
12:17:00,0,G29,Metropolitan Av,-73.951418,40.712792,1090.7142841815948
12:17:00,0,G30,Broadway,-73.950308,40.706092,1193.7142841815948
12:17:00,0,G31,Flushing Av,-73.950234,40.700377,1138.7453429698944
12:17:00,0,G32,Myrtle-Willoughby Avs,-73.949046,40.694568,1078.7453429698944
12:17:00,0,G33,Bedford-Nostrand Avs,-73.953522,40.689627,968.7453429698944
12:17:00,0,G34,Classon Av,-73.96007,40.688873,908.7453429698944
12:17:00,0,G35,Clinton-Washington Avs,-73.966839,40.688089,847.7453429698943
12:17:00,0,G36,Fulton St,-73.975375,40.687119,772.7453429698943
12:32:00,0,H01,Aqueduct Racetrack,-73.834058,40.668234,2022.1677031517029
12:32:00,0,H02,Aqueduct-N Conduit Av,-73.834058,40.668234,1968.5108675956726
12:32:00,0,H03,Howard Beach-JFK Airport,-73.830301,40.660476,2088.5108675956726
12:32:00,0,H04,Broad Channel,-73.815925,40.608382,2498.5108675956726
12:32:00,0,H06,Beach 67 St,-73.796924,40.590927,2751.510867595673
13:31:30,0,H07,Beach 60 St,-73.788522,40.592374,2831.510867595673
13:31:30,0,H08,Beach 44 St,-73.776013,40.592943,2921.510867595673
13:31:30,0,H09,Beach 36 St,-73.768175,40.595398,2991.510867595673
13:31:30,0,H10,Beach 25 St,-73.761353,40.600066,3056.510867595673
13:31:30,0,H11,Far Rockaway-Mott Av,-73.755405,40.603995,3119.510867595673
12:09:30,0,H12,Beach 90 St,-73.813641,40.588034,2808.167703151703
12:09:30,0,H13,Beach 98 St,-73.820558,40.585307,2873.167703151703
12:09:30,0,H14,Beach 105 St,-73.827559,40.583209,2937.1677031517033
12:09:30,0,H15,Rockaway Park-Beach 116 St,-73.835592,40.580903,3012.1677031517033
13:00:00,0,J12,121 St,-73.828294,40.700492,2327.851853132248
12:25:00,1,J13,111 St,-73.836345,40.697418,2311.533671855926
12:25:00,1,J14,104 St,-73.84433,40.695178,2147.851853132248
12:25:00,1,J15,Woodhaven Blvd,-73.851576,40.693879,1892.8518531322482
12:25:00,1,J16,85 St-Forest Pkwy,-73.86001,40.692435,1822.3518531322477
12:25:00,1,J17,75 St-Elderts Ln,-73.867139,40.691324,1712.8518531322482
12:25:00,1,J19,Cypress Hills,-73.87255,40.689941,1702.3518531322477
12:25:00,1,J20,Crescent St,-73.873785,40.683194,1613.3518531322482
12:25:00,1,J21,Norwood Av,-73.880039,40.68141,1572.351853132248
12:25:00,1,J22,Cleveland St,-73.884639,40.679947,1596.101853132248
12:25:00,1,J23,Van Siclen Av,-73.891688,40.678024,1521.351853132248
12:25:00,1,J24,Alabama Av,-73.898654,40.676992,1391.351853132248
12:25:00,1,J27,Broadway Junction,-73.904512,40.679498,1276.351853132248
12:25:00,1,J28,Chauncey St,-73.910456,40.682893,1201.351853132248
12:25:00,1,J29,Halsey St,-73.916559,40.68637,1149.3518531322477
12:25:00,1,J30,Gates Av,-73.92227,40.68963,1076.351853132248
12:25:00,1,J31,Kosciuszko St,-73.928814,40.693342,1017.3518531322478
12:08:30,1,L01,8 Av,-74.002578,40.739777,564.5
12:29:30,1,L02,6 Av,-73.996786,40.737335,504.5
12:29:30,1,L03,14 St-Union Sq,-73.99073,40.734789,551.5
12:29:30,1,L05,3 Av,-73.986122,40.732849,583.5
12:29:30,1,L06,1 Av,-73.981628,40.730953,624.5
12:29:30,1,L08,Bedford Av,-73.956872,40.717304,817.5
12:29:30,1,L10,Lorimer St,-73.950275,40.714063,877.5
12:29:30,1,L11,Graham Av,-73.944053,40.714565,907.5
12:29:30,1,L12,Grand St,-73.94067,40.711926,987.4999999999999
12:29:30,1,L13,Montrose Av,-73.93985,40.707739,1016.5
12:29:30,1,L14,Morgan Av,-73.933147,40.706152,1089.5
12:29:30,1,L15,Jefferson St,-73.922913,40.706607,1186.5
12:29:30,1,L16,DeKalb Av,-73.918425,40.703811,1241.5
12:29:30,1,L17,Myrtle-Wyckoff Avs,-73.911586,40.699814,1291.5
13:11:00,1,L19,Halsey St,-73.904084,40.695602,1343.5000000000005
12:32:00,1,L20,Wilson Av,-73.904046,40.688764,1453.5000000000002
12:32:00,1,L21,Bushwick Av-Aberdeen St,-73.905249,40.682829,1492.8065915107727
12:32:00,1,L22,Broadway Junction,-73.90324,40.678856,1461.8065915107727
12:32:00,1,L24,Atlantic Av,-73.903097,40.675345,1517.8065915107727
12:32:00,1,L25,Sutter Av,-73.901975,40.669367,1590.8065915107727
12:32:00,1,L26,Livonia Av,-73.900571,40.664038,1639.8065915107727
12:32:00,1,L27,New Lots Av,-73.899232,40.658733,1697.249997615814
12:32:00,1,L28,East 105 St,-73.899485,40.650573,1781.249997615814
12:32:00,1,L29,Canarsie-Rockaway Pkwy,-73.90185,40.646654,1840.8065915107725
13:11:00,0,M01,Middle Village-Metropolitan Av,-73.889601,40.711396,1502.2644746303554
13:11:00,0,M04,Fresh Pond Rd,-73.895877,40.706186,1446.2644746303554
13:11:00,0,M05,Forest Av,-73.903077,40.704423,1364.2644746303554
13:11:00,0,M06,Seneca Av,-73.90774,40.702762,1292.2644746303554
13:11:00,0,M08,Myrtle-Wyckoff Avs,-73.912385,40.69943,1238.2644746303554
13:11:00,0,M09,Knickerbocker Av,-73.919711,40.698664,1135.2644746303556
13:11:00,0,M10,Central Av,-73.927397,40.697857,1069.351853132248
13:11:00,0,M11,Myrtle Av,-73.935657,40.697207,912.3518531322478
13:11:00,0,M12,Flushing Av,-73.941126,40.70026,872.3518531322479
13:11:00,0,M13,Lorimer St,-73.947408,40.703869,797.3518531322479
13:11:00,0,M14,Hewes St,-73.953431,40.70687,729.351853132248
13:11:00,0,M16,Marcy Av,-73.957757,40.708359,667.3518531322479
13:11:00,0,M18,Delancey St-Essex St,-73.987437,40.718315,314.3518531322479
12:25:00,1,M19,Bowery,-73.993915,40.72028,376.3518531322479
12:25:00,1,M20,Canal St,-73.999892,40.718092,456.3518531322479
12:25:00,1,M21,Chambers St,-74.003401,40.713243,552.1904776096344
12:25:00,1,M22,Fulton St,-74.007582,40.710374,617.1904776096344
12:25:00,1,M23,Broad St,-74.011056,40.706476,681.1904776096344
12:08:30,0,N02,8 Av,-74.011719,40.635064,1569.75
12:08:30,0,N03,Fort Hamilton Pkwy,-74.005351,40.631386,1690.75
12:08:30,0,N04,New Utrecht Av,-73.996353,40.624842,1810.75
12:08:30,0,N05,18 Av,-73.990414,40.620671,1881.75
12:08:30,0,N06,20 Av,-73.985026,40.61741,1946.75
12:08:30,0,N07,Bay Pkwy,-73.981848,40.611815,2024.7499999999998
12:08:30,0,N08,Kings Hwy,-73.980353,40.603923,2134.75
12:08:30,0,N09,Avenue U,-73.979137,40.597473,2206.75
12:08:30,0,N10,86 St,-73.97823,40.592721,2266.75
12:01:30,2,Q01,Canal St,-74.00046,40.718383,661.7446837425232
12:29:30,0,Q03,72 St,-73.958424,40.768799,1213.9339609146118
12:29:30,0,Q04,86 St,-73.951787,40.777891,1332.9339609146118
12:29:30,0,Q05,96 St,-73.947152,40.784318,1401.9339609146118
12:08:30,1,R01,Astoria-Ditmars Blvd,-73.912034,40.775036,1752.1923081874847
12:08:30,1,R03,Astoria Blvd,-73.917843,40.770258,1677.1923081874847
12:08:30,1,R04,30 Av,-73.921479,40.766779,1605.192308187485
12:08:30,1,R05,Broadway,-73.925508,40.76182,1540.192308187485
12:08:30,1,R06,36 Av,-73.929575,40.756804,1470.192308187485
12:08:30,1,R08,39 Av-Dutch Kills,-73.932755,40.752882,1392.1923081874847
12:08:30,1,R09,Queensboro Plaza,-73.940202,40.750582,1272.1923081874847
12:08:30,1,R11,Lexington Av/59 St,-73.967258,40.76266,1171.1839609146118
12:08:30,1,R13,5 Av/59 St,-73.973347,40.764811,1074.1839609146118
12:29:30,1,R14,57 St-7 Av,-73.980658,40.764664,913.9339609146118
12:15:30,1,R15,49 St,-73.984139,40.759901,875.1839609146118
13:00:00,1,R16,Times Sq-42 St,-73.986754,40.754672,775.9339609146118
14:00:00,1,R17,34 St-Herald Sq,-73.98795,40.749567,700.9339609146118
13:00:00,1,R18,28 St,-73.988691,40.745494,762.9339609146118
12:01:30,2,R19,23 St,-73.989344,40.741303,740.1904776096344
13:00:00,1,R20,14 St-Union Sq,-73.990568,40.735736,665.1904776096344
12:01:30,2,R21,8 St-NYU,-73.992629,40.730328,765.1904776096344
12:23:30,2,R22,Prince St,-73.997702,40.724329,727.0803561210632
12:15:30,2,R23,Canal St,-74.001775,40.719527,644.0803561210632
12:15:30,2,R24,City Hall,-74.006978,40.713282,777.1904776096344
12:15:30,2,R25,Cortlandt St,-74.011029,40.710668,794.4285705089569
12:15:30,2,R26,Rector St,-74.013342,40.70722,854.75
13:01:30,1,R27,Whitehall St-South Ferry,-74.012994,40.703087,788.0
13:01:30,1,R28,Court St,-73.991777,40.6941,553.0
12:08:30,0,R29,Jay St-MetroTech,-73.985942,40.69218,480.0
12:40:30,0,R30,DeKalb Av,-73.981824,40.690635,583.1677031517029
12:08:30,0,R31,Atlantic Av-Barclays Ctr,-73.97881,40.683666,720.25
12:08:30,0,R32,Union St,-73.98311,40.677316,840.25
12:08:30,0,R33,4 Av-9 St,-73.988302,40.670847,919.6677031517028
12:08:30,0,R34,Prospect Av,-73.992872,40.665414,1007.2499999999999
12:08:30,0,R35,25 St,-73.998091,40.660397,1062.25
12:08:30,0,R36,36 St,-74.003549,40.655144,1153.25
12:08:30,0,R39,45 St,-74.010006,40.648939,1323.2499999999998
12:08:30,0,R40,53 St,-74.014034,40.645069,1388.2499999999998
12:08:30,0,R41,59 St,-74.017881,40.641362,1434.75
12:08:30,0,R42,Bay Ridge Av,-74.023377,40.634967,1589.2905402183533
12:08:30,0,R43,77 St,-74.02551,40.629742,1652.2905402183533
12:08:30,0,R44,86 St,-74.028398,40.622687,1755.1677031517029
12:08:30,0,R45,Bay Ridge-95 St,-74.030876,40.616622,1824.1677031517027
12:40:30,0,S01,Franklin Av,-73.955827,40.680596,909.6562488079071
12:40:30,0,S03,Park Pl,-73.957624,40.674772,1028.656248807907
12:40:30,0,S04,Botanic Garden,-73.959245,40.670343,1094.656248807907
