start_time,ntransfers,stop_id,stop_name,stop_lon,stop_lat,duration
12:06:00,2,101,Van Cortlandt Park-242 St,-73.898583,40.889248,3642.1280195713043
12:06:00,2,103,238 St,-73.90087,40.884667,3576.9216089248657
12:06:00,2,104,231 St,-73.904834,40.878856,3490.9216089248657
12:06:00,2,106,Marble Hill-225 St,-73.909831,40.874561,3410.9216089248657
12:06:00,2,107,215 St,-73.915279,40.869444,3320.9216089248657
12:06:00,2,108,207 St,-73.918822,40.864621,3248.9216089248657
12:06:00,2,109,Dyckman St,-73.925536,40.860531,3181.1280195713043
12:06:00,2,110,191 St,-73.929412,40.855225,3106.1280195713043
12:06:00,2,111,181 St,-73.933596,40.849505,3019.1280195713043
12:06:00,2,112,168 St-Washington Hts,-73.940133,40.840556,2907.1280195713043
12:06:00,2,113,157 St,-73.94489,40.834041,3000.128019571304
12:06:00,2,114,145 St,-73.95036,40.826551,2914.036795616151
12:06:00,2,115,137 St-City College,-73.953676,40.822008,2825.036795616151
12:06:00,2,116,125 St,-73.958372,40.815581,2730.036795616151
12:06:00,2,117,116 St-Columbia University,-73.96411,40.807722,2628.0367956161504
12:06:00,2,118,Cathedral Pkwy (110 St),-73.966847,40.803967,2554.0367956161504
12:06:00,2,119,103 St,-73.968379,40.799446,2480.0367956161504
12:06:00,2,120,96 St,-73.972323,40.793919,2246.63888835907
12:06:00,2,121,86 St,-73.976218,40.788644,2292.0367956161504
12:06:00,2,122,79 St,-73.979917,40.783934,2227.0367956161504
12:06:00,2,123,72 St,-73.98197,40.778453,2079.63888835907
12:06:00,2,124,66 St-Lincoln Center,-73.982209,40.77344,2132.63888835907
12:06:00,2,125,59 St-Columbus Circle,-73.981929,40.768247,2055.63888835907
12:06:00,2,126,50 St,-73.983849,40.761728,1959.6388883590698
12:06:00,2,127,Times Sq-42 St,-73.987495,40.75529,1856.6388883590698
12:06:00,2,128,34 St-Penn Station,-73.991057,40.750373,1787.6388883590698
12:06:00,2,129,28 St,-73.993365,40.747215,1828.6388883590698
12:06:00,2,130,23 St,-73.995657,40.744081,1763.63888835907
12:06:00,2,131,18 St,-73.997871,40.74104,1700.6388883590698
12:06:00,2,132,14 St,-74.000201,40.737826,1630.6388883590698
12:06:00,2,133,Christopher St-Sheridan Sq,-74.002906,40.733422,1711.63888835907
12:06:00,2,134,Houston St,-74.005367,40.728251,1787.6388883590698
12:06:00,2,135,Canal St,-74.006277,40.722854,1866.6388883590698
12:06:00,2,136,Franklin St,-74.006886,40.719318,1928.6388883590698
12:55:00,2,137,Chambers St,-74.009266,40.715478,1820.743228673935
12:06:00,2,138,WTC Cortlandt,-74.012188,40.711835,1907.3851308822632
12:06:00,2,139,Rector St,-74.013783,40.707513,1836.3851308822632
12:06:00,2,142,South Ferry,-74.013664,40.702068,1752.3851308822632
12:26:00,1,201,Wakefield-241 St,-73.85062,40.903125,4465.529427051544
12:26:00,1,204,Nereid Av,-73.854376,40.898379,4343.529427051544
12:26:00,1,205,233 St,-73.857473,40.893193,4278.529427051544
12:26:00,1,206,225 St,-73.860341,40.888022,4185.029427051543
12:26:00,1,207,219 St,-73.862633,40.883895,4105.029427051544
12:26:00,1,208,Gun Hill Rd,-73.866256,40.87785,4000.779427051544
12:26:00,1,209,Burke Av,-73.867164,40.871356,3937.5294270515446
12:26:00,1,210,Allerton Av,-73.867352,40.865462,3851.529427051544
12:26:00,1,211,Pelham Pkwy,-73.867615,40.857192,3749.529427051544
12:26:00,1,212,Bronx Park East,-73.868457,40.848828,3633.529427051544
12:26:00,1,213,E 180 St,-73.873488,40.841894,3478.529427051544
12:26:00,1,214,West Farms Sq-E Tremont Av,-73.880049,40.840295,3480.5294270515446
12:26:00,1,215,174 St,-73.887734,40.837288,3371.529427051544
12:26:00,1,216,Freeman St,-73.891865,40.829993,3271.5294270515446
12:26:00,1,217,Simpson St,-73.893064,40.824073,3152.529427051544
12:26:00,1,218,Intervale Av,-73.896736,40.822181,3079.529427051544
12:26:00,1,219,Prospect Av,-73.90177,40.819585,3003.529427051544
12:26:00,1,220,Jackson Av,-73.907807,40.81649,2912.529427051544
12:26:00,1,221,3 Av-149 St,-73.917757,40.816109,2787.529427051544
12:26:00,1,222,149 St-Grand Concourse,-73.926718,40.81841,2685.529427051544
12:06:00,2,224,135 St,-73.94077,40.814229,2744.88888835907
12:06:00,2,225,125 St,-73.945495,40.807754,2645.88888835907
12:06:00,2,226,116 St,-73.949625,40.802098,2551.8888883590694
12:06:00,2,227,Central Park North (110 St),-73.951822,40.799075,2482.88888835907
12:06:00,2,228,Park Place,-74.008811,40.713051,1738.4891300201416
12:16:00,2,229,Fulton St,-74.006571,40.709416,1640.743228673935
12:06:00,2,230,Wall St,-74.0091,40.706821,1708.743228673935
12:16:00,3,231,Clark St,-73.993086,40.697466,1655.4891300201416
12:06:00,3,232,Borough Hall,-73.989998,40.693219,1573.4891300201416
12:06:00,3,233,Hoyt St,-73.985065,40.690545,1654.4891300201416
12:06:00,3,234,Nevins St,-73.980492,40.688246,1669.7500000000002
12:06:00,3,235,Atlantic Av-Barclays Ctr,-73.977666,40.684359,1567.7500000000002
12:26:00,2,236,Bergen St,-73.975098,40.680829,1571.8475599288943
12:26:00,2,237,Grand Army Plaza,-73.971046,40.675235,1477.8475599288943
12:26:00,2,238,Eastern Pkwy-Brooklyn Museum,-73.964375,40.671987,1385.8475599288943
12:26:00,2,239,Franklin Av-Medgar Evers College,-73.958131,40.670682,1308.847559928894
12:26:00,2,241,President St-Medgar Evers College,-73.950683,40.667883,1467.7500000000002
12:26:00,2,242,Sterling St,-73.95085,40.662742,1551.75
12:26:00,2,243,Winthrop St,-73.9502,40.656652,1634.75
12:26:00,2,244,Church Av,-73.949575,40.650843,1696.75
12:26:00,2,245,Beverly Rd,-73.948959,40.645098,1757.75
12:26:00,2,246,Newkirk Av-Little Haiti,-73.948411,40.639967,1837.75
12:26:00,2,247,Flatbush Av-Brooklyn College,-73.947642,40.632836,1918.75
12:26:00,2,248,Nostrand Av,-73.950466,40.669847,1336.1023015975954
12:26:00,2,249,Kingston Av,-73.942161,40.669399,1247.1023015975954
12:26:00,2,250,Crown Hts-Utica Av,-73.932942,40.668897,1184.1023015975954
12:26:00,2,251,Sutter Av-Rutland Rd,-73.92261,40.664717,1137.1023015975952
12:26:00,2,252,Saratoga Av,-73.916327,40.661453,1037.1023015975952
12:26:00,2,253,Rockaway Av,-73.908946,40.662549,954.1023015975952
12:06:00,2,254,Junius St,-73.902447,40.663515,877.1023015975952
12:06:00,2,255,Pennsylvania Av,-73.894895,40.664635,970.1023015975952
12:06:00,2,256,Van Siclen Av,-73.889395,40.665449,1042.1023015975952
12:06:00,2,257,New Lots Av,-73.884079,40.666235,1100.102301597595
12:06:00,2,301,Harlem-148 St,-73.93647,40.82388,2924.63888835907
12:06:00,2,302,145 St,-73.936245,40.820421,2852.63888835907
12:06:00,1,401,Woodlawn,-73.878751,40.886037,3795.2794270515437
12:06:00,1,402,Mosholu Pkwy,-73.884655,40.87975,3701.2794270515437
12:06:00,1,405,Bedford Park Blvd-Lehman College,-73.890064,40.873412,3601.2794270515437
12:06:00,1,406,Kingsbridge Rd,-73.897174,40.86776,3494.2794270515437
12:06:00,1,407,Fordham Rd,-73.901034,40.862803,3403.279427051544
12:06:00,1,408,183 St,-73.903879,40.858407,3324.2794270515437
12:06:00,1,409,Burnside Av,-73.907684,40.853453,3233.2794270515437
12:06:00,1,410,176 St,-73.911794,40.84848,3172.2794270515437
12:06:00,1,411,Mt Eden Av,-73.914685,40.844434,3099.2794270515437
12:06:00,1,412,170 St,-73.917791,40.840075,3023.2794270515437
12:06:00,1,413,167 St,-73.9214,40.835537,2939.2794270515437
12:06:00,1,414,161 St-Yankee Stadium,-73.925831,40.827994,2830.2794270515437
12:06:00,1,415,149 St-Grand Concourse,-73.927351,40.818375,2700.2794270515437
12:26:00,1,416,138 St-Grand Concourse,-73.929849,40.813224,2568.5294270515437
12:16:00,1,418,Fulton St,-74.009509,40.710368,1646.4167623519897
12:06:00,2,419,Wall St,-74.011862,40.707557,1717.4167623519897
12:36:00,3,420,Bowling Green,-74.014065,40.704817,1786.4167623519897
12:06:00,3,423,Borough Hall,-73.990151,40.692404,1572.7538363933563
13:45:00,1,501,Eastchester-Dyre Av,-73.830834,40.8883,4107.529427051544
12:26:00,1,502,Baychester Av,-73.838591,40.878663,4013.5294270515446
12:26:00,1,503,Gun Hill Rd,-73.846384,40.869526,3892.5294270515446
12:26:00,1,504,Pelham Pkwy,-73.855359,40.858985,3762.529427051544
12:26:00,1,505,Morris Park,-73.860495,40.854364,3679.529427051544
13:25:00,1,601,Pelham Bay Park,-73.828121,40.852462,3932.4222855567928
13:25:00,1,602,Buhre Av,-73.832569,40.84681,3821.4222855567928
13:25:00,1,603,Middletown Rd,-73.836322,40.843863,3752.4222855567928
13:25:00,1,604,Westchester Sq-E Tremont Av,-73.842952,40.839892,3660.4222855567928
13:25:00,1,606,Zerega Av,-73.847036,40.836488,3585.672285556793
13:25:00,1,607,Castle Hill Av,-73.851222,40.834255,3521.6722855567928
12:06:00,1,608,Parkchester,-73.860816,40.833226,3400.6722855567928
12:06:00,1,609,St Lawrence Av,-73.867618,40.831509,3636.2665977478023
12:06:00,1,610,Morrison Av-Soundview,-73.874516,40.829521,3557.2665977478023
12:06:00,1,611,Elder Av,-73.879159,40.828584,3494.2665977478023
12:06:00,1,612,Whitlock Av,-73.886283,40.826525,3400.890535831451
12:06:00,1,613,Hunts Point Av,-73.890549,40.820948,3193.422285556793
12:26:00,1,614,Longwood Av,-73.896435,40.816104,3277.7678008079524
12:26:00,1,615,E 149 St,-73.904098,40.812118,3184.7678008079524
12:26:00,1,616,E 143 St-St Mary's St,-73.907657,40.808719,3114.767800807953
12:26:00,1,617,Cypress Av,-73.914042,40.805368,3004.7678008079524
12:26:00,1,618,Brook Av,-73.91924,40.807566,2935.7678008079524
12:06:00,1,619,3 Av-138 St,-73.926138,40.810476,2839.7678008079524
12:26:00,1,621,125 St,-73.937594,40.804138,2438.2794270515437
12:26:00,1,622,116 St,-73.941617,40.798629,2731.464399576187
12:06:00,1,623,110 St,-73.94425,40.79502,2657.464399576187
12:06:00,1,624,103 St,-73.947478,40.7906,2584.4643995761867
12:06:00,1,625,96 St,-73.95107,40.785672,2500.4643995761867
12:26:00,1,626,86 St,-73.955589,40.779492,2173.279427051544
12:06:00,1,627,77 St,-73.959874,40.77362,2332.5294270515446
12:06:00,1,628,68 St-Hunter College,-73.96387,40.768141,2244.529427051544
12:26:00,1,629,59 St,-73.967967,40.762526,1986.279427051544
12:06:00,1,630,51 St,-73.97192,40.757107,2057.529427051544
12:26:00,1,631,Grand Central-42 St,-73.976848,40.751776,1828.5294270515442
12:46:00,1,632,33 St,-73.982076,40.746081,1823.0198423862457
12:46:00,1,633,28 St,-73.984264,40.74307,1760.0198423862457
12:46:00,1,634,23 St,-73.986599,40.739864,1693.0198423862457
12:46:00,1,635,14 St-Union Sq,-73.989951,40.734673,1597.096031665802
12:46:00,1,636,Astor Pl,-73.99107,40.730054,1670.6388883590698
12:16:00,1,637,Bleecker St,-73.994659,40.725915,1664.419746875763
12:16:00,1,638,Spring St,-73.997141,40.722301,1627.249998807907
12:26:00,1,639,Canal St,-74.000193,40.718803,1587.249998807907
12:06:00,1,640,Brooklyn Bridge-City Hall,-74.004131,40.713065,1521.0
12:16:30,1,701,Flushing-Main St,-73.83003,40.7596,2621.9543323516846
12:16:30,1,702,Mets-Willets Point,-73.845625,40.754622,2491.9543323516846
12:16:30,1,705,111 St,-73.855334,40.75173,2402.9543323516846
12:16:30,1,706,103 St-Corona Plaza,-73.8627,40.749865,2334.9543323516846
12:16:30,1,707,Junction Blvd,-73.869527,40.749145,2276.9543323516846
12:16:30,1,708,90 St-Elmhurst Av,-73.876613,40.748408,2216.9543323516846
12:16:30,1,709,82 St-Jackson Hts,-73.883697,40.747659,2150.9543323516846
12:16:30,1,710,74 St-Broadway,-73.891394,40.746848,2063.139267206192
12:16:30,1,711,69 St,-73.896403,40.746325,2103.139267206192
12:16:30,1,712,61 St-Woodside,-73.902984,40.74563,2169.139267206192
12:16:30,1,713,52 St,-73.912549,40.744149,2131.2913596630096
12:16:30,1,714,46 St-Bliss St,-73.918435,40.743132,2081.2913596630096
12:16:30,1,715,40 St-Lowery St,-73.924016,40.743781,2028.2913596630096
12:16:30,1,716,33 St-Rawson St,-73.930997,40.744587,1967.2913596630096
13:16:30,1,718,Queensboro Plaza,-73.940202,40.750582,1868.2913596630096
13:16:30,1,719,Court Sq,-73.945264,40.747023,1793.2913596630096
13:16:30,1,720,Hunters Point Av,-73.948916,40.742216,1878.2913596630096
12:06:00,1,721,Vernon Blvd-Jackson Av,-73.953581,40.742626,1896.0413596630096
12:06:00,1,723,Grand Central-42 St,-73.976041,40.751431,1948.5294270515442
12:06:00,3,724,5 Av,-73.981963,40.753821,1911.6388883590698
12:06:00,1,725,Times Sq-42 St,-73.987691,40.755477,1856.6388883590698
12:06:00,1,726,34 St-Hudson Yards,-74.00191,40.755882,1986.6388883590698
12:06:00,2,901,Grand Central-42 St,-73.979189,40.752769,1877.6388883590698
12:06:00,2,902,Times Sq-42 St,-73.986229,40.755983,1796.6388883590698
12:06:00,1,A02,Inwood-207 St,-73.919899,40.868072,3167.6388883590694
12:06:00,1,A03,Dyckman St,-73.927271,40.865491,3097.6388883590694
12:06:00,1,A05,190 St,-73.93418,40.859022,2977.6388883590694
12:06:00,1,A06,181 St,-73.937969,40.851695,2870.6388883590694
12:06:00,1,A07,175 St,-73.939704,40.847391,2801.63888835907
12:06:00,1,A09,168 St,-73.939561,40.840719,2681.63888835907
12:06:00,1,A10,163 St-Amsterdam Av,-73.939892,40.836013,2729.796784639359
12:16:00,0,A11,155 St,-73.941514,40.830518,2664.796784639359
12:06:00,1,A12,145 St,-73.944216,40.824783,2476.63888835907
12:26:00,0,A14,135 St,-73.947649,40.817894,2403.63888835907
12:06:00,1,A15,125 St,-73.952343,40.811109,2293.63888835907
12:06:00,1,A16,116 St,-73.954882,40.805085,2406.7967846393585
12:06:00,1,A17,Cathedral Pkwy (110 St),-73.958161,40.800603,2404.63888835907
12:06:00,1,A18,103 St,-73.961454,40.796092,2339.63888835907
12:06:00,1,A19,96 St,-73.964696,40.791642,2274.63888835907
12:06:00,1,A20,86 St,-73.968916,40.785868,2196.63888835907
12:06:00,1,A21,81 St-Museum of Natural History,-73.972143,40.781433,2121.63888835907
12:06:00,1,A22,72 St,-73.97641,40.775594,2053.63888835907
12:16:00,1,A24,59 St-Columbus Circle,-73.981736,40.768296,1871.6388883590698
12:06:00,1,A25,50 St,-73.985984,40.762456,1848.63888835907
12:16:00,1,A27,42 St-Port Authority Bus Terminal,-73.989735,40.757308,1736.6388883590698
12:16:00,1,A28,34 St-Penn Station,-73.993391,40.752287,1663.6388883590698
12:36:00,1,A30,23 St,-73.998041,40.745906,1606.63888835907
12:16:00,1,A31,14 St,-74.00169,40.740893,1540.6388883590698
12:16:00,1,A32,W 4 St-Wash Sq,-74.000495,40.732338,1653.6388883590698
12:16:00,1,A33,Spring St,-74.003739,40.726227,1730.6388883590698
12:16:00,1,A34,Canal St,-74.005229,40.720824,1613.4891300201416
12:16:00,1,A36,Chambers St,-74.008585,40.714111,1498.4891300201416
12:16:00,1,A38,Fulton St,-74.007691,40.710197,1423.4891300201416
12:16:00,1,A40,High St,-73.990531,40.699337,1245.4891300201416
12:16:00,1,A41,Jay St-MetroTech,-73.987342,40.692338,1125.4891300201416
12:16:00,1,A42,Hoyt-Schermerhorn Sts,-73.985001,40.688484,1025.4891300201416
12:16:00,1,A43,Lafayette Av,-73.973946,40.686113,964.7500000000001
12:16:00,1,A44,Clinton-Washington Avs,-73.965838,40.683263,899.7500000000001
12:16:00,1,A45,Franklin Av,-73.956848,40.68138,822.7500000000001
12:16:00,1,A46,Nostrand Av,-73.950426,40.680438,757.7500000000001
12:16:00,1,A47,Kingston-Throop Avs,-73.940858,40.679921,677.75
12:16:00,1,A48,Utica Av,-73.930729,40.679364,597.75
13:05:00,1,A49,Ralph Av,-73.920786,40.678822,501.0
13:05:00,1,A50,Rockaway Av,-73.911946,40.67834,426.0
12:06:00,1,A51,Broadway Junction,-73.905316,40.678334,360.0
12:06:00,1,A52,Liberty Av,-73.896548,40.674542,480.0
12:06:00,1,A53,Van Siclen Av,-73.890358,40.67271,555.0
12:06:00,1,A54,Shepherd Av,-73.88075,40.67413,633.0
12:06:00,1,A55,Euclid Av,-73.872106,40.675377,702.0000000000001
12:06:00,1,A57,Grant Av,-73.86505,40.677044,808.7391300201417
12:06:00,1,A59,80 St,-73.858992,40.679371,890.1941752433777
12:06:00,1,A60,88 St,-73.85147,40.679843,958.7391300201417
12:06:00,1,A61,Rockaway Blvd,-73.843853,40.680429,1028.1941752433777
12:16:00,1,A63,104 St,-73.837683,40.681711,1093.1941752433775
13:15:00,1,A64,111 St,-73.832163,40.684331,1155.1941752433777
13:15:00,1,A65,Ozone Park-Lefferts Blvd,-73.825798,40.685951,1225.1941752433777
13:16:30,0,B04,21 St-Queensbridge,-73.942836,40.754203,2263.667365789414
13:16:30,0,B06,Roosevelt Island,-73.95326,40.759145,2275.9710854986697
12:26:00,0,B08,Lexington Av/63 St,-73.966113,40.764629,2135.279427051544
12:26:00,0,B10,57 St,-73.97745,40.763972,2042.9710854986697
12:16:00,0,B12,9 Av,-73.994324,40.646292,2284.880433797836
12:16:00,0,B13,Fort Hamilton Pkwy,-73.994304,40.640914,2365.0787534713745
12:16:00,0,B14,50 St,-73.994791,40.63626,2427.0787534713745
12:16:00,0,B15,55 St,-73.995476,40.631435,2502.0787534713745
12:16:00,0,B16,62 St,-73.996895,40.626472,2557.0787534713745
12:16:00,0,B17,71 St,-73.998864,40.619589,2637.0787534713745
12:16:00,0,B18,79 St,-74.00061,40.613501,2717.0787534713745
12:16:00,0,B19,18 Av,-74.001736,40.607954,2780.0787534713745
12:16:00,0,B20,20 Av,-73.998168,40.604556,2844.0787534713745
12:16:00,0,B21,Bay Pkwy,-73.993728,40.601875,2875.3900017738342
12:16:00,0,B22,25 Av,-73.986829,40.597704,2765.6400017738342
12:16:00,2,B23,Bay 50 St,-73.983765,40.588841,2628.6400017738342
12:06:00,0,D01,Norwood-205 St,-73.878855,40.874811,3541.954680919647
12:06:00,0,D03,Bedford Park Blvd,-73.887138,40.873244,3426.954680919647
12:06:00,0,D04,Kingsbridge Rd,-73.893509,40.866978,3326.954680919647
12:06:00,0,D05,Fordham Rd,-73.897749,40.861296,3246.954680919647
12:06:00,0,D06,182-183 Sts,-73.900741,40.856093,3176.954680919647
12:55:00,0,D07,Tremont Av,-73.905227,40.85041,3112.954680919647
12:55:00,0,D08,174-175 Sts,-73.910136,40.8459,3075.802154541016
12:55:00,0,D09,170 St,-73.9134,40.839306,3000.9546809196477
12:55:00,0,D10,167 St,-73.91844,40.833771,2895.802154541016
12:55:00,0,D11,161 St-Yankee Stadium,-73.925651,40.827905,2770.8021545410156
12:55:00,0,D12,155 St,-73.938209,40.830135,2650.8021545410156
12:55:00,0,D13,145 St,-73.944216,40.824783,2535.802154541016
12:55:00,0,D14,7 Av,-73.981637,40.762862,1981.38888835907
12:06:00,0,D15,47-50 Sts-Rockefeller Ctr,-73.981329,40.758663,1950.8207070827486
12:06:00,0,D16,42 St-Bryant Pk,-73.984569,40.754222,1880.8207070827484
12:06:00,0,D17,34 St-Herald Sq,-73.987823,40.749719,1818.8207070827484
12:16:00,0,D18,23 St,-73.992821,40.742878,1708.8207070827484
12:16:00,0,D19,14 St,-73.996209,40.738228,1645.6388883590698
12:16:00,0,D20,W 4 St-Wash Sq,-74.000495,40.732338,1582.191174507141
12:16:00,0,D21,Broadway-Lafayette St,-73.996204,40.725297,1452.191174507141
12:16:00,0,D22,Grand St,-73.993753,40.718267,1817.3952536582947
12:06:00,2,D24,Atlantic Av-Barclays Ctr,-73.97689,40.68446,1545.7500000000002
12:06:00,2,D25,7 Av,-73.972367,40.67705,1425.7500000000002
12:16:00,2,D26,Prospect Park,-73.962246,40.661614,1185.7500000000002
13:05:00,2,D27,Parkside Av,-73.961495,40.655292,1495.75
13:05:00,2,D28,Church Av,-73.962982,40.650527,1370.75
13:05:00,2,D29,Beverley Rd,-73.964492,40.644031,1469.4404776096346
13:05:00,2,D30,Cortelyou Rd,-73.963891,40.640927,1529.4404776096346
12:36:00,2,D31,Newkirk Plaza,-73.962793,40.635082,1515.7500000000002
13:05:00,2,D32,Avenue H,-73.961639,40.62927,1617.0700008869173
13:05:00,2,D33,Avenue J,-73.960803,40.625039,1687.0700008869173
13:05:00,2,D34,Avenue M,-73.959399,40.617618,1777.0700008869173
12:36:00,2,D35,Kings Hwy,-73.957734,40.60867,1742.0
12:16:00,2,D37,Avenue U,-73.955929,40.5993,1932.0103120803835
12:16:00,2,D38,Neck Rd,-73.955161,40.595246,1999.0103120803835
12:36:00,2,D39,Sheepshead Bay,-73.954155,40.586896,1947.0000000000002
12:16:00,2,D40,Brighton Beach,-73.961376,40.577621,2030.5
12:16:00,2,D41,Ocean Pkwy,-73.968501,40.576312,2260.5000000000005
12:16:00,2,D42,W 8 St-NY Aquarium,-73.975939,40.576127,2378.3900017738342
12:16:00,2,D43,Coney Island-Stillwell Av,-73.981233,40.577422,2440.3900017738342
12:55:00,1,E01,World Trade Center,-74.009781,40.712582,1737.2810363769531
12:46:30,0,F01,Jamaica-179 St,-73.783817,40.712646,1692.9318187236784
12:46:30,0,F02,169 St,-73.793604,40.71047,1669.1818187236786
12:46:30,0,F03,Parsons Blvd,-73.803326,40.707564,1504.1818187236786
12:46:30,0,F04,Sutphin Blvd,-73.810708,40.70546,1414.1818187236786
12:46:30,0,F05,Briarwood,-73.820574,40.709179,1254.1818187236786
13:16:30,0,F06,Kew Gardens-Union Tpke,-73.831008,40.714441,1329.1818187236786
13:16:30,0,F07,75 Av,-73.837324,40.718331,1434.1818187236786
13:16:30,0,F09,Court Sq-23 St,-73.946,40.747846,1793.2913596630096
12:16:00,0,F11,Lexington Av/53 St,-73.969055,40.757552,1973.2913596630099
12:16:00,0,F12,5 Av/53 St,-73.975224,40.760167,2033.2913596630099
12:16:00,0,F14,2 Av,-73.989938,40.723402,1521.351853132248
12:16:00,1,F15,Delancey St-Essex St,-73.988114,40.718611,1432.0
12:16:00,1,F16,East Broadway,-73.990173,40.713715,1479.2499976158144
12:55:00,1,F18,York St,-73.986751,40.701397,1350.4891300201416
12:16:00,1,F20,Bergen St,-73.990862,40.686145,1344.587342262268
12:16:00,1,F21,Carroll St,-73.995048,40.680303,1431.8804337978363
12:16:00,1,F22,Smith-9 Sts,-73.995959,40.67358,1551.8804337978363
12:16:00,1,F23,4 Av-9 St,-73.989779,40.670272,1616.8804337978363
12:16:00,1,F24,7 Av,-73.980305,40.666271,1631.2499976158144
12:16:00,1,F25,15 St-Prospect Park,-73.979493,40.660365,1787.415136575699
12:16:00,1,F26,Fort Hamilton Pkwy,-73.975776,40.650782,1917.415136575699
12:16:00,1,F27,Church Av,-73.979678,40.644041,1869.4999976158142
13:55:00,1,F29,Ditmas Av,-73.978172,40.636119,1994.9999976158144
13:55:00,1,F30,18 Av,-73.976971,40.629755,2105.249997615814
13:55:00,1,F31,Avenue I,-73.976127,40.625322,2166.999997615814
13:55:00,1,F32,Bay Pkwy,-73.975264,40.620769,2229.999997615814
13:55:00,1,F33,Avenue N,-73.974197,40.61514,2302.499997615814
13:55:00,1,F34,Avenue P,-73.973022,40.608944,2365.749997615814
13:55:00,1,F35,Kings Hwy,-73.972361,40.603217,2442.9999976158147
13:25:00,1,F36,Avenue U,-73.973357,40.596063,2549.999997615814
13:25:00,1,F38,Avenue X,-73.97425,40.58962,2622.749997615814
13:55:00,1,F39,Neptune Av,-73.974574,40.581011,2676.1400017738342
12:06:30,0,G05,Jamaica Center-Parsons/Archer,-73.801109,40.702147,889.1818187236786
12:06:30,0,G06,Sutphin Blvd-Archer Av-JFK Airport,-73.807969,40.700486,825.1818187236786
13:16:30,0,G07,Jamaica-Van Wyck,-73.816859,40.702566,1139.1818187236786
13:16:30,0,G08,Forest Hills-71 Av,-73.844521,40.721691,1504.1818187236788
12:16:30,0,G09,67 Av,-73.852719,40.726523,1627.6211235523224
12:16:30,0,G10,63 Dr-Rego Park,-73.861604,40.729846,1711.9318187236786
12:16:30,0,G11,Woodhaven Blvd,-73.869229,40.733106,1782.6211235523226
12:16:30,0,G12,Grand Av-Newtown,-73.877223,40.737015,1861.9318187236786
12:16:30,0,G13,Elmhurst Av,-73.882017,40.742454,1937.6211235523228
13:16:30,0,G14,Jackson Hts-Roosevelt Av,-73.891338,40.746644,1852.1818187236788
12:06:30,0,G15,65 St,-73.898453,40.749669,2017.4318187236786
12:06:30,0,G16,Northern Blvd,-73.906006,40.752885,2092.4318187236786
12:06:30,0,G18,46 St,-73.913333,40.756312,2167.4318187236786
13:16:30,0,G19,Steinway St,-73.92074,40.756879,2182.066869867091
13:16:30,0,G20,36 St,-73.928781,40.752039,2062.066869867091
13:16:30,0,G21,Queens Plaza,-73.937243,40.748973,1903.2913596630096
12:06:00,1,G22,Court Sq,-73.943832,40.746554,1684.5326714515684
12:06:00,1,G24,21 St,-73.949724,40.744065,1620.5326714515684
12:06:00,1,G26,Greenpoint Av,-73.954449,40.731352,1452.5326714515684
12:06:00,1,G28,Nassau Av,-73.951277,40.724635,1377.5326714515684
12:06:00,1,G29,Metropolitan Av,-73.951418,40.712792,1255.5326714515686
12:06:00,2,G30,Broadway,-73.950308,40.706092,1358.5326714515684
12:06:00,2,G31,Flushing Av,-73.950234,40.700377,1426.5326714515684
12:06:00,1,G32,Myrtle-Willoughby Avs,-73.949046,40.694568,1486.5326714515684
12:06:00,1,G33,Bedford-Nostrand Avs,-73.953522,40.689627,1543.587342262268
12:06:00,1,G34,Classon Av,-73.96007,40.688873,1483.587342262268
12:06:00,1,G35,Clinton-Washington Avs,-73.966839,40.688089,1422.587342262268
12:06:00,1,G36,Fulton St,-73.975375,40.687119,1347.587342262268
13:05:00,1,H01,Aqueduct Racetrack,-73.834058,40.668234,1208.1941752433777
12:06:00,1,H02,Aqueduct-N Conduit Av,-73.834058,40.668234,1220.7391300201418
12:06:00,1,H03,Howard Beach-JFK Airport,-73.830301,40.660476,1335.1941752433777
12:06:00,1,H04,Broad Channel,-73.815925,40.608382,1750.7391300201418
12:06:00,1,H06,Beach 67 St,-73.796924,40.590927,2003.7391300201416
13:45:00,1,H07,Beach 60 St,-73.788522,40.592374,2083.7391300201416
13:45:00,1,H08,Beach 44 St,-73.776013,40.592943,2173.7391300201416
13:45:00,1,H09,Beach 36 St,-73.768175,40.595398,2243.7391300201416
13:45:00,1,H10,Beach 25 St,-73.761353,40.600066,2308.7391300201416
13:45:00,1,H11,Far Rockaway-Mott Av,-73.755405,40.603995,2371.7391300201416
12:06:00,1,H12,Beach 90 St,-73.813641,40.588034,1994.1941752433775
12:06:00,1,H13,Beach 98 St,-73.820558,40.585307,2059.1941752433777
12:06:00,1,H14,Beach 105 St,-73.827559,40.583209,2123.1941752433777
12:06:00,1,H15,Rockaway Park-Beach 116 St,-73.835592,40.580903,2198.1941752433777
12:06:30,0,J12,121 St,-73.828294,40.700492,806.5
12:06:30,0,J13,111 St,-73.836345,40.697418,774.1818187236786
12:06:30,0,J14,104 St,-73.84433,40.695178,626.5
12:06:30,0,J15,Woodhaven Blvd,-73.851576,40.693879,371.5
12:06:30,0,J16,85 St-Forest Pkwy,-73.86001,40.692435,285.0
12:06:30,0,J17,75 St-Elderts Ln,-73.867139,40.691324,191.5
12:06:30,0,J19,Cypress Hills,-73.87255,40.689941,165.0
12:06:30,0,J20,Crescent St,-73.873785,40.683194,92.0
12:06:30,0,J21,Norwood Av,-73.880039,40.68141,51.0
12:06:30,0,J22,Cleveland St,-73.884639,40.679947,65.0
12:46:30,0,J23,Van Siclen Av,-73.891688,40.678024,0.0
12:06:00,0,J24,Alabama Av,-73.898654,40.676992,60.0
12:06:00,0,J27,Broadway Junction,-73.904512,40.679498,150.0
12:16:00,0,J28,Chauncey St,-73.910456,40.682893,210.0
12:16:00,0,J29,Halsey St,-73.916559,40.68637,366.0
12:16:00,0,J30,Gates Av,-73.92227,40.68963,360.0
12:16:00,0,J31,Kosciuszko St,-73.928814,40.693342,496.75
12:06:00,1,L01,8 Av,-74.002578,40.739777,1480.6388883590698
12:06:00,1,L02,6 Av,-73.996786,40.737335,1420.6388883590698
12:06:00,1,L03,14 St-Union Sq,-73.99073,40.734789,1373.6388883590698
12:06:00,1,L05,3 Av,-73.986122,40.732849,1339.3183872699738
12:06:00,1,L06,1 Av,-73.981628,40.730953,1300.6388883590696
12:06:00,1,L08,Bedford Av,-73.956872,40.717304,1107.6388883590698
12:06:00,1,L10,Lorimer St,-73.950275,40.714063,1042.3183872699738
12:06:00,1,L11,Graham Av,-73.944053,40.714565,1012.3183872699736
12:06:00,1,L12,Grand St,-73.94067,40.711926,937.3183872699736
12:06:00,1,L13,Montrose Av,-73.93985,40.707739,904.3183872699736
12:06:00,1,L14,Morgan Av,-73.933147,40.706152,835.6388883590698
12:06:00,1,L15,Jefferson St,-73.922913,40.706607,738.6388883590698
12:06:00,1,L16,DeKalb Av,-73.918425,40.703811,683.6388883590698
12:06:00,1,L17,Myrtle-Wyckoff Avs,-73.911586,40.699814,633.6388883590698
12:06:00,1,L19,Halsey St,-73.904084,40.695602,576.6388883590698
12:06:00,1,L20,Wilson Av,-73.904046,40.688764,453.6388883590698
12:06:00,1,L21,Bushwick Av-Aberdeen St,-73.905249,40.682829,398.6388883590698
12:06:00,1,L22,Broadway Junction,-73.90324,40.678856,367.6388883590698
12:06:00,1,L24,Atlantic Av,-73.903097,40.675345,423.6388883590698
12:06:00,1,L25,Sutter Av,-73.901975,40.669367,496.6388883590698
12:06:00,1,L26,Livonia Av,-73.900571,40.664038,545.6388883590698
12:06:00,1,L27,New Lots Av,-73.899232,40.658733,614.3183872699738
12:06:00,1,L28,East 105 St,-73.899485,40.650573,698.3183872699739
12:06:00,1,L29,Canarsie-Rockaway Pkwy,-73.90185,40.646654,746.6388883590698
12:06:00,2,M01,Middle Village-Metropolitan Av,-73.889601,40.711396,1136.6292726993563
12:06:00,2,M04,Fresh Pond Rd,-73.895877,40.706186,1077.5951991081238
12:06:00,2,M05,Forest Av,-73.903077,40.704423,998.6292726993562
12:06:00,2,M06,Seneca Av,-73.90774,40.702762,926.6292726993561
13:25:00,0,M08,Myrtle-Wyckoff Avs,-73.912385,40.69943,860.0951991081238
12:16:00,0,M09,Knickerbocker Av,-73.919711,40.698664,819.1911745071412
13:25:00,0,M10,Central Av,-73.927397,40.697857,754.1911745071411
12:16:00,0,M11,Myrtle Av,-73.935657,40.697207,540.0
12:55:00,0,M12,Flushing Av,-73.941126,40.70026,658.75
12:55:00,0,M13,Lorimer St,-73.947408,40.703869,733.75
12:55:00,0,M14,Hewes St,-73.953431,40.70687,801.7499999999999
12:16:00,0,M16,Marcy Av,-73.957757,40.708359,799.9999999999999
12:16:00,0,M18,Delancey St-Essex St,-73.987437,40.718315,1207.0
12:16:00,0,M19,Bowery,-73.993915,40.72028,1272.0
12:16:00,0,M20,Canal St,-73.999892,40.718092,1349.75
12:16:00,0,M21,Chambers St,-74.003401,40.713243,1450.5
12:16:00,0,M22,Fulton St,-74.007582,40.710374,1515.5
12:16:00,0,M23,Broad St,-74.011056,40.706476,1580.5
12:16:00,1,N02,8 Av,-74.011719,40.635064,2400.944444179535
12:16:00,1,N03,Fort Hamilton Pkwy,-74.005351,40.631386,2485.9444441795354
12:16:00,1,N04,New Utrecht Av,-73.996353,40.624842,2598.6944441795354
12:16:00,1,N05,18 Av,-73.990414,40.620671,2671.9444441795354
12:16:00,1,N06,20 Av,-73.985026,40.61741,2736.9444441795354
12:16:00,1,N07,Bay Pkwy,-73.981848,40.611815,2806.9444441795354
12:16:00,1,N08,Kings Hwy,-73.980353,40.603923,2817.3900017738342
12:16:00,1,N09,Avenue U,-73.979137,40.597473,2745.3900017738342
12:16:00,2,N10,86 St,-73.97823,40.592721,2680.3900017738342
12:06:00,1,Q01,Canal St,-74.00046,40.718383,1587.249998807907
12:06:00,0,Q03,72 St,-73.958424,40.768799,2255.279427051544
12:06:00,0,Q04,86 St,-73.951787,40.777891,2374.279427051544
12:06:00,0,Q05,96 St,-73.947152,40.784318,2443.279427051544
13:16:30,0,R01,Astoria-Ditmars Blvd,-73.912034,40.775036,2412.2913613319397
13:16:30,0,R03,Astoria Blvd,-73.917843,40.770258,2337.2913613319397
13:16:30,0,R04,30 Av,-73.921479,40.766779,2265.2913613319397
13:16:30,0,R05,Broadway,-73.925508,40.76182,2200.2913613319392
13:16:30,0,R06,36 Av,-73.929575,40.756804,2130.2913613319397
13:16:30,0,R08,39 Av-Dutch Kills,-73.932755,40.752882,2052.2913613319397
13:16:30,0,R09,Queensboro Plaza,-73.940202,40.750582,1932.2913613319397
13:16:30,0,R11,Lexington Av/59 St,-73.967258,40.76266,2134.2913613319397
12:06:00,1,R13,5 Av/59 St,-73.973347,40.764811,2128.63888835907
12:06:00,1,R14,57 St-7 Av,-73.980658,40.764664,1955.279427051544
12:06:00,1,R15,49 St,-73.984139,40.759901,1923.6388883590696
12:06:00,1,R16,Times Sq-42 St,-73.986754,40.754672,1817.2794270515442
12:06:00,2,R17,34 St-Herald Sq,-73.98795,40.749567,1742.2794270515442
12:06:00,2,R18,28 St,-73.988691,40.745494,1735.8888883590698
12:06:00,2,R19,23 St,-73.989344,40.741303,1672.2794270515442
12:06:00,1,R20,14 St-Union Sq,-73.990568,40.735736,1598.6388883590698
12:16:00,1,R21,8 St-NYU,-73.992629,40.730328,1697.2794270515442
12:16:00,1,R22,Prince St,-73.997702,40.724329,1766.6388883590698
12:16:00,1,R23,Canal St,-74.001775,40.719527,1707.249998807907
12:36:00,2,R24,City Hall,-74.006978,40.713282,1813.2391300201418
12:06:00,2,R25,Cortlandt St,-74.011029,40.710668,1705.2391300201418
12:36:00,2,R26,Rector St,-74.013342,40.70722,1635.2391300201416
12:36:00,2,R27,Whitehall St-South Ferry,-74.012994,40.703087,1568.4891300201416
12:36:00,2,R28,Court St,-73.991777,40.6941,1333.4891300201416
12:06:00,2,R29,Jay St-MetroTech,-73.985942,40.69218,1260.4891300201416
12:55:00,2,R30,DeKalb Av,-73.981824,40.690635,1346.2499976158144
12:06:00,2,R31,Atlantic Av-Barclays Ctr,-73.97881,40.683666,1500.7391300201416
12:06:00,2,R32,Union St,-73.98311,40.677316,1604.9999976158144
12:06:00,2,R33,4 Av-9 St,-73.988302,40.670847,1682.7499976158144
12:06:00,2,R34,Prospect Av,-73.992872,40.665414,1772.7499976158144
12:06:00,2,R35,25 St,-73.998091,40.660397,1842.7391300201416
12:06:00,2,R36,36 St,-74.003549,40.655144,1933.7391300201418
12:06:00,2,R39,45 St,-74.010006,40.648939,2096.2499976158138
12:06:00,2,R40,53 St,-74.014034,40.645069,2163.2499976158138
12:06:00,2,R41,59 St,-74.017881,40.641362,2237.739130020142
12:06:00,2,R42,Bay Ridge Av,-74.023377,40.634967,2368.249997615814
12:06:00,2,R43,77 St,-74.02551,40.629742,2443.249997615814
12:06:00,2,R44,86 St,-74.028398,40.622687,2518.249997615814
12:16:00,2,R45,Bay Ridge-95 St,-74.030876,40.616622,2587.249997615814
12:16:00,2,S01,Franklin Av,-73.955827,40.680596,882.7500000000001
12:16:00,2,S03,Park Pl,-73.957624,40.674772,1001.7500000000002
12:16:00,2,S04,Botanic Garden,-73.959245,40.670343,1067.75
