start_time,ntransfers,stop_id,stop_name,stop_lon,stop_lat,duration
12:29:00,1,101,Van Cortlandt Park-242 St,-73.898583,40.889248,3452.489131212235
12:29:00,1,103,238 St,-73.90087,40.884667,3387.282720565796
12:29:00,1,104,231 St,-73.904834,40.878856,3301.2827205657964
12:29:00,1,106,Marble Hill-225 St,-73.909831,40.874561,3221.282720565796
12:29:00,1,107,215 St,-73.915279,40.869444,3131.282720565796
12:29:00,1,108,207 St,-73.918822,40.864621,3059.282720565796
12:29:00,1,109,Dyckman St,-73.925536,40.860531,2991.4891312122345
12:29:00,1,110,191 St,-73.929412,40.855225,2916.4891312122345
12:29:00,1,111,181 St,-73.933596,40.849505,2829.4891312122345
12:29:00,1,112,168 St-Washington Hts,-73.940133,40.840556,2717.4891312122345
12:29:00,1,113,157 St,-73.94489,40.834041,2810.489131212234
12:29:00,1,114,145 St,-73.95036,40.826551,2724.397907257081
12:29:00,1,115,137 St-City College,-73.953676,40.822008,2635.397907257081
12:29:00,1,116,125 St,-73.958372,40.815581,2540.397907257081
12:29:00,1,117,116 St-Columbia University,-73.96411,40.807722,2438.3979072570805
12:29:00,1,118,Cathedral Pkwy (110 St),-73.966847,40.803967,2364.3979072570805
12:29:00,1,119,103 St,-73.968379,40.799446,2290.3979072570805
12:09:00,1,120,96 St,-73.972323,40.793919,2057.0
12:09:00,1,121,86 St,-73.976218,40.788644,2102.3979072570805
12:09:00,1,122,79 St,-73.979917,40.783934,2037.3979072570805
12:09:00,1,123,72 St,-73.98197,40.778453,1890.0
12:49:00,1,124,66 St-Lincoln Center,-73.982209,40.77344,1943.0
12:49:00,1,125,59 St-Columbus Circle,-73.981929,40.768247,1866.0
12:49:00,1,126,50 St,-73.983849,40.761728,1770.0
12:09:00,1,127,Times Sq-42 St,-73.987495,40.75529,1667.0
12:09:00,1,128,34 St-Penn Station,-73.991057,40.750373,1598.0000000000002
12:24:00,1,129,28 St,-73.993365,40.747215,1639.0000000000002
12:24:00,1,130,23 St,-73.995657,40.744081,1574.0000000000002
12:24:00,1,131,18 St,-73.997871,40.74104,1511.0000000000002
12:24:00,1,132,14 St,-74.000201,40.737826,1441.0000000000002
12:09:00,1,133,Christopher St-Sheridan Sq,-74.002906,40.733422,1522.0000000000002
12:09:00,1,134,Houston St,-74.005367,40.728251,1598.0000000000002
12:09:00,1,135,Canal St,-74.006277,40.722854,1677.0000000000002
12:09:00,1,136,Franklin St,-74.006886,40.719318,1739.0000000000002
12:54:00,2,137,Chambers St,-74.009266,40.715478,1673.0000000000002
12:24:00,1,138,WTC Cortlandt,-74.012188,40.711835,1844.0000000000002
12:24:00,1,139,Rector St,-74.013783,40.707513,1835.3531725406647
12:24:00,1,142,South Ferry,-74.013664,40.702068,1751.353172540665
13:44:00,1,201,Wakefield-241 St,-73.85062,40.903125,4268.21103978157
13:44:00,1,204,Nereid Av,-73.854376,40.898379,4146.211039781571
13:44:00,1,205,233 St,-73.857473,40.893193,4081.2110397815704
13:44:00,1,206,225 St,-73.860341,40.888022,3987.71103978157
13:44:00,1,207,219 St,-73.862633,40.883895,3907.7110397815704
13:44:00,1,208,Gun Hill Rd,-73.866256,40.87785,3803.46103978157
13:44:00,1,209,Burke Av,-73.867164,40.871356,3740.2110397815704
13:44:00,1,210,Allerton Av,-73.867352,40.865462,3654.211039781571
13:44:00,1,211,Pelham Pkwy,-73.867615,40.857192,3552.2110397815704
13:44:00,1,212,Bronx Park East,-73.868457,40.848828,3436.211039781571
13:44:00,1,213,E 180 St,-73.873488,40.841894,3281.2110397815704
12:24:00,1,214,West Farms Sq-E Tremont Av,-73.880049,40.840295,3283.211039781571
12:24:00,1,215,174 St,-73.887734,40.837288,3174.211039781571
12:24:00,1,216,Freeman St,-73.891865,40.829993,3074.211039781571
12:24:00,1,217,Simpson St,-73.893064,40.824073,2955.211039781571
13:44:00,1,218,Intervale Av,-73.896736,40.822181,2882.211039781571
13:44:00,1,219,Prospect Av,-73.90177,40.819585,2806.211039781571
12:24:00,1,220,Jackson Av,-73.907807,40.81649,2715.211039781571
13:44:00,1,221,3 Av-149 St,-73.917757,40.816109,2590.211039781571
12:24:00,1,222,149 St-Grand Concourse,-73.926718,40.81841,2488.2110397815704
12:09:00,1,224,135 St,-73.94077,40.814229,2555.25
12:09:00,1,225,125 St,-73.945495,40.807754,2456.25
12:09:00,1,226,116 St,-73.949625,40.802098,2362.25
12:09:00,1,227,Central Park North (110 St),-73.951822,40.799075,2293.25
12:54:00,2,228,Park Place,-74.008811,40.713051,1743.8929870128634
12:14:00,2,229,Fulton St,-74.006571,40.709416,1642.8929870128634
13:24:00,2,230,Wall St,-74.0091,40.706821,1710.8929870128634
12:34:00,1,231,Clark St,-73.993086,40.697466,1525.9878032207487
12:34:00,1,232,Borough Hall,-73.989998,40.693219,1442.1219499111173
12:34:00,1,233,Hoyt St,-73.985065,40.690545,1359.9878032207487
12:34:00,1,234,Nevins St,-73.980492,40.688246,1227.9999988079069
12:34:00,1,235,Atlantic Av-Barclays Ctr,-73.977666,40.684359,1140.9999988079069
12:34:00,1,236,Bergen St,-73.975098,40.680829,1180.4634132385256
12:34:00,1,237,Grand Army Plaza,-73.971046,40.675235,1086.4634132385256
12:34:00,1,238,Eastern Pkwy-Brooklyn Museum,-73.964375,40.671987,994.4634132385254
12:34:00,1,239,Franklin Av-Medgar Evers College,-73.958131,40.670682,881.999998807907
12:34:00,1,241,President St-Medgar Evers College,-73.950683,40.667883,1014.999998807907
12:34:00,1,242,Sterling St,-73.95085,40.662742,1098.9999988079069
12:34:00,1,243,Winthrop St,-73.9502,40.656652,1181.9999988079069
12:34:00,1,244,Church Av,-73.949575,40.650843,1243.999998807907
12:34:00,1,245,Beverly Rd,-73.948959,40.645098,1304.9999988079069
12:34:00,1,246,Newkirk Av-Little Haiti,-73.948411,40.639967,1385.999998807907
12:34:00,1,247,Flatbush Av-Brooklyn College,-73.947642,40.632836,1477.999998807907
12:34:00,1,248,Nostrand Av,-73.950466,40.669847,790.4634132385253
12:34:00,1,249,Kingston Av,-73.942161,40.669399,701.4634132385254
12:34:00,1,250,Crown Hts-Utica Av,-73.932942,40.668897,638.4634132385253
12:34:00,1,251,Sutter Av-Rutland Rd,-73.92261,40.664717,591.4634132385253
12:34:00,1,252,Saratoga Av,-73.916327,40.661453,491.46341323852533
12:34:00,1,253,Rockaway Av,-73.908946,40.662549,408.4634132385254
12:14:00,1,254,Junius St,-73.902447,40.663515,330.0
12:14:00,1,255,Pennsylvania Av,-73.894895,40.664635,424.0
12:14:00,1,256,Van Siclen Av,-73.889395,40.665449,496.4634132385254
12:14:00,1,257,New Lots Av,-73.884079,40.666235,553.0
12:09:00,1,301,Harlem-148 St,-73.93647,40.82388,2735.0
12:09:00,1,302,145 St,-73.936245,40.820421,2663.0
12:04:00,1,401,Woodlawn,-73.878751,40.886037,3597.9610397815704
12:04:00,1,402,Mosholu Pkwy,-73.884655,40.87975,3503.96103978157
12:04:00,1,405,Bedford Park Blvd-Lehman College,-73.890064,40.873412,3403.9610397815704
12:04:00,1,406,Kingsbridge Rd,-73.897174,40.86776,3296.9610397815704
12:04:00,1,407,Fordham Rd,-73.901034,40.862803,3205.9610397815704
12:04:00,1,408,183 St,-73.903879,40.858407,3126.9610397815704
12:04:00,1,409,Burnside Av,-73.907684,40.853453,3035.9610397815704
12:04:00,1,410,176 St,-73.911794,40.84848,2974.9610397815704
12:04:00,1,411,Mt Eden Av,-73.914685,40.844434,2901.9610397815704
12:04:00,1,412,170 St,-73.917791,40.840075,2825.9610397815704
12:04:00,1,413,167 St,-73.9214,40.835537,2741.9610397815704
12:04:00,1,414,161 St-Yankee Stadium,-73.925831,40.827994,2632.9610397815704
12:04:00,1,415,149 St-Grand Concourse,-73.927351,40.818375,2502.9610397815704
12:24:00,1,416,138 St-Grand Concourse,-73.929849,40.813224,2371.2110397815704
12:14:00,2,418,Fulton St,-74.009509,40.710368,1648.5665206909182
12:14:00,2,419,Wall St,-74.011862,40.707557,1663.9999988079069
12:14:00,2,420,Bowling Green,-74.014065,40.704817,1594.9999988079069
12:34:00,1,423,Borough Hall,-73.990151,40.692404,1355.9999988079069
13:44:00,1,501,Eastchester-Dyre Av,-73.830834,40.8883,3910.211039781571
13:44:00,1,502,Baychester Av,-73.838591,40.878663,3816.2110397815704
13:44:00,1,503,Gun Hill Rd,-73.846384,40.869526,3695.2110397815704
13:44:00,1,504,Pelham Pkwy,-73.855359,40.858985,3565.211039781571
13:44:00,1,505,Morris Park,-73.860495,40.854364,3482.211039781571
12:09:00,1,601,Pelham Bay Park,-73.828121,40.852462,3735.1038982868195
12:09:00,1,602,Buhre Av,-73.832569,40.84681,3624.103898286819
12:09:00,1,603,Middletown Rd,-73.836322,40.843863,3555.1038982868195
13:24:00,1,604,Westchester Sq-E Tremont Av,-73.842952,40.839892,3463.1038982868195
12:09:00,1,606,Zerega Av,-73.847036,40.836488,3388.3538982868195
13:24:00,1,607,Castle Hill Av,-73.851222,40.834255,3324.3538982868195
12:44:00,1,608,Parkchester,-73.860816,40.833226,3203.3538982868195
12:44:00,1,609,St Lawrence Av,-73.867618,40.831509,3438.948210477829
12:44:00,1,610,Morrison Av-Soundview,-73.874516,40.829521,3359.9482104778285
12:44:00,1,611,Elder Av,-73.879159,40.828584,3296.948210477829
12:44:00,1,612,Whitlock Av,-73.886283,40.826525,3203.572148561477
12:44:00,1,613,Hunts Point Av,-73.890549,40.820948,2996.1038982868195
12:04:00,1,614,Longwood Av,-73.896435,40.816104,3080.4494135379787
12:04:00,1,615,E 149 St,-73.904098,40.812118,2987.449413537979
12:04:00,1,616,E 143 St-St Mary's St,-73.907657,40.808719,2917.449413537979
12:04:00,1,617,Cypress Av,-73.914042,40.805368,2807.449413537979
12:04:00,1,618,Brook Av,-73.91924,40.807566,2738.449413537979
12:04:00,1,619,3 Av-138 St,-73.926138,40.810476,2642.449413537979
12:24:00,1,621,125 St,-73.937594,40.804138,2240.9610397815704
12:24:00,1,622,116 St,-73.941617,40.798629,2534.1460123062134
12:04:00,1,623,110 St,-73.94425,40.79502,2460.1460123062134
12:04:00,1,624,103 St,-73.947478,40.7906,2387.1460123062134
12:04:00,1,625,96 St,-73.95107,40.785672,2303.1460123062134
12:24:00,1,626,86 St,-73.955589,40.779492,1975.9610397815704
12:04:00,1,627,77 St,-73.959874,40.77362,2135.2110397815704
12:04:00,1,628,68 St-Hunter College,-73.96387,40.768141,2047.2110397815704
12:24:00,1,629,59 St,-73.967967,40.762526,1788.9610397815704
12:04:00,1,630,51 St,-73.97192,40.757107,1860.2110397815704
12:24:00,1,631,Grand Central-42 St,-73.976848,40.751776,1631.2110397815704
12:14:00,1,632,33 St,-73.982076,40.746081,1633.3809540271761
12:14:00,1,633,28 St,-73.984264,40.74307,1570.3809540271761
12:14:00,1,634,23 St,-73.986599,40.739864,1503.3809540271761
12:09:00,1,635,14 St-Union Sq,-73.989951,40.734673,1407.4571433067322
12:09:00,1,636,Astor Pl,-73.99107,40.730054,1481.0
12:09:00,1,637,Bleecker St,-73.994659,40.725915,1568.0
12:09:00,1,638,Spring St,-73.997141,40.722301,1633.0
12:09:00,1,639,Canal St,-74.000193,40.718803,1704.0
13:24:00,2,640,Brooklyn Bridge-City Hall,-74.004131,40.713065,1650.9610397815704
12:04:00,2,701,Flushing-Main St,-73.83003,40.7596,2642.2708458900447
12:04:00,2,702,Mets-Willets Point,-73.845625,40.754622,2499.2708458900447
12:04:00,2,705,111 St,-73.855334,40.75173,2557.759219646454
12:04:00,2,706,103 St-Corona Plaza,-73.8627,40.749865,2470.9729723930354
12:04:00,2,707,Junction Blvd,-73.869527,40.749145,2308.2708458900447
12:04:00,2,708,90 St-Elmhurst Av,-73.876613,40.748408,2333.972972393036
12:04:00,2,709,82 St-Jackson Hts,-73.883697,40.747659,2269.9729723930354
12:04:00,2,710,74 St-Broadway,-73.891394,40.746848,2122.9729723930354
12:04:00,2,711,69 St,-73.896403,40.746325,2082.9729723930354
12:04:00,2,712,61 St-Woodside,-73.902984,40.74563,2016.9729723930354
12:04:00,2,713,52 St,-73.912549,40.744149,1933.9729723930354
12:04:00,2,714,46 St-Bliss St,-73.918435,40.743132,1883.9729723930354
12:04:00,2,715,40 St-Lowery St,-73.924016,40.743781,1830.9729723930354
12:04:00,2,716,33 St-Rawson St,-73.930997,40.744587,1769.9729723930357
12:04:00,2,718,Queensboro Plaza,-73.940202,40.750582,1670.9729723930357
12:04:00,2,719,Court Sq,-73.945264,40.747023,1595.9729723930357
12:04:00,2,720,Hunters Point Av,-73.948916,40.742216,1680.9729723930357
12:24:00,2,721,Vernon Blvd-Jackson Av,-73.953581,40.742626,1698.722972393036
12:04:00,2,723,Grand Central-42 St,-73.976041,40.751431,1751.2110397815704
12:04:00,2,724,5 Av,-73.981963,40.753821,1722.0000000000002
12:04:00,2,725,Times Sq-42 St,-73.987691,40.755477,1667.0
12:04:00,2,726,34 St-Hudson Yards,-74.00191,40.755882,1797.0000000000002
12:04:00,2,901,Grand Central-42 St,-73.979189,40.752769,1688.0000000000002
12:04:00,2,902,Times Sq-42 St,-73.986229,40.755983,1607.0
13:14:00,1,A02,Inwood-207 St,-73.919899,40.868072,2977.9999999999995
12:29:00,1,A03,Dyckman St,-73.927271,40.865491,2907.9999999999995
12:29:00,1,A05,190 St,-73.93418,40.859022,2787.9999999999995
12:29:00,1,A06,181 St,-73.937969,40.851695,2681.0
12:29:00,1,A07,175 St,-73.939704,40.847391,2612.0
12:09:00,1,A09,168 St,-73.939561,40.840719,2492.0
13:14:00,1,A10,163 St-Amsterdam Av,-73.939892,40.836013,2540.157896280289
13:14:00,1,A11,155 St,-73.941514,40.830518,2475.157896280289
12:09:00,1,A12,145 St,-73.944216,40.824783,2287.0
13:14:00,1,A14,135 St,-73.947649,40.817894,2214.0000000000005
12:09:00,1,A15,125 St,-73.952343,40.811109,2104.0
12:09:00,1,A16,116 St,-73.954882,40.805085,2217.1578962802887
12:09:00,1,A17,Cathedral Pkwy (110 St),-73.958161,40.800603,2215.000000000001
12:09:00,1,A18,103 St,-73.961454,40.796092,2150.0000000000005
12:09:00,1,A19,96 St,-73.964696,40.791642,2085.0000000000005
12:09:00,1,A20,86 St,-73.968916,40.785868,2007.0000000000007
12:09:00,1,A21,81 St-Museum of Natural History,-73.972143,40.781433,1932.0000000000007
12:09:00,1,A22,72 St,-73.97641,40.775594,1864.0000000000005
12:09:00,1,A24,59 St-Columbus Circle,-73.981736,40.768296,1682.0
12:09:00,1,A25,50 St,-73.985984,40.762456,1659.0000000000005
12:09:00,1,A27,42 St-Port Authority Bus Terminal,-73.989735,40.757308,1547.0
12:09:00,1,A28,34 St-Penn Station,-73.993391,40.752287,1474.0000000000002
12:09:00,1,A30,23 St,-73.998041,40.745906,1417.0000000000002
13:24:00,1,A31,14 St,-74.00169,40.740893,1351.0000000000002
12:54:00,1,A32,W 4 St-Wash Sq,-74.000495,40.732338,1464.0000000000002
12:54:00,1,A33,Spring St,-74.003739,40.726227,1541.0000000000002
12:54:00,1,A34,Canal St,-74.005229,40.720824,1591.0000000000002
12:54:00,1,A36,Chambers St,-74.008585,40.714111,1517.88888835907
12:54:00,1,A38,Fulton St,-74.007691,40.710197,1425.63888835907
12:54:00,1,A40,High St,-73.990531,40.699337,1246.63888835907
12:54:00,1,A41,Jay St-MetroTech,-73.987342,40.692338,1126.63888835907
12:54:00,1,A42,Hoyt-Schermerhorn Sts,-73.985001,40.688484,1019.6388883590698
12:54:00,1,A43,Lafayette Av,-73.973946,40.686113,1000.3888883590698
12:54:00,1,A44,Clinton-Washington Avs,-73.965838,40.683263,935.3888883590699
12:54:00,1,A45,Franklin Av,-73.956848,40.68138,858.3888883590699
12:54:00,1,A46,Nostrand Av,-73.950426,40.680438,724.6388883590698
12:54:00,1,A47,Kingston-Throop Avs,-73.940858,40.679921,713.3888883590699
12:54:00,1,A48,Utica Av,-73.930729,40.679364,590.6388883590698
12:14:00,1,A49,Ralph Av,-73.920786,40.678822,536.6388883590698
12:14:00,1,A50,Rockaway Av,-73.911946,40.67834,461.6388883590698
12:39:00,1,A51,Broadway Junction,-73.905316,40.678334,395.6388883590698
12:04:00,1,A52,Liberty Av,-73.896548,40.674542,515.6388883590698
12:04:00,1,A53,Van Siclen Av,-73.890358,40.67271,590.6388883590698
13:49:00,1,A54,Shepherd Av,-73.88075,40.67413,668.6388883590698
13:44:00,1,A55,Euclid Av,-73.872106,40.675377,672.6388883590697
13:44:00,1,A57,Grant Av,-73.86505,40.677044,785.6388883590697
13:44:00,1,A59,80 St,-73.858992,40.679371,855.6388883590697
13:44:00,1,A60,88 St,-73.85147,40.679843,928.6388883590697
13:44:00,1,A61,Rockaway Blvd,-73.843853,40.680429,993.6388883590696
12:54:00,1,A63,104 St,-73.837683,40.681711,1058.6388883590696
13:14:00,1,A64,111 St,-73.832163,40.684331,1120.6388883590696
13:14:00,1,A65,Ozone Park-Lefferts Blvd,-73.825798,40.685951,1190.6388883590698
12:04:00,1,B04,21 St-Queensbridge,-73.942836,40.754203,2258.3321971396
12:04:00,1,B06,Roosevelt Island,-73.95326,40.759145,2086.3321971396
12:19:00,1,B08,Lexington Av/63 St,-73.966113,40.764629,1937.9610397815704
12:09:00,1,B10,57 St,-73.97745,40.763972,1853.3321971395999
12:25:30,2,B12,9 Av,-73.994324,40.646292,2069.2616813182826
12:25:30,2,B13,Fort Hamilton Pkwy,-73.994304,40.640914,2150.1000020504
12:25:30,2,B14,50 St,-73.994791,40.63626,2212.1000020503993
12:25:30,2,B15,55 St,-73.995476,40.631435,2287.1000020503993
12:25:30,2,B16,62 St,-73.996895,40.626472,2342.1000020503993
12:25:30,2,B17,71 St,-73.998864,40.619589,2422.1000020503993
12:25:30,2,B18,79 St,-74.00061,40.613501,2502.1000020504
12:25:30,2,B19,18 Av,-74.001736,40.607954,2565.1000020503993
12:25:30,2,B20,20 Av,-73.998168,40.604556,2629.1000020504
12:25:30,2,B21,Bay Pkwy,-73.993728,40.601875,2689.1000020504
12:25:30,2,B22,25 Av,-73.986829,40.597704,2801.2788901329036
12:25:30,2,B23,Bay 50 St,-73.983765,40.588841,2664.2788901329036
12:09:00,1,D01,Norwood-205 St,-73.878855,40.874811,3352.3157925605774
12:09:00,1,D03,Bedford Park Blvd,-73.887138,40.873244,3237.3157925605774
12:09:00,1,D04,Kingsbridge Rd,-73.893509,40.866978,3137.315792560578
12:09:00,1,D05,Fordham Rd,-73.897749,40.861296,3057.3157925605774
12:09:00,1,D06,182-183 Sts,-73.900741,40.856093,2987.315792560578
13:39:00,1,D07,Tremont Av,-73.905227,40.85041,2923.3157925605774
13:39:00,1,D08,174-175 Sts,-73.910136,40.8459,2886.1632661819463
13:39:00,1,D09,170 St,-73.9134,40.839306,2811.315792560578
13:39:00,1,D10,167 St,-73.91844,40.833771,2706.1632661819463
13:39:00,1,D11,161 St-Yankee Stadium,-73.925651,40.827905,2581.1632661819463
13:39:00,1,D12,155 St,-73.938209,40.830135,2461.1632661819463
12:09:00,1,D13,145 St,-73.944216,40.824783,2346.1632661819463
12:44:00,1,D14,7 Av,-73.981637,40.762862,1791.75
12:09:00,1,D15,47-50 Sts-Rockefeller Ctr,-73.981329,40.758663,1761.1818187236788
12:09:00,1,D16,42 St-Bryant Pk,-73.984569,40.754222,1691.1818187236788
12:09:00,1,D17,34 St-Herald Sq,-73.987823,40.749719,1629.1818187236786
12:09:00,1,D18,23 St,-73.992821,40.742878,1519.1818187236788
12:54:00,1,D19,14 St,-73.996209,40.738228,1456.0000000000002
12:54:00,1,D20,W 4 St-Wash Sq,-74.000495,40.732338,1526.0000000000002
12:54:00,1,D21,Broadway-Lafayette St,-73.996204,40.725297,1616.0674595832825
12:14:00,1,D22,Grand St,-73.993753,40.718267,1901.685715675354
12:09:30,2,D24,Atlantic Av-Barclays Ctr,-73.97689,40.68446,1368.261902093887
12:09:30,2,D25,7 Av,-73.972367,40.67705,1461.3888883590696
12:09:30,2,D26,Prospect Park,-73.962246,40.661614,1170.999998807907
12:25:30,2,D27,Parkside Av,-73.961495,40.655292,1485.5238077640533
12:09:30,2,D28,Church Av,-73.962982,40.650527,1406.3888883590698
12:25:30,2,D29,Beverley Rd,-73.964492,40.644031,1505.0793659687042
12:25:30,2,D30,Cortelyou Rd,-73.963891,40.640927,1565.0793659687042
12:09:30,2,D31,Newkirk Plaza,-73.962793,40.635082,1551.3888883590698
12:25:30,2,D32,Avenue H,-73.961639,40.62927,1652.7088892459872
12:25:30,2,D33,Avenue J,-73.960803,40.625039,1722.7088892459872
12:25:30,2,D34,Avenue M,-73.959399,40.617618,1812.7088892459872
12:09:30,2,D35,Kings Hwy,-73.957734,40.60867,1777.6388883590698
12:09:30,2,D37,Avenue U,-73.955929,40.5993,1967.6492004394531
12:09:30,2,D38,Neck Rd,-73.955161,40.595246,2034.6492004394531
12:09:30,2,D39,Sheepshead Bay,-73.954155,40.586896,1982.6388883590696
12:09:30,2,D40,Brighton Beach,-73.961376,40.577621,2066.13888835907
12:09:30,2,D41,Ocean Pkwy,-73.968501,40.576312,2296.13888835907
12:09:30,2,D42,W 8 St-NY Aquarium,-73.975939,40.576127,2414.0288901329036
12:09:30,2,D43,Coney Island-Stillwell Av,-73.981233,40.577422,2476.0288901329036
12:54:00,1,E01,World Trade Center,-74.009781,40.712582,1714.7919063568118
12:34:00,1,F01,Jamaica-179 St,-73.783817,40.712646,2333.570707082749
12:34:00,1,F02,169 St,-73.793604,40.71047,2309.8207070827484
12:34:00,1,F03,Parsons Blvd,-73.803326,40.707564,2144.8207070827484
12:34:00,1,F04,Sutphin Blvd,-73.810708,40.70546,2054.8207070827484
12:34:00,1,F05,Briarwood,-73.820574,40.709179,1894.8207070827489
13:04:00,1,F06,Kew Gardens-Union Tpke,-73.831008,40.714441,1969.8207070827489
13:04:00,1,F07,75 Av,-73.837324,40.718331,2074.820707082749
12:04:00,2,F09,Court Sq-23 St,-73.946,40.747846,1595.9729723930357
12:14:00,2,F11,Lexington Av/53 St,-73.969055,40.757552,1775.9729723930357
12:24:00,2,F12,5 Av/53 St,-73.975224,40.760167,1835.9729723930357
12:54:00,1,F14,2 Av,-73.989938,40.723402,1639.8065915107732
12:54:00,1,F15,Delancey St-Essex St,-73.988114,40.718611,1562.806591510773
12:54:00,1,F16,East Broadway,-73.990173,40.713715,1497.806591510773
12:54:00,1,F18,York St,-73.986751,40.701397,1351.63888835907
12:54:00,1,F20,Bergen St,-73.990862,40.686145,1338.7371006011963
12:54:00,1,F21,Carroll St,-73.995048,40.680303,1456.7371006011963
12:54:00,1,F22,Smith-9 Sts,-73.995959,40.67358,1572.7371006011963
12:54:00,1,F23,4 Av-9 St,-73.989779,40.670272,1642.7371006011963
12:54:00,1,F24,7 Av,-73.980305,40.666271,1659.2499976158144
12:54:00,1,F25,15 St-Prospect Park,-73.979493,40.660365,1815.415136575699
12:54:00,1,F26,Fort Hamilton Pkwy,-73.975776,40.650782,1945.4151365756993
12:54:00,1,F27,Church Av,-73.979678,40.644041,1897.4999976158144
13:54:00,1,F29,Ditmas Av,-73.978172,40.636119,2022.9999976158144
13:54:00,1,F30,18 Av,-73.976971,40.629755,2133.249997615814
13:54:00,1,F31,Avenue I,-73.976127,40.625322,2194.9999976158147
13:54:00,1,F32,Bay Pkwy,-73.975264,40.620769,2257.999997615814
13:54:00,1,F33,Avenue N,-73.974197,40.61514,2330.4999976158147
13:54:00,1,F34,Avenue P,-73.973022,40.608944,2393.7499976158147
13:54:00,1,F35,Kings Hwy,-73.972361,40.603217,2470.9999976158147
13:24:00,1,F36,Avenue U,-73.973357,40.596063,2577.9999976158147
12:09:30,2,F38,Avenue X,-73.97425,40.58962,2650.749997615814
12:09:30,2,F39,Neptune Av,-73.974574,40.581011,2711.7788901329036
13:34:00,1,G05,Jamaica Center-Parsons/Archer,-73.801109,40.702147,1529.8207070827486
13:34:00,1,G06,Sutphin Blvd-Archer Av-JFK Airport,-73.807969,40.700486,1465.8207070827486
13:04:00,1,G07,Jamaica-Van Wyck,-73.816859,40.702566,1779.8207070827486
13:04:00,1,G08,Forest Hills-71 Av,-73.844521,40.721691,2144.8207070827484
12:04:00,1,G09,67 Av,-73.852719,40.726523,2268.2600119113927
12:04:00,1,G10,63 Dr-Rego Park,-73.861604,40.729846,2352.570707082749
12:04:00,1,G11,Woodhaven Blvd,-73.869229,40.733106,2324.4729723930354
12:04:00,1,G12,Grand Av-Newtown,-73.877223,40.737015,2224.4729723930354
12:04:00,1,G13,Elmhurst Av,-73.882017,40.742454,2150.9729723930354
12:14:00,2,G14,Jackson Hts-Roosevelt Av,-73.891338,40.746644,2025.9729723930357
12:04:00,1,G15,65 St,-73.898453,40.749669,2135.9729723930354
12:04:00,2,G16,Northern Blvd,-73.906006,40.752885,2191.6556990919626
12:14:00,2,G18,46 St,-73.913333,40.756312,2101.6556990919626
12:14:00,2,G19,Steinway St,-73.92074,40.756879,1984.7484825971173
12:14:00,2,G20,36 St,-73.928781,40.752039,1864.7484825971173
12:14:00,2,G21,Queens Plaza,-73.937243,40.748973,1705.9729723930357
12:14:00,1,G22,Court Sq,-73.943832,40.746554,1487.2142841815948
12:14:00,1,G24,21 St,-73.949724,40.744065,1423.2142841815948
12:14:00,1,G26,Greenpoint Av,-73.954449,40.731352,1255.2142841815948
12:14:00,1,G28,Nassau Av,-73.951277,40.724635,1180.2142841815948
12:09:00,1,G29,Metropolitan Av,-73.951418,40.712792,1058.2142841815948
12:09:00,1,G30,Broadway,-73.950308,40.706092,1161.2142841815946
12:09:00,1,G31,Flushing Av,-73.950234,40.700377,1229.2142841815946
13:19:00,1,G32,Myrtle-Willoughby Avs,-73.949046,40.694568,1289.2142841815946
13:19:00,1,G33,Bedford-Nostrand Avs,-73.953522,40.689627,1397.472972393036
13:19:00,1,G34,Classon Av,-73.96007,40.688873,1459.2142841815946
13:19:00,1,G35,Clinton-Washington Avs,-73.966839,40.688089,1416.7371006011963
13:19:00,1,G36,Fulton St,-73.975375,40.687119,1341.7371006011963
13:04:00,1,H01,Aqueduct Racetrack,-73.834058,40.668234,1173.6388883590696
13:44:00,1,H02,Aqueduct-N Conduit Av,-73.834058,40.668234,1233.6388883590696
13:44:00,1,H03,Howard Beach-JFK Airport,-73.830301,40.660476,1300.6388883590696
13:44:00,1,H04,Broad Channel,-73.815925,40.608382,1719.6388883590698
13:44:00,1,H06,Beach 67 St,-73.796924,40.590927,1996.6388883590698
13:44:00,1,H07,Beach 60 St,-73.788522,40.592374,2073.88888835907
13:44:00,1,H08,Beach 44 St,-73.776013,40.592943,2158.88888835907
13:44:00,1,H09,Beach 36 St,-73.768175,40.595398,2233.88888835907
13:44:00,1,H10,Beach 25 St,-73.761353,40.600066,2311.8888883590694
13:44:00,1,H11,Far Rockaway-Mott Av,-73.755405,40.603995,2376.88888835907
12:24:00,1,H12,Beach 90 St,-73.813641,40.588034,1959.6388883590698
12:24:00,1,H13,Beach 98 St,-73.820558,40.585307,2024.6388883590698
12:24:00,1,H14,Beach 105 St,-73.827559,40.583209,2088.63888835907
12:24:00,1,H15,Rockaway Park-Beach 116 St,-73.835592,40.580903,2163.63888835907
13:34:00,1,J12,121 St,-73.828294,40.700492,1385.6388883590698
13:34:00,1,J13,111 St,-73.836345,40.697418,1414.8207070827486
13:34:00,1,J14,104 St,-73.84433,40.695178,1205.6388883590698
13:34:00,1,J15,Woodhaven Blvd,-73.851576,40.693879,1012.1388883590698
13:34:00,1,J16,85 St-Forest Pkwy,-73.86001,40.692435,925.6388883590698
13:34:00,1,J17,75 St-Elderts Ln,-73.867139,40.691324,832.1388883590697
13:34:00,1,J19,Cypress Hills,-73.87255,40.689941,805.6388883590698
13:34:00,1,J20,Crescent St,-73.873785,40.683194,732.6388883590697
13:34:00,1,J21,Norwood Av,-73.880039,40.68141,691.6388883590697
13:34:00,1,J22,Cleveland St,-73.884639,40.679947,640.6388883590698
13:34:00,1,J23,Van Siclen Av,-73.891688,40.678024,545.6388883590698
13:34:00,1,J24,Alabama Av,-73.898654,40.676992,485.6388883590698
12:44:00,1,J27,Broadway Junction,-73.904512,40.679498,395.6388883590698
12:14:00,1,J28,Chauncey St,-73.910456,40.682893,455.6388883590698
12:14:00,1,J29,Halsey St,-73.916559,40.68637,538.6388883590698
12:14:00,1,J30,Gates Av,-73.92227,40.68963,595.6388883590698
12:14:00,1,J31,Kosciuszko St,-73.928814,40.693342,670.6388883590698
12:04:00,0,L01,8 Av,-74.002578,40.739777,1291.0000000000002
12:04:00,0,L02,6 Av,-73.996786,40.737335,1231.0000000000002
12:04:00,0,L03,14 St-Union Sq,-73.99073,40.734789,1184.0
12:04:00,0,L05,3 Av,-73.986122,40.732849,1142.0
12:04:00,0,L06,1 Av,-73.981628,40.730953,1111.0
12:04:00,0,L08,Bedford Av,-73.956872,40.717304,918.0
12:04:00,0,L10,Lorimer St,-73.950275,40.714063,844.9999999999999
12:04:00,0,L11,Graham Av,-73.944053,40.714565,814.9999999999999
12:04:00,0,L12,Grand St,-73.94067,40.711926,739.9999999999999
12:04:00,0,L13,Montrose Av,-73.93985,40.707739,706.9999999999999
12:04:00,0,L14,Morgan Av,-73.933147,40.706152,646.0
12:04:00,0,L15,Jefferson St,-73.922913,40.706607,549.0
12:04:00,0,L16,DeKalb Av,-73.918425,40.703811,494.00000000000006
12:04:00,0,L17,Myrtle-Wyckoff Avs,-73.911586,40.699814,444.0
12:04:00,0,L19,Halsey St,-73.904084,40.695602,387.0
12:04:00,0,L20,Wilson Av,-73.904046,40.688764,264.0
12:04:00,0,L21,Bushwick Av-Aberdeen St,-73.905249,40.682829,209.0
12:04:00,0,L22,Broadway Junction,-73.90324,40.678856,178.0
12:04:00,0,L24,Atlantic Av,-73.903097,40.675345,112.0
12:04:00,0,L25,Sutter Av,-73.901975,40.669367,49.0
12:05:30,0,L26,Livonia Av,-73.900571,40.664038,0.0
12:01:30,0,L27,New Lots Av,-73.899232,40.658733,35.0
12:01:30,0,L28,East 105 St,-73.899485,40.650573,119.0
12:01:30,0,L29,Canarsie-Rockaway Pkwy,-73.90185,40.646654,194.0
12:09:00,1,M01,Middle Village-Metropolitan Av,-73.889601,40.711396,946.9903843402863
12:09:00,1,M04,Fresh Pond Rd,-73.895877,40.706186,887.956310749054
12:09:00,1,M05,Forest Av,-73.903077,40.704423,808.9903843402863
12:09:00,1,M06,Seneca Av,-73.90774,40.702762,736.9903843402863
12:14:00,1,M08,Myrtle-Wyckoff Avs,-73.912385,40.69943,670.456310749054
12:09:00,1,M09,Knickerbocker Av,-73.919711,40.698664,748.4563107490541
12:09:00,1,M10,Central Av,-73.927397,40.697857,850.9903843402864
12:14:00,1,M11,Myrtle Av,-73.935657,40.697207,757.6388883590698
12:14:00,1,M12,Flushing Av,-73.941126,40.70026,845.6388883590698
12:14:00,1,M13,Lorimer St,-73.947408,40.703869,911.6388883590698
12:14:00,1,M14,Hewes St,-73.953431,40.70687,981.6388883590698
12:14:00,1,M16,Marcy Av,-73.957757,40.708359,997.6388883590698
12:14:00,1,M18,Delancey St-Essex St,-73.987437,40.718315,1357.6388883590698
12:14:00,1,M19,Bowery,-73.993915,40.72028,1422.6388883590698
12:14:00,1,M20,Canal St,-73.999892,40.718092,1500.3888883590698
12:14:00,1,M21,Chambers St,-74.003401,40.713243,1601.1388883590698
12:14:00,1,M22,Fulton St,-74.007582,40.710374,1656.4641313552859
12:14:00,1,M23,Broad St,-74.011056,40.706476,1718.4641313552859
12:25:30,2,N02,8 Av,-74.011719,40.635064,2185.9999988079066
12:25:30,2,N03,Fort Hamilton Pkwy,-74.005351,40.631386,2306.9999988079066
12:25:30,2,N04,New Utrecht Av,-73.996353,40.624842,2426.9999988079066
12:25:30,2,N05,18 Av,-73.990414,40.620671,2497.9999988079066
12:25:30,2,N06,20 Av,-73.985026,40.61741,2562.9999988079066
12:25:30,2,N07,Bay Pkwy,-73.981848,40.611815,2637.1000020504002
12:25:30,2,N08,Kings Hwy,-73.980353,40.603923,2742.1000020504002
12:25:30,2,N09,Avenue U,-73.979137,40.597473,2781.0288901329036
12:25:30,2,N10,86 St,-73.97823,40.592721,2716.0288901329036
12:24:00,1,Q01,Canal St,-74.00046,40.718383,1649.9610397815704
12:19:00,1,Q03,72 St,-73.958424,40.768799,2057.9610397815704
12:19:00,1,Q04,86 St,-73.951787,40.777891,2176.9610397815704
12:19:00,1,Q05,96 St,-73.947152,40.784318,2245.9610397815704
12:04:00,2,R01,Astoria-Ditmars Blvd,-73.912034,40.775036,2214.972974061966
12:04:00,2,R03,Astoria Blvd,-73.917843,40.770258,2139.972974061966
12:04:00,2,R04,30 Av,-73.921479,40.766779,2067.9729740619655
12:04:00,2,R05,Broadway,-73.925508,40.76182,2002.9729740619655
12:04:00,2,R06,36 Av,-73.929575,40.756804,1932.9729740619657
12:04:00,2,R08,39 Av-Dutch Kills,-73.932755,40.752882,1854.9729740619657
12:04:00,2,R09,Queensboro Plaza,-73.940202,40.750582,1734.9729740619657
12:49:00,1,R11,Lexington Av/59 St,-73.967258,40.76266,1936.972974061966
12:49:00,1,R13,5 Av/59 St,-73.973347,40.764811,1935.2110397815704
12:09:00,1,R14,57 St-7 Av,-73.980658,40.764664,1757.9610397815704
12:04:00,1,R15,49 St,-73.984139,40.759901,1733.2110397815707
12:04:00,1,R16,Times Sq-42 St,-73.986754,40.754672,1619.9610397815704
12:04:00,1,R17,34 St-Herald Sq,-73.98795,40.749567,1544.9610397815704
12:04:00,1,R18,28 St,-73.988691,40.745494,1539.9610397815702
12:04:00,1,R19,23 St,-73.989344,40.741303,1474.9610397815704
12:04:00,1,R20,14 St-Union Sq,-73.990568,40.735736,1409.0
12:04:00,1,R21,8 St-NYU,-73.992629,40.730328,1499.9610397815704
12:04:00,1,R22,Prince St,-73.997702,40.724329,1577.0
12:04:00,1,R23,Canal St,-74.001775,40.719527,1652.0
12:34:00,2,R24,City Hall,-74.006978,40.713282,1772.0
12:04:00,2,R25,Cortlandt St,-74.011029,40.710668,1706.38888835907
12:34:00,2,R26,Rector St,-74.013342,40.70722,1635.353172540665
12:34:00,2,R27,Whitehall St-South Ferry,-74.012994,40.703087,1569.6388883590698
12:34:00,2,R28,Court St,-73.991777,40.6941,1334.6388883590698
12:04:00,2,R29,Jay St-MetroTech,-73.985942,40.69218,1261.63888835907
12:54:00,2,R30,DeKalb Av,-73.981824,40.690635,1334.853172540665
12:04:00,2,R31,Atlantic Av-Barclays Ctr,-73.97881,40.683666,1380.9999988079069
12:09:30,2,R32,Union St,-73.98311,40.677316,1463.25
12:09:30,2,R33,4 Av-9 St,-73.988302,40.670847,1541.0
12:09:30,2,R34,Prospect Av,-73.992872,40.665414,1631.0
12:09:30,2,R35,25 St,-73.998091,40.660397,1722.9999988079069
12:25:30,2,R36,36 St,-74.003549,40.655144,1800.9999988079069
12:14:00,2,R39,45 St,-74.010006,40.648939,1966.1000020503998
12:14:00,2,R40,53 St,-74.014034,40.645069,2033.1000020503998
12:25:30,2,R41,59 St,-74.017881,40.641362,2050.9999988079066
12:14:00,2,R42,Bay Ridge Av,-74.023377,40.634967,2205.5405390262604
12:14:00,2,R43,77 St,-74.02551,40.629742,2268.54053902626
12:14:00,2,R44,86 St,-74.028398,40.622687,2378.999998807907
12:14:00,2,R45,Bay Ridge-95 St,-74.030876,40.616622,2447.9999988079066
12:25:30,2,S01,Franklin Av,-73.955827,40.680596,918.3888883590699
12:14:00,2,S03,Park Pl,-73.957624,40.674772,1037.3888883590698
12:14:00,2,S04,Botanic Garden,-73.959245,40.670343,1103.3888883590698
