start_time,ntransfers,stop_id,stop_name,stop_lon,stop_lat,duration
12:07:30,2,101,Van Cortlandt Park-242 St,-73.898583,40.889248,3511.479515552521
12:07:30,2,103,238 St,-73.90087,40.884667,3446.273104906082
12:07:30,2,104,231 St,-73.904834,40.878856,3360.2731049060826
12:07:30,2,106,Marble Hill-225 St,-73.909831,40.874561,3280.273104906082
12:07:30,2,107,215 St,-73.915279,40.869444,3190.273104906082
12:07:30,2,108,207 St,-73.918822,40.864621,3118.273104906082
12:07:30,2,109,Dyckman St,-73.925536,40.860531,3050.4795155525208
12:07:30,2,110,191 St,-73.929412,40.855225,2975.4795155525208
12:07:30,2,111,181 St,-73.933596,40.849505,2888.4795155525208
12:07:30,2,112,168 St-Washington Hts,-73.940133,40.840556,2776.4795155525208
12:07:30,2,113,157 St,-73.94489,40.834041,2869.4795155525203
12:07:30,2,114,145 St,-73.95036,40.826551,2783.3882915973672
12:07:30,2,115,137 St-City College,-73.953676,40.822008,2694.3882915973672
12:07:30,2,116,125 St,-73.958372,40.815581,2599.3882915973672
12:07:30,2,117,116 St-Columbia University,-73.96411,40.807722,2497.388291597367
12:07:30,2,118,Cathedral Pkwy (110 St),-73.966847,40.803967,2423.388291597367
12:07:30,2,119,103 St,-73.968379,40.799446,2349.388291597367
12:07:30,2,120,96 St,-73.972323,40.793919,2115.9903843402863
12:07:30,2,121,86 St,-73.976218,40.788644,2161.388291597367
12:07:30,2,122,79 St,-73.979917,40.783934,2096.388291597367
12:07:30,2,123,72 St,-73.98197,40.778453,1948.9903843402863
13:07:30,1,124,66 St-Lincoln Center,-73.982209,40.77344,2001.9903843402863
12:07:30,2,125,59 St-Columbus Circle,-73.981929,40.768247,1924.9903843402863
12:07:30,2,126,50 St,-73.983849,40.761728,1828.9903843402863
12:07:30,2,127,Times Sq-42 St,-73.987495,40.75529,1725.9903843402863
12:07:30,2,128,34 St-Penn Station,-73.991057,40.750373,1656.9903843402865
12:07:30,2,129,28 St,-73.993365,40.747215,1697.9903843402865
12:07:30,2,130,23 St,-73.995657,40.744081,1632.9903843402865
12:07:30,2,131,18 St,-73.997871,40.74104,1569.9903843402865
12:07:30,2,132,14 St,-74.000201,40.737826,1499.9903843402865
12:07:30,2,133,Christopher St-Sheridan Sq,-74.002906,40.733422,1580.9903843402865
12:07:30,2,134,Houston St,-74.005367,40.728251,1656.9903843402865
12:07:30,2,135,Canal St,-74.006277,40.722854,1735.9903843402865
12:07:30,2,136,Franklin St,-74.006886,40.719318,1797.9903843402865
12:07:30,2,137,Chambers St,-74.009266,40.715478,1731.9903843402865
12:07:30,1,138,WTC Cortlandt,-74.012188,40.711835,1902.9903843402865
12:07:30,1,139,Rector St,-74.013783,40.707513,1979.9903843402867
12:07:30,1,142,South Ferry,-74.013664,40.702068,2070.9903843402867
13:37:30,1,201,Wakefield-241 St,-73.85062,40.903125,4317.201424121856
13:37:30,1,204,Nereid Av,-73.854376,40.898379,4195.201424121856
13:37:30,1,205,233 St,-73.857473,40.893193,4130.201424121857
13:37:30,1,206,225 St,-73.860341,40.888022,4036.7014241218562
13:37:30,1,207,219 St,-73.862633,40.883895,3956.7014241218562
13:37:30,1,208,Gun Hill Rd,-73.866256,40.87785,3852.4514241218567
13:37:30,1,209,Burke Av,-73.867164,40.871356,3789.2014241218567
13:37:30,1,210,Allerton Av,-73.867352,40.865462,3703.2014241218567
13:37:30,1,211,Pelham Pkwy,-73.867615,40.857192,3601.2014241218567
13:37:30,1,212,Bronx Park East,-73.868457,40.848828,3485.2014241218567
13:37:30,1,213,E 180 St,-73.873488,40.841894,3330.2014241218567
12:57:30,1,214,West Farms Sq-E Tremont Av,-73.880049,40.840295,3332.201424121857
12:57:30,1,215,174 St,-73.887734,40.837288,3223.2014241218567
12:57:30,1,216,Freeman St,-73.891865,40.829993,3123.2014241218567
12:57:30,1,217,Simpson St,-73.893064,40.824073,3004.2014241218567
13:37:30,1,218,Intervale Av,-73.896736,40.822181,2931.2014241218567
13:37:30,1,219,Prospect Av,-73.90177,40.819585,2855.2014241218567
12:57:30,1,220,Jackson Av,-73.907807,40.81649,2764.2014241218567
13:37:30,1,221,3 Av-149 St,-73.917757,40.816109,2639.2014241218567
12:57:30,1,222,149 St-Grand Concourse,-73.926718,40.81841,2537.2014241218567
12:07:30,2,224,135 St,-73.94077,40.814229,2614.2403843402863
12:07:30,2,225,125 St,-73.945495,40.807754,2515.2403843402863
12:07:30,2,226,116 St,-73.949625,40.802098,2421.2403843402863
12:07:30,2,227,Central Park North (110 St),-73.951822,40.799075,2352.2403843402863
12:07:30,2,228,Park Place,-74.008811,40.713051,1813.9903843402865
12:07:30,2,229,Fulton St,-74.006571,40.709416,1825.8164684772491
12:57:30,1,230,Wall St,-74.0091,40.706821,1894.8164684772491
12:57:30,1,231,Clark St,-73.993086,40.697466,2070.1667201519012
13:37:30,1,232,Borough Hall,-73.989998,40.693219,2138.9126214981075
13:37:30,1,233,Hoyt St,-73.985065,40.690545,2219.9126214981075
13:37:30,1,234,Nevins St,-73.980492,40.688246,2160.162621498108
12:07:30,2,235,Atlantic Av-Barclays Ctr,-73.977666,40.684359,2087.9903831481934
12:07:30,2,236,Bergen St,-73.975098,40.680829,2127.4537975788116
12:07:30,2,237,Grand Army Plaza,-73.971046,40.675235,2033.4537975788116
12:07:30,2,238,Eastern Pkwy-Brooklyn Museum,-73.964375,40.671987,1941.4537975788116
12:07:30,2,239,Franklin Av-Medgar Evers College,-73.958131,40.670682,1828.9903831481931
12:07:30,2,241,President St-Medgar Evers College,-73.950683,40.667883,1961.9903831481934
12:07:30,2,242,Sterling St,-73.95085,40.662742,2045.9903831481934
12:07:30,2,243,Winthrop St,-73.9502,40.656652,2128.9903831481934
12:07:30,2,244,Church Av,-73.949575,40.650843,2190.990383148193
12:07:30,2,245,Beverly Rd,-73.948959,40.645098,2251.990383148193
12:07:30,2,246,Newkirk Av-Little Haiti,-73.948411,40.639967,2332.9903831481934
12:07:30,2,247,Flatbush Av-Brooklyn College,-73.947642,40.632836,2424.990383148193
12:07:30,2,248,Nostrand Av,-73.950466,40.669847,1737.4537975788119
12:07:30,2,249,Kingston Av,-73.942161,40.669399,1648.4537975788116
12:07:30,2,250,Crown Hts-Utica Av,-73.932942,40.668897,1585.4537975788116
12:07:30,2,251,Sutter Av-Rutland Rd,-73.92261,40.664717,1538.4537975788116
12:07:30,2,252,Saratoga Av,-73.916327,40.661453,1438.4537975788116
12:07:30,2,253,Rockaway Av,-73.908946,40.662549,1355.4537975788116
12:36:30,2,254,Junius St,-73.902447,40.663515,1278.4537975788114
12:36:30,2,255,Pennsylvania Av,-73.894895,40.664635,1371.4537975788114
12:36:30,2,256,Van Siclen Av,-73.889395,40.665449,1443.4537975788114
12:36:30,2,257,New Lots Av,-73.884079,40.666235,1501.4537975788114
12:07:30,2,301,Harlem-148 St,-73.93647,40.82388,2793.9903843402863
12:07:30,2,302,145 St,-73.936245,40.820421,2721.9903843402863
12:07:30,2,401,Woodlawn,-73.878751,40.886037,3646.9514241218562
12:07:30,2,402,Mosholu Pkwy,-73.884655,40.87975,3552.9514241218562
12:07:30,2,405,Bedford Park Blvd-Lehman College,-73.890064,40.873412,3452.9514241218562
12:07:30,2,406,Kingsbridge Rd,-73.897174,40.86776,3345.9514241218562
12:07:30,2,407,Fordham Rd,-73.901034,40.862803,3254.9514241218562
12:07:30,2,408,183 St,-73.903879,40.858407,3175.9514241218562
12:07:30,2,409,Burnside Av,-73.907684,40.853453,3084.9514241218562
12:07:30,2,410,176 St,-73.911794,40.84848,3023.9514241218562
12:07:30,2,411,Mt Eden Av,-73.914685,40.844434,2950.9514241218562
12:07:30,2,412,170 St,-73.917791,40.840075,2874.9514241218562
12:07:30,2,413,167 St,-73.9214,40.835537,2790.9514241218562
12:07:30,2,414,161 St-Yankee Stadium,-73.925831,40.827994,2681.9514241218562
12:07:30,2,415,149 St-Grand Concourse,-73.927351,40.818375,2551.9514241218562
12:07:30,2,416,138 St-Grand Concourse,-73.929849,40.813224,2420.2014241218562
12:07:30,2,418,Fulton St,-74.009509,40.710368,1652.9126214981081
12:07:30,2,419,Wall St,-74.011862,40.707557,1724.1626214981081
12:07:30,2,420,Bowling Green,-74.014065,40.704817,1793.1626214981081
12:07:30,2,423,Borough Hall,-73.990151,40.692404,2032.162621498108
13:37:30,1,501,Eastchester-Dyre Av,-73.830834,40.8883,3959.2014241218567
13:37:30,1,502,Baychester Av,-73.838591,40.878663,3865.2014241218567
13:37:30,1,503,Gun Hill Rd,-73.846384,40.869526,3744.2014241218567
13:37:30,1,504,Pelham Pkwy,-73.855359,40.858985,3614.2014241218567
13:37:30,1,505,Morris Park,-73.860495,40.854364,3531.2014241218567
13:57:30,1,601,Pelham Bay Park,-73.828121,40.852462,3784.0942826271053
13:57:30,1,602,Buhre Av,-73.832569,40.84681,3673.0942826271053
13:57:30,1,603,Middletown Rd,-73.836322,40.843863,3604.0942826271053
13:57:30,1,604,Westchester Sq-E Tremont Av,-73.842952,40.839892,3512.0942826271053
13:57:30,1,606,Zerega Av,-73.847036,40.836488,3437.3442826271057
13:57:30,1,607,Castle Hill Av,-73.851222,40.834255,3373.3442826271053
12:07:30,2,608,Parkchester,-73.860816,40.833226,3252.3442826271053
12:07:30,2,609,St Lawrence Av,-73.867618,40.831509,3487.938594818115
12:07:30,2,610,Morrison Av-Soundview,-73.874516,40.829521,3408.938594818115
12:07:30,2,611,Elder Av,-73.879159,40.828584,3345.938594818115
12:07:30,2,612,Whitlock Av,-73.886283,40.826525,3252.5625329017635
12:07:30,2,613,Hunts Point Av,-73.890549,40.820948,3045.0942826271053
12:07:30,2,614,Longwood Av,-73.896435,40.816104,3129.439797878265
12:57:30,1,615,E 149 St,-73.904098,40.812118,3036.439797878265
12:57:30,1,616,E 143 St-St Mary's St,-73.907657,40.808719,2966.439797878265
12:57:30,1,617,Cypress Av,-73.914042,40.805368,2856.439797878265
12:57:30,1,618,Brook Av,-73.91924,40.807566,2787.439797878265
12:07:30,2,619,3 Av-138 St,-73.926138,40.810476,2691.439797878265
12:07:30,2,621,125 St,-73.937594,40.804138,2289.9514241218562
12:57:30,1,622,116 St,-73.941617,40.798629,2583.1363966464996
12:07:30,2,623,110 St,-73.94425,40.79502,2509.136396646499
12:07:30,2,624,103 St,-73.947478,40.7906,2436.136396646499
12:07:30,2,625,96 St,-73.95107,40.785672,2352.136396646499
12:07:30,2,626,86 St,-73.955589,40.779492,2024.9514241218565
12:07:30,2,627,77 St,-73.959874,40.77362,2184.201424121857
12:07:30,2,628,68 St-Hunter College,-73.96387,40.768141,2096.2014241218567
12:07:30,2,629,59 St,-73.967967,40.762526,1837.9514241218567
12:07:30,2,630,51 St,-73.97192,40.757107,1909.2014241218567
12:07:30,2,631,Grand Central-42 St,-73.976848,40.751776,1680.2014241218567
12:07:30,2,632,33 St,-73.982076,40.746081,1686.9514241218565
12:07:30,2,633,28 St,-73.984264,40.74307,1621.9514241218565
12:07:30,2,634,23 St,-73.986599,40.739864,1552.9514241218567
12:46:00,1,635,14 St-Union Sq,-73.989951,40.734673,1458.9514241218567
12:46:00,1,636,Astor Pl,-73.99107,40.730054,1530.9514241218567
12:15:30,1,637,Bleecker St,-73.994659,40.725915,1605.2285723686218
12:15:30,1,638,Spring St,-73.997141,40.722301,1595.6337745189667
12:15:30,1,639,Canal St,-74.000193,40.718803,1555.6337745189667
12:07:30,2,640,Brooklyn Bridge-City Hall,-74.004131,40.713065,1485.912621498108
12:27:30,1,701,Flushing-Main St,-73.83003,40.7596,2691.2612302303314
12:27:30,1,702,Mets-Willets Point,-73.845625,40.754622,2548.2612302303314
12:27:30,1,705,111 St,-73.855334,40.75173,2606.7496039867406
12:27:30,1,706,103 St-Corona Plaza,-73.8627,40.749865,2519.9633567333226
12:27:30,1,707,Junction Blvd,-73.869527,40.749145,2357.261230230332
12:27:30,1,708,90 St-Elmhurst Av,-73.876613,40.748408,2382.9633567333226
12:27:30,1,709,82 St-Jackson Hts,-73.883697,40.747659,2318.963356733322
12:07:30,3,710,74 St-Broadway,-73.891394,40.746848,2171.963356733322
12:07:30,3,711,69 St,-73.896403,40.746325,2131.963356733322
12:07:30,3,712,61 St-Woodside,-73.902984,40.74563,2065.963356733322
12:07:30,3,713,52 St,-73.912549,40.744149,1982.9633567333221
12:07:30,3,714,46 St-Bliss St,-73.918435,40.743132,1932.9633567333221
12:07:30,3,715,40 St-Lowery St,-73.924016,40.743781,1879.963356733322
12:07:30,3,716,33 St-Rawson St,-73.930997,40.744587,1818.963356733322
12:07:30,3,718,Queensboro Plaza,-73.940202,40.750582,1719.9633567333221
12:07:30,1,719,Court Sq,-73.945264,40.747023,1644.9633567333221
12:07:30,3,720,Hunters Point Av,-73.948916,40.742216,1729.9633567333221
12:07:30,1,721,Vernon Blvd-Jackson Av,-73.953581,40.742626,1747.7133567333221
12:07:30,1,723,Grand Central-42 St,-73.976041,40.751431,1800.2014241218567
12:07:30,3,724,5 Av,-73.981963,40.753821,1780.9903843402865
12:07:30,1,725,Times Sq-42 St,-73.987691,40.755477,1725.9903843402863
12:07:30,1,726,34 St-Hudson Yards,-74.00191,40.755882,1855.9903843402865
12:07:30,3,901,Grand Central-42 St,-73.979189,40.752769,1740.2014241218567
12:57:30,2,902,Times Sq-42 St,-73.986229,40.755983,1665.9903843402863
13:07:30,0,A02,Inwood-207 St,-73.919899,40.868072,3036.990384340286
12:07:30,2,A03,Dyckman St,-73.927271,40.865491,2966.990384340286
12:07:30,2,A05,190 St,-73.93418,40.859022,2846.990384340286
12:07:30,2,A06,181 St,-73.937969,40.851695,2739.9903843402863
12:07:30,2,A07,175 St,-73.939704,40.847391,2670.9903843402863
12:07:30,2,A09,168 St,-73.939561,40.840719,2550.9903843402863
12:07:30,2,A10,163 St-Amsterdam Av,-73.939892,40.836013,2599.1482806205754
12:27:30,0,A11,155 St,-73.941514,40.830518,2534.1482806205754
12:07:30,2,A12,145 St,-73.944216,40.824783,2345.9903843402863
12:27:30,0,A14,135 St,-73.947649,40.817894,2272.9903843402867
12:57:30,0,A15,125 St,-73.952343,40.811109,2162.9903843402863
12:07:30,2,A16,116 St,-73.954882,40.805085,2276.148280620575
12:07:30,2,A17,Cathedral Pkwy (110 St),-73.958161,40.800603,2273.9903843402867
12:07:30,2,A18,103 St,-73.961454,40.796092,2208.9903843402863
12:07:30,2,A19,96 St,-73.964696,40.791642,2143.9903843402863
12:07:30,2,A20,86 St,-73.968916,40.785868,2065.9903843402863
12:07:30,2,A21,81 St-Museum of Natural History,-73.972143,40.781433,1990.9903843402865
12:07:30,2,A22,72 St,-73.97641,40.775594,1922.9903843402865
12:57:30,0,A24,59 St-Columbus Circle,-73.981736,40.768296,1740.9903843402863
12:07:30,2,A25,50 St,-73.985984,40.762456,1717.9903843402867
12:07:30,2,A27,42 St-Port Authority Bus Terminal,-73.989735,40.757308,1605.9903843402863
12:07:30,2,A28,34 St-Penn Station,-73.993391,40.752287,1532.9903843402865
12:07:30,2,A30,23 St,-73.998041,40.745906,1475.9903843402865
12:46:00,1,A31,14 St,-74.00169,40.740893,1409.9903843402865
12:07:30,2,A32,W 4 St-Wash Sq,-74.000495,40.732338,1522.9903843402865
13:27:30,1,A33,Spring St,-74.003739,40.726227,1599.9903843402865
12:57:30,1,A34,Canal St,-74.005229,40.720824,1649.9903843402865
12:07:30,1,A36,Chambers St,-74.008585,40.714111,1754.9903843402865
12:07:30,1,A38,Fulton St,-74.007691,40.710197,1723.4126214981077
12:07:30,1,A40,High St,-73.990531,40.699337,1837.6292726993563
12:07:30,1,A41,Jay St-MetroTech,-73.987342,40.692338,1690.912621498108
12:07:30,2,A42,Hoyt-Schermerhorn Sts,-73.985001,40.688484,1610.629272699356
12:07:30,2,A43,Lafayette Av,-73.973946,40.686113,1591.3792726993559
12:07:30,2,A44,Clinton-Washington Avs,-73.965838,40.683263,1526.379272699356
12:07:30,2,A45,Franklin Av,-73.956848,40.68138,1449.3792726993559
12:07:30,2,A46,Nostrand Av,-73.950426,40.680438,1315.629272699356
12:07:30,2,A47,Kingston-Throop Avs,-73.940858,40.679921,1304.379272699356
12:07:30,2,A48,Utica Av,-73.930729,40.679364,1181.629272699356
12:07:30,2,A49,Ralph Av,-73.920786,40.678822,1127.629272699356
12:07:30,2,A50,Rockaway Av,-73.911946,40.67834,1052.629272699356
12:07:30,1,A51,Broadway Junction,-73.905316,40.678334,986.629272699356
12:07:30,1,A52,Liberty Av,-73.896548,40.674542,1106.629272699356
12:07:30,1,A53,Van Siclen Av,-73.890358,40.67271,1181.629272699356
12:07:30,1,A54,Shepherd Av,-73.88075,40.67413,1259.629272699356
12:07:30,2,A55,Euclid Av,-73.872106,40.675377,1263.629272699356
12:07:30,2,A57,Grant Av,-73.86505,40.677044,1376.629272699356
12:07:30,2,A59,80 St,-73.858992,40.679371,1446.629272699356
12:07:30,2,A60,88 St,-73.85147,40.679843,1519.629272699356
12:07:30,2,A61,Rockaway Blvd,-73.843853,40.680429,1584.6292726993559
13:27:30,1,A63,104 St,-73.837683,40.681711,1649.6292726993559
13:27:30,1,A64,111 St,-73.832163,40.684331,1711.6292726993559
13:27:30,1,A65,Ozone Park-Lefferts Blvd,-73.825798,40.685951,1781.629272699356
12:27:30,0,B04,21 St-Queensbridge,-73.942836,40.754203,2317.322581479886
12:27:30,0,B06,Roosevelt Island,-73.95326,40.759145,2145.322581479886
12:27:30,0,B08,Lexington Av/63 St,-73.966113,40.764629,1986.9514241218565
12:27:30,0,B10,57 St,-73.97745,40.763972,1912.3225814798861
13:37:30,0,B12,9 Av,-73.994324,40.646292,2763.20466852188
13:37:30,0,B13,Fort Hamilton Pkwy,-73.994304,40.640914,2873.45466852188
13:37:30,0,B14,50 St,-73.994791,40.63626,2935.45466852188
13:37:30,0,B15,55 St,-73.995476,40.631435,3010.45466852188
13:37:30,0,B16,62 St,-73.996895,40.626472,3065.4546685218797
13:37:30,0,B17,71 St,-73.998864,40.619589,3145.45466852188
13:37:30,0,B18,79 St,-74.00061,40.613501,3225.45466852188
13:37:30,0,B19,18 Av,-74.001736,40.607954,3288.45466852188
13:37:30,0,B20,20 Av,-73.998168,40.604556,3352.45466852188
13:37:30,0,B21,Bay Pkwy,-73.993728,40.601875,3412.45466852188
13:37:30,0,B22,25 Av,-73.986829,40.597704,3392.2692744731894
13:37:30,0,B23,Bay 50 St,-73.983765,40.588841,3255.2692744731894
12:07:30,0,D01,Norwood-205 St,-73.878855,40.874811,3411.3061769008636
12:07:30,0,D03,Bedford Park Blvd,-73.887138,40.873244,3296.3061769008636
12:07:30,0,D04,Kingsbridge Rd,-73.893509,40.866978,3196.306176900864
12:07:30,0,D05,Fordham Rd,-73.897749,40.861296,3116.3061769008636
12:07:30,0,D06,182-183 Sts,-73.900741,40.856093,3046.306176900864
12:57:30,0,D07,Tremont Av,-73.905227,40.85041,2982.3061769008636
12:57:30,0,D08,174-175 Sts,-73.910136,40.8459,2945.1536505222325
12:57:30,0,D09,170 St,-73.9134,40.839306,2870.306176900864
12:57:30,0,D10,167 St,-73.91844,40.833771,2765.1536505222325
12:57:30,0,D11,161 St-Yankee Stadium,-73.925651,40.827905,2640.1536505222325
12:57:30,0,D12,155 St,-73.938209,40.830135,2520.1536505222325
12:57:30,0,D13,145 St,-73.944216,40.824783,2405.1536505222325
12:57:30,0,D14,7 Av,-73.981637,40.762862,1850.7403843402863
12:07:30,0,D15,47-50 Sts-Rockefeller Ctr,-73.981329,40.758663,1820.172203063965
12:07:30,0,D16,42 St-Bryant Pk,-73.984569,40.754222,1750.172203063965
12:07:30,0,D17,34 St-Herald Sq,-73.987823,40.749719,1688.1722030639648
12:07:30,2,D18,23 St,-73.992821,40.742878,1578.172203063965
12:15:30,0,D19,14 St,-73.996209,40.738228,1514.9903843402865
12:07:30,0,D20,W 4 St-Wash Sq,-74.000495,40.732338,1526.0000000000002
12:15:30,0,D21,Broadway-Lafayette St,-73.996204,40.725297,1393.0
12:36:30,0,D22,Grand St,-73.993753,40.718267,1758.2040791511536
12:07:30,0,D24,Atlantic Av-Barclays Ctr,-73.97689,40.68446,2172.379272699356
12:07:30,0,D25,7 Av,-73.972367,40.67705,2052.379272699356
12:07:30,3,D26,Prospect Park,-73.962246,40.661614,1812.379272699356
12:07:30,3,D27,Parkside Av,-73.961495,40.655292,2122.3792726993556
12:07:30,3,D28,Church Av,-73.962982,40.650527,1997.3792726993556
12:07:30,3,D29,Beverley Rd,-73.964492,40.644031,2096.06975030899
12:07:30,3,D30,Cortelyou Rd,-73.963891,40.640927,2156.06975030899
12:07:30,0,D31,Newkirk Plaza,-73.962793,40.635082,2142.3792726993556
12:07:30,0,D32,Avenue H,-73.961639,40.62927,2243.6992735862723
12:07:30,0,D33,Avenue J,-73.960803,40.625039,2313.6992735862723
12:07:30,0,D34,Avenue M,-73.959399,40.617618,2403.6992735862723
12:07:30,0,D35,Kings Hwy,-73.957734,40.60867,2368.6292726993556
13:37:30,0,D37,Avenue U,-73.955929,40.5993,2558.639584779739
13:37:30,0,D38,Neck Rd,-73.955161,40.595246,2625.639584779739
12:07:30,0,D39,Sheepshead Bay,-73.954155,40.586896,2573.6292726993556
13:37:30,0,D40,Brighton Beach,-73.961376,40.577621,2657.1292726993556
13:37:30,0,D41,Ocean Pkwy,-73.968501,40.576312,2887.1292726993556
13:37:30,0,D42,W 8 St-NY Aquarium,-73.975939,40.576127,3005.0192744731894
13:37:30,0,D43,Coney Island-Stillwell Av,-73.981233,40.577422,3067.0192744731894
12:15:30,1,E01,World Trade Center,-74.009781,40.712582,1773.782290697098
12:15:30,0,F01,Jamaica-179 St,-73.783817,40.712646,2907.844440221787
13:27:30,0,F02,169 St,-73.793604,40.71047,2884.0944402217865
13:27:30,0,F03,Parsons Blvd,-73.803326,40.707564,2719.0944402217865
13:27:30,0,F04,Sutphin Blvd,-73.810708,40.70546,2629.0944402217865
13:27:30,0,F05,Briarwood,-73.820574,40.709179,2469.0944402217865
13:57:30,0,F06,Kew Gardens-Union Tpke,-73.831008,40.714441,2544.0944402217865
13:57:30,0,F07,75 Av,-73.837324,40.718331,2518.963356733322
13:07:30,0,F09,Court Sq-23 St,-73.946,40.747846,1644.9633567333221
13:07:30,0,F11,Lexington Av/53 St,-73.969055,40.757552,1824.9633567333221
13:07:30,0,F12,5 Av/53 St,-73.975224,40.760167,1884.9633567333221
12:15:30,0,F14,2 Av,-73.989938,40.723402,1502.2644746303558
12:15:30,0,F15,Delancey St-Essex St,-73.988114,40.718611,1412.912621498108
12:15:30,0,F16,East Broadway,-73.990173,40.713715,1481.412621498108
12:15:30,0,F18,York St,-73.986751,40.701397,1610.662621498108
12:07:30,1,F20,Bergen St,-73.990862,40.686145,1791.2046685218806
12:07:30,1,F21,Carroll St,-73.995048,40.680303,1909.2046685218806
12:07:30,1,F22,Smith-9 Sts,-73.995959,40.67358,2025.2046685218804
12:07:30,1,F23,4 Av-9 St,-73.989779,40.670272,2095.20466852188
12:07:30,1,F24,7 Av,-73.980305,40.666271,2045.9126214981077
12:07:30,1,F25,15 St-Prospect Park,-73.979493,40.660365,2202.077760457992
12:07:30,1,F26,Fort Hamilton Pkwy,-73.975776,40.650782,2332.077760457992
12:07:30,1,F27,Church Av,-73.979678,40.644041,2284.1626214981075
12:15:30,0,F29,Ditmas Av,-73.978172,40.636119,2409.662621498108
12:15:30,0,F30,18 Av,-73.976971,40.629755,2519.9126214981075
12:15:30,0,F31,Avenue I,-73.976127,40.625322,2581.662621498108
12:15:30,0,F32,Bay Pkwy,-73.975264,40.620769,2644.6626214981075
12:15:30,0,F33,Avenue N,-73.974197,40.61514,2717.162621498108
12:15:30,0,F34,Avenue P,-73.973022,40.608944,2780.412621498108
12:15:30,0,F35,Kings Hwy,-73.972361,40.603217,2857.662621498108
13:15:30,0,F36,Avenue U,-73.973357,40.596063,2964.662621498108
13:15:30,0,F38,Avenue X,-73.97425,40.58962,3037.4126214981075
13:07:30,0,F39,Neptune Av,-73.974574,40.581011,3152.4126214981075
13:57:30,0,G05,Jamaica Center-Parsons/Archer,-73.801109,40.702147,2104.0944402217865
13:57:30,0,G06,Sutphin Blvd-Archer Av-JFK Airport,-73.807969,40.700486,2040.0944402217865
13:57:30,0,G07,Jamaica-Van Wyck,-73.816859,40.702566,2354.0944402217865
13:57:30,0,G08,Forest Hills-71 Av,-73.844521,40.721691,2422.963356733322
13:57:30,0,G09,67 Av,-73.852719,40.726523,2528.463356733322
13:07:30,0,G10,63 Dr-Rego Park,-73.861604,40.729846,2448.463356733322
13:07:30,0,G11,Woodhaven Blvd,-73.869229,40.733106,2373.463356733322
13:07:30,0,G12,Grand Av-Newtown,-73.877223,40.737015,2273.463356733322
13:07:30,0,G13,Elmhurst Av,-73.882017,40.742454,2199.963356733322
13:07:30,0,G14,Jackson Hts-Roosevelt Av,-73.891338,40.746644,2074.963356733322
13:07:30,0,G15,65 St,-73.898453,40.749669,2184.963356733322
13:07:30,0,G16,Northern Blvd,-73.906006,40.752885,2240.646083432249
12:15:30,0,G18,46 St,-73.913333,40.756312,2150.646083432249
12:15:30,0,G19,Steinway St,-73.92074,40.756879,2033.7388669374038
12:15:30,0,G20,36 St,-73.928781,40.752039,1913.7388669374038
13:07:30,0,G21,Queens Plaza,-73.937243,40.748973,1754.963356733322
12:07:30,2,G22,Court Sq,-73.943832,40.746554,1536.2046685218809
12:07:30,2,G24,21 St,-73.949724,40.744065,1472.2046685218809
12:07:30,2,G26,Greenpoint Av,-73.954449,40.731352,1304.2046685218809
12:07:30,2,G28,Nassau Av,-73.951277,40.724635,1229.2046685218809
12:07:30,2,G29,Metropolitan Av,-73.951418,40.712792,1107.2046685218809
12:07:30,2,G30,Broadway,-73.950308,40.706092,1210.2046685218809
12:07:30,2,G31,Flushing Av,-73.950234,40.700377,1278.2046685218809
12:07:30,2,G32,Myrtle-Willoughby Avs,-73.949046,40.694568,1338.2046685218809
12:07:30,2,G33,Bedford-Nostrand Avs,-73.953522,40.689627,1446.4633567333221
12:07:30,2,G34,Classon Av,-73.96007,40.688873,1508.2046685218806
12:07:30,2,G35,Clinton-Washington Avs,-73.966839,40.688089,1569.2046685218806
12:07:30,2,G36,Fulton St,-73.975375,40.687119,1644.2046685218806
13:37:30,1,H01,Aqueduct Racetrack,-73.834058,40.668234,1764.6292726993559
12:07:30,2,H02,Aqueduct-N Conduit Av,-73.834058,40.668234,1824.6292726993559
12:07:30,2,H03,Howard Beach-JFK Airport,-73.830301,40.660476,1891.6292726993559
12:07:30,2,H04,Broad Channel,-73.815925,40.608382,2310.629272699356
12:07:30,2,H06,Beach 67 St,-73.796924,40.590927,2587.629272699356
13:37:30,1,H07,Beach 60 St,-73.788522,40.592374,2664.879272699356
13:37:30,1,H08,Beach 44 St,-73.776013,40.592943,2749.879272699356
13:37:30,1,H09,Beach 36 St,-73.768175,40.595398,2824.879272699356
13:37:30,1,H10,Beach 25 St,-73.761353,40.600066,2902.8792726993556
13:37:30,1,H11,Far Rockaway-Mott Av,-73.755405,40.603995,2967.879272699356
12:07:30,2,H12,Beach 90 St,-73.813641,40.588034,2550.629272699356
12:07:30,2,H13,Beach 98 St,-73.820558,40.585307,2615.629272699356
12:07:30,2,H14,Beach 105 St,-73.827559,40.583209,2679.6292726993565
12:07:30,2,H15,Rockaway Park-Beach 116 St,-73.835592,40.580903,2754.6292726993565
13:57:30,0,J12,121 St,-73.828294,40.700492,1976.6292726993559
13:57:30,0,J13,111 St,-73.836345,40.697418,1989.0944402217863
13:57:30,0,J14,104 St,-73.84433,40.695178,1796.629272699356
13:57:30,0,J15,Woodhaven Blvd,-73.851576,40.693879,1568.4126214981081
13:57:30,0,J16,85 St-Forest Pkwy,-73.86001,40.692435,1499.912621498108
13:57:30,0,J17,75 St-Elderts Ln,-73.867139,40.691324,1388.4126214981081
13:57:30,0,J19,Cypress Hills,-73.87255,40.689941,1379.912621498108
13:57:30,0,J20,Crescent St,-73.873785,40.683194,1288.9126214981081
13:57:30,0,J21,Norwood Av,-73.880039,40.68141,1247.9126214981081
13:57:30,0,J22,Cleveland St,-73.884639,40.679947,1231.6292726993559
13:57:30,0,J23,Van Siclen Av,-73.891688,40.678024,1136.629272699356
13:57:30,0,J24,Alabama Av,-73.898654,40.676992,1066.912621498108
13:27:30,0,J27,Broadway Junction,-73.904512,40.679498,951.912621498108
13:27:30,0,J28,Chauncey St,-73.910456,40.682893,876.912621498108
13:27:30,0,J29,Halsey St,-73.916559,40.68637,820.1911745071411
13:27:30,0,J30,Gates Av,-73.92227,40.68963,751.9126214981079
13:27:30,0,J31,Kosciuszko St,-73.928814,40.693342,689.4411745071411
12:07:30,1,L01,8 Av,-74.002578,40.739777,1349.9903843402865
12:07:30,1,L02,6 Av,-73.996786,40.737335,1289.9903843402865
12:07:30,1,L03,14 St-Union Sq,-73.99073,40.734789,1242.9903843402863
12:07:30,1,L05,3 Av,-73.986122,40.732849,1190.9903843402863
12:07:30,1,L06,1 Av,-73.981628,40.730953,1165.9903843402863
12:07:30,1,L08,Bedford Av,-73.956872,40.717304,975.9903843402861
12:07:30,1,L10,Lorimer St,-73.950275,40.714063,893.9903843402863
12:07:30,1,L11,Graham Av,-73.944053,40.714565,863.9903843402863
12:07:30,1,L12,Grand St,-73.94067,40.711926,788.9903843402863
12:07:30,1,L13,Montrose Av,-73.93985,40.707739,755.9903843402861
12:07:30,1,L14,Morgan Av,-73.933147,40.706152,704.9903843402863
12:07:30,1,L15,Jefferson St,-73.922913,40.706607,607.9903843402863
12:07:30,1,L16,DeKalb Av,-73.918425,40.703811,552.9903843402863
12:07:30,1,L17,Myrtle-Wyckoff Avs,-73.911586,40.699814,502.99038434028625
12:07:30,1,L19,Halsey St,-73.904084,40.695602,531.9903843402863
12:07:30,1,L20,Wilson Av,-73.904046,40.688764,641.9903843402863
12:07:30,1,L21,Bushwick Av-Aberdeen St,-73.905249,40.682829,724.9903843402863
12:07:30,1,L22,Broadway Junction,-73.90324,40.678856,765.9903843402863
12:07:30,1,L24,Atlantic Av,-73.903097,40.675345,824.9903843402863
12:07:30,1,L25,Sutter Av,-73.901975,40.669367,897.9903843402863
12:07:30,1,L26,Livonia Av,-73.900571,40.664038,946.9903843402861
12:07:30,1,L27,New Lots Av,-73.899232,40.658733,991.9903843402863
12:07:30,1,L28,East 105 St,-73.899485,40.650573,1075.9903843402863
12:07:30,1,L29,Canarsie-Rockaway Pkwy,-73.90185,40.646654,1147.9903843402863
12:07:30,0,M01,Middle Village-Metropolitan Av,-73.889601,40.711396,0.0
12:07:30,0,M04,Fresh Pond Rd,-73.895877,40.706186,56.0
12:07:30,0,M05,Forest Av,-73.903077,40.704423,138.0
12:07:30,0,M06,Seneca Av,-73.90774,40.702762,210.0
12:07:30,0,M08,Myrtle-Wyckoff Avs,-73.912385,40.69943,264.0
12:07:30,0,M09,Knickerbocker Av,-73.919711,40.698664,367.0
12:07:30,0,M10,Central Av,-73.927397,40.697857,432.0
12:07:30,0,M11,Myrtle Av,-73.935657,40.697207,542.0
12:07:30,0,M12,Flushing Av,-73.941126,40.70026,659.9126214981079
12:07:30,0,M13,Lorimer St,-73.947408,40.703869,725.9126214981078
12:07:30,0,M14,Hewes St,-73.953431,40.70687,795.9126214981078
12:07:30,0,M16,Marcy Av,-73.957757,40.708359,829.9126214981079
12:07:30,0,M18,Delancey St-Essex St,-73.987437,40.718315,1187.912621498108
12:07:30,0,M19,Bowery,-73.993915,40.72028,1249.912621498108
12:07:30,0,M20,Canal St,-73.999892,40.718092,1329.912621498108
12:07:30,0,M21,Chambers St,-74.003401,40.713243,1425.912621498108
12:07:30,0,M22,Fulton St,-74.007582,40.710374,1490.912621498108
12:07:30,0,M23,Broad St,-74.011056,40.706476,1554.912621498108
13:37:30,0,N02,8 Av,-74.011719,40.635064,2840.6337745189667
13:37:30,0,N03,Fort Hamilton Pkwy,-74.005351,40.631386,2961.6337745189667
13:37:30,0,N04,New Utrecht Av,-73.996353,40.624842,3081.6337745189667
13:37:30,0,N05,18 Av,-73.990414,40.620671,3152.633774518966
13:37:30,0,N06,20 Av,-73.985026,40.61741,3217.6337745189667
13:37:30,0,N07,Bay Pkwy,-73.981848,40.611815,3295.633774518966
13:37:30,0,N08,Kings Hwy,-73.980353,40.603923,3404.633774518967
13:37:30,0,N09,Avenue U,-73.979137,40.597473,3372.0192744731894
13:37:30,0,N10,86 St,-73.97823,40.592721,3307.0192744731894
12:07:30,2,Q01,Canal St,-74.00046,40.718383,1555.6337745189667
12:57:30,0,Q03,72 St,-73.958424,40.768799,2106.9514241218567
12:57:30,0,Q04,86 St,-73.951787,40.777891,2225.9514241218567
12:57:30,0,Q05,96 St,-73.947152,40.784318,2294.9514241218562
12:07:30,1,R01,Astoria-Ditmars Blvd,-73.912034,40.775036,2263.963358402252
12:07:30,1,R03,Astoria Blvd,-73.917843,40.770258,2188.963358402252
12:07:30,1,R04,30 Av,-73.921479,40.766779,2116.963358402252
12:07:30,1,R05,Broadway,-73.925508,40.76182,2051.9633584022517
12:07:30,1,R06,36 Av,-73.929575,40.756804,1981.963358402252
12:07:30,1,R08,39 Av-Dutch Kills,-73.932755,40.752882,1903.9633584022522
12:07:30,1,R09,Queensboro Plaza,-73.940202,40.750582,1783.9633584022522
12:07:30,2,R11,Lexington Av/59 St,-73.967258,40.76266,1985.9633584022522
12:07:30,2,R13,5 Av/59 St,-73.973347,40.764811,1984.2014241218565
12:07:30,2,R14,57 St-7 Av,-73.980658,40.764664,1806.9514241218567
12:07:30,2,R15,49 St,-73.984139,40.759901,1782.2014241218567
12:07:30,2,R16,Times Sq-42 St,-73.986754,40.754672,1668.9514241218567
12:07:30,2,R17,34 St-Herald Sq,-73.98795,40.749567,1593.9514241218567
12:07:30,2,R18,28 St,-73.988691,40.745494,1588.9514241218565
12:07:30,2,R19,23 St,-73.989344,40.741303,1523.9514241218565
12:07:30,2,R20,14 St-Union Sq,-73.990568,40.735736,1458.9514241218567
12:07:30,2,R21,8 St-NYU,-73.992629,40.730328,1548.9514241218567
12:07:30,1,R22,Prince St,-73.997702,40.724329,1626.9514241218567
12:07:30,1,R23,Canal St,-74.001775,40.719527,1675.6337745189667
12:07:30,1,R24,City Hall,-74.006978,40.713282,1795.6337745189667
12:07:30,1,R25,Cortlandt St,-74.011029,40.710668,1874.097526073456
12:07:30,1,R26,Rector St,-74.013342,40.70722,1978.6337745189664
12:27:30,1,R27,Whitehall St-South Ferry,-74.012994,40.703087,2044.097526073456
12:27:30,1,R28,Court St,-73.991777,40.6941,1898.9126214981077
12:27:30,1,R29,Jay St-MetroTech,-73.985942,40.69218,1825.912621498108
12:15:30,1,R30,DeKalb Av,-73.981824,40.690635,1925.8435568809512
13:37:30,0,R31,Atlantic Av-Barclays Ctr,-73.97881,40.683666,2066.162621498108
13:37:30,0,R32,Union St,-73.98311,40.677316,2184.593556880951
13:37:30,0,R33,4 Av-9 St,-73.988302,40.670847,2262.3435568809514
13:37:30,0,R34,Prospect Av,-73.992872,40.665414,2352.3435568809514
13:37:30,0,R35,25 St,-73.998091,40.660397,2408.1626214981084
13:37:30,0,R36,36 St,-74.003549,40.655144,2465.6337745189667
13:37:30,0,R39,45 St,-74.010006,40.648939,2628.633774518967
13:37:30,0,R40,53 St,-74.014034,40.645069,2695.633774518967
13:37:30,0,R41,59 St,-74.017881,40.641362,2705.6337745189667
13:37:30,0,R42,Bay Ridge Av,-74.023377,40.634967,2860.17431473732
13:37:30,0,R43,77 St,-74.02551,40.629742,2923.17431473732
13:37:30,0,R44,86 St,-74.028398,40.622687,3048.17431473732
13:37:30,0,R45,Bay Ridge-95 St,-74.030876,40.616622,3109.17431473732
12:07:30,3,S01,Franklin Av,-73.955827,40.680596,1509.3792726993559
12:07:30,3,S03,Park Pl,-73.957624,40.674772,1628.379272699356
12:07:30,3,S04,Botanic Garden,-73.959245,40.670343,1694.3792726993559
