start_time,ntransfers,stop_id,stop_name,stop_lon,stop_lat,duration
12:01:00,0,101,Van Cortlandt Park-242 St,-73.898583,40.889248,240.0
12:01:00,0,103,238 St,-73.90087,40.884667,201.0
12:01:00,0,104,231 St,-73.904834,40.878856,140.99999999999997
12:01:00,0,106,Marble Hill-225 St,-73.909831,40.874561,72.0
12:13:30,0,107,215 St,-73.915279,40.869444,0.0
12:01:30,0,108,207 St,-73.918822,40.864621,66.0
12:01:30,0,109,Dyckman St,-73.925536,40.860531,122.99999999999999
12:01:30,0,110,191 St,-73.929412,40.855225,180.0
12:01:30,0,111,181 St,-73.933596,40.849505,257.0
12:01:30,0,112,168 St-Washington Hts,-73.940133,40.840556,345.0
12:01:30,0,113,157 St,-73.94489,40.834041,412.0
12:01:30,0,114,145 St,-73.95036,40.826551,511.00000000000006
12:01:30,0,115,137 St-City College,-73.953676,40.822008,563.0000000000001
12:01:30,0,116,125 St,-73.958372,40.815581,631.0
12:01:30,0,117,116 St-Columbia University,-73.96411,40.807722,734.0
12:01:30,0,118,Cathedral Pkwy (110 St),-73.966847,40.803967,758.0000000000001
12:01:30,0,119,103 St,-73.968379,40.799446,831.0000000000001
12:01:30,0,120,96 St,-73.972323,40.793919,927.0000000000001
12:01:30,0,121,86 St,-73.976218,40.788644,1015.0000000000001
12:01:30,0,122,79 St,-73.979917,40.783934,1088.0
12:13:30,0,123,72 St,-73.98197,40.778453,1159.0
12:01:30,0,124,66 St-Lincoln Center,-73.982209,40.77344,1236.0
12:01:30,0,125,59 St-Columbus Circle,-73.981929,40.768247,1290.0
12:01:30,0,126,50 St,-73.983849,40.761728,1381.0
12:13:30,0,127,Times Sq-42 St,-73.987495,40.75529,1444.5268312454223
12:13:30,0,128,34 St-Penn Station,-73.991057,40.750373,1534.5268312454223
12:01:30,0,129,28 St,-73.993365,40.747215,1625.0
12:01:30,0,130,23 St,-73.995657,40.744081,1685.0
12:01:30,0,131,18 St,-73.997871,40.74104,1745.0
12:13:30,0,132,14 St,-74.000201,40.737826,1671.5268312454223
12:01:30,0,133,Christopher St-Sheridan Sq,-74.002906,40.733422,1888.0
12:01:30,0,134,Houston St,-74.005367,40.728251,1944.0
12:01:30,0,135,Canal St,-74.006277,40.722854,2001.0
12:01:30,0,136,Franklin St,-74.006886,40.719318,2048.0
12:13:30,0,137,Chambers St,-74.009266,40.715478,1885.5268312454223
12:01:30,0,138,WTC Cortlandt,-74.012188,40.711835,2130.0
12:01:30,0,139,Rector St,-74.013783,40.707513,2203.0
12:01:30,0,142,South Ferry,-74.013664,40.702068,2281.0
12:01:30,4,201,Wakefield-241 St,-73.85062,40.903125,3436.870932149887
12:01:30,4,204,Nereid Av,-73.854376,40.898379,3334.870932149887
12:01:30,4,205,233 St,-73.857473,40.893193,3294.870932149887
12:01:30,4,206,225 St,-73.860341,40.888022,3209.8709321498873
12:01:30,4,207,219 St,-73.862633,40.883895,3131.070932149887
12:01:30,4,208,Gun Hill Rd,-73.866256,40.87785,3029.3709321498873
12:01:30,4,209,Burke Av,-73.867164,40.871356,2963.5709321498866
12:01:30,4,210,Allerton Av,-73.867352,40.865462,2880.5709321498866
12:01:30,4,211,Pelham Pkwy,-73.867615,40.857192,2781.570932149887
12:01:30,4,212,Bronx Park East,-73.868457,40.848828,2670.5709321498866
12:01:30,4,213,E 180 St,-73.873488,40.841894,2526.570932149887
12:01:30,4,214,West Farms Sq-E Tremont Av,-73.880049,40.840295,2488.4295899391172
12:01:30,4,215,174 St,-73.887734,40.837288,2384.4295899391172
12:01:30,4,216,Freeman St,-73.891865,40.829993,2288.4295899391172
12:01:30,4,217,Simpson St,-73.893064,40.824073,2179.4295899391172
12:01:30,4,218,Intervale Av,-73.896736,40.822181,2111.4295899391172
12:01:30,4,219,Prospect Av,-73.90177,40.819585,2044.2295899391172
12:01:30,4,220,Jackson Av,-73.907807,40.81649,1959.2295899391174
12:01:30,4,221,3 Av-149 St,-73.917757,40.816109,1847.2295899391174
12:07:30,0,222,149 St-Grand Concourse,-73.926718,40.81841,1759.2295899391177
12:07:30,0,224,135 St,-73.94077,40.814229,1623.2295899391177
12:07:30,0,225,125 St,-73.945495,40.807754,1531.2295899391177
12:07:30,0,226,116 St,-73.949625,40.802098,1452.2295899391177
12:07:30,0,227,Central Park North (110 St),-73.951822,40.799075,1395.2295899391177
12:13:30,0,228,Park Place,-74.008811,40.713051,1966.526831245422
12:13:30,0,229,Fulton St,-74.006571,40.709416,2072.726831245422
12:13:30,0,230,Wall St,-74.0091,40.706821,2137.7727298736577
12:13:30,0,231,Clark St,-73.993086,40.697466,2303.772729873657
12:13:30,0,232,Borough Hall,-73.989998,40.693219,2395.726831245422
12:13:30,0,233,Hoyt St,-73.985065,40.690545,2475.7268312454225
12:13:30,0,234,Nevins St,-73.980492,40.688246,2547.7268312454225
12:13:30,0,235,Atlantic Av-Barclays Ctr,-73.977666,40.684359,2624.7268312454225
12:13:30,0,236,Bergen St,-73.975098,40.680829,2692.7727298736577
12:13:30,0,237,Grand Army Plaza,-73.971046,40.675235,2760.7268312454225
12:13:30,0,238,Eastern Pkwy-Brooklyn Museum,-73.964375,40.671987,2848.7268312454225
12:13:30,0,239,Franklin Av-Medgar Evers College,-73.958131,40.670682,2887.2146356582643
12:13:30,0,241,President St-Medgar Evers College,-73.950683,40.667883,3036.315068292618
12:13:30,0,242,Sterling St,-73.95085,40.662742,3109.315068292618
12:13:30,0,243,Winthrop St,-73.9502,40.656652,3176.315068292618
12:13:30,0,244,Church Av,-73.949575,40.650843,3230.315068292618
12:13:30,0,245,Beverly Rd,-73.948959,40.645098,3286.315068292618
12:13:30,0,246,Newkirk Av-Little Haiti,-73.948411,40.639967,3359.315068292618
12:13:30,0,247,Flatbush Av-Brooklyn College,-73.947642,40.632836,3417.315068292618
12:01:30,0,248,Nostrand Av,-73.950466,40.669847,2995.1146356582644
12:01:30,0,249,Kingston Av,-73.942161,40.669399,3041.1146356582644
12:13:30,0,250,Crown Hts-Utica Av,-73.932942,40.668897,3016.414635658265
12:01:30,0,251,Sutter Av-Rutland Rd,-73.92261,40.664717,3143.414635658265
12:01:30,0,252,Saratoga Av,-73.916327,40.661453,3237.414635658265
12:01:30,0,253,Rockaway Av,-73.908946,40.662549,3212.646133804321
12:01:30,0,254,Junius St,-73.902447,40.663515,3150.646133804321
12:01:30,0,255,Pennsylvania Av,-73.894895,40.664635,3239.646133804321
12:01:30,0,256,Van Siclen Av,-73.889395,40.665449,3307.646133804321
12:01:30,0,257,New Lots Av,-73.884079,40.666235,3357.5327193737025
12:19:30,0,301,Harlem-148 St,-73.93647,40.82388,1798.0033091545108
12:19:30,0,302,145 St,-73.936245,40.820421,1721.2295899391177
12:55:30,3,401,Woodlawn,-73.878751,40.886037,2314.440616846084
12:55:30,3,402,Mosholu Pkwy,-73.884655,40.87975,2232.440616846084
12:55:30,3,405,Bedford Park Blvd-Lehman College,-73.890064,40.873412,2135.440616846084
12:55:30,3,406,Kingsbridge Rd,-73.897174,40.86776,2056.2485644817352
12:55:30,3,407,Fordham Rd,-73.901034,40.862803,1968.2485644817352
12:55:30,3,408,183 St,-73.903879,40.858407,1893.2485644817352
12:55:30,3,409,Burnside Av,-73.907684,40.853453,1817.2485644817352
12:55:30,3,410,176 St,-73.911794,40.84848,1753.4406168460841
12:55:30,3,411,Mt Eden Av,-73.914685,40.844434,1684.4406168460844
12:55:30,3,412,170 St,-73.917791,40.840075,1611.4406168460844
12:55:30,3,413,167 St,-73.9214,40.835537,1531.4406168460844
12:55:30,3,414,161 St-Yankee Stadium,-73.925831,40.827994,1433.4406168460846
12:43:30,3,415,149 St-Grand Concourse,-73.927351,40.818375,1585.2485644817352
12:01:30,3,416,138 St-Grand Concourse,-73.929849,40.813224,1676.248564481735
13:49:30,1,418,Fulton St,-74.009509,40.710368,2248.4809193611145
13:49:30,1,419,Wall St,-74.011862,40.707557,2315.4809193611145
13:49:30,1,420,Bowling Green,-74.014065,40.704817,2380.4809193611145
12:01:30,0,423,Borough Hall,-73.990151,40.692404,2606.4809193611145
13:43:30,0,501,Eastchester-Dyre Av,-73.830834,40.8883,3104.570932149887
12:01:30,3,502,Baychester Av,-73.838591,40.878663,3039.570932149887
12:01:30,3,503,Gun Hill Rd,-73.846384,40.869526,2921.570932149887
12:01:30,3,504,Pelham Pkwy,-73.855359,40.858985,2795.570932149887
12:01:30,3,505,Morris Park,-73.860495,40.854364,2715.5709321498866
12:01:30,3,601,Pelham Bay Park,-73.828121,40.852462,3158.2834753513334
12:01:30,3,602,Buhre Av,-73.832569,40.84681,3056.9834753513333
12:01:30,3,603,Middletown Rd,-73.836322,40.843863,3010.9834753513333
12:01:30,3,604,Westchester Sq-E Tremont Av,-73.842952,40.839892,2923.9834753513333
12:01:30,3,606,Zerega Av,-73.847036,40.836488,2852.0834753513336
12:01:30,3,607,Castle Hill Av,-73.851222,40.834255,2792.0834753513336
12:01:30,3,608,Parkchester,-73.860816,40.833226,2739.4834753513337
12:01:30,3,609,St Lawrence Av,-73.867618,40.831509,2925.928990602493
12:01:30,3,610,Morrison Av-Soundview,-73.874516,40.829521,2853.928990602493
12:01:30,3,611,Elder Av,-73.879159,40.828584,2820.928990602493
12:01:30,3,612,Whitlock Av,-73.886283,40.826525,2730.928990602493
12:01:30,3,613,Hunts Point Av,-73.890549,40.820948,2554.5834753513336
12:01:30,3,614,Longwood Av,-73.896435,40.816104,2583.9289906024933
12:01:30,3,615,E 149 St,-73.904098,40.812118,2512.9289906024933
12:01:30,3,616,E 143 St-St Mary's St,-73.907657,40.808719,2461.9289906024933
12:01:30,3,617,Cypress Av,-73.914042,40.805368,2356.9289906024933
12:01:30,3,618,Brook Av,-73.91924,40.807566,2296.9289906024933
12:01:30,3,619,3 Av-138 St,-73.926138,40.810476,2205.9289906024933
12:01:30,3,621,125 St,-73.937594,40.804138,1818.4406168460846
12:01:30,3,622,116 St,-73.941617,40.798629,2117.9289906024933
12:01:30,3,623,110 St,-73.94425,40.79502,2188.9289906024933
12:01:30,3,624,103 St,-73.947478,40.7906,2246.9289906024933
12:01:30,3,625,96 St,-73.95107,40.785672,2186.4809193611145
12:01:30,3,626,86 St,-73.955589,40.779492,2030.4809193611145
12:01:30,2,627,77 St,-73.959874,40.77362,2007.4809193611145
12:01:30,2,628,68 St-Hunter College,-73.96387,40.768141,1923.4809193611145
12:01:30,2,629,59 St,-73.967967,40.762526,1834.4809193611145
12:01:30,2,630,51 St,-73.97192,40.757107,1745.4809193611145
12:01:30,2,631,Grand Central-42 St,-73.976848,40.751776,1704.4809193611145
12:01:30,2,632,33 St,-73.982076,40.746081,1791.4809193611145
12:01:30,2,633,28 St,-73.984264,40.74307,1853.4809193611145
12:01:30,2,634,23 St,-73.986599,40.739864,1887.4809193611145
12:25:30,2,635,14 St-Union Sq,-73.989951,40.734673,1915.4809193611145
12:13:30,2,636,Astor Pl,-73.99107,40.730054,2055.2809193611142
12:13:30,2,637,Bleecker St,-73.994659,40.725915,2136.2809193611142
12:31:30,2,638,Spring St,-73.997141,40.722301,2197.2809193611142
12:31:30,2,639,Canal St,-74.000193,40.718803,2229.280919361114
12:13:30,2,640,Brooklyn Bridge-City Hall,-74.004131,40.713065,2151.4809193611145
12:01:30,2,701,Flushing-Main St,-73.83003,40.7596,2948.6809193611143
12:01:30,2,702,Mets-Willets Point,-73.845625,40.754622,2847.778792858124
12:01:30,2,705,111 St,-73.855334,40.75173,2809.6809193611143
12:01:30,2,706,103 St-Corona Plaza,-73.8627,40.749865,2745.6809193611143
12:01:30,2,707,Junction Blvd,-73.869527,40.749145,2691.778792858124
12:01:30,2,708,90 St-Elmhurst Av,-73.876613,40.748408,2638.6809193611143
12:01:30,2,709,82 St-Jackson Hts,-73.883697,40.747659,2578.6809193611143
12:01:30,2,710,74 St-Broadway,-73.891394,40.746848,2512.6809193611143
12:01:30,2,711,69 St,-73.896403,40.746325,2454.680919361114
12:01:30,2,712,61 St-Woodside,-73.902984,40.74563,2401.6809193611143
13:49:30,1,713,52 St,-73.912549,40.744149,2315.6809193611143
13:49:30,1,714,46 St-Bliss St,-73.918435,40.743132,2272.6809193611143
13:49:30,1,715,40 St-Lowery St,-73.924016,40.743781,2232.6809193611143
13:49:30,1,716,33 St-Rawson St,-73.930997,40.744587,2176.6809193611143
13:49:30,1,718,Queensboro Plaza,-73.940202,40.750582,2062.680919361115
13:49:30,1,719,Court Sq,-73.945264,40.747023,1977.6809193611148
13:49:30,1,720,Hunters Point Av,-73.948916,40.742216,1893.6809193611145
13:49:30,1,721,Vernon Blvd-Jackson Av,-73.953581,40.742626,1876.4809193611143
13:49:30,1,723,Grand Central-42 St,-73.976041,40.751431,1677.4809193611143
13:49:30,1,724,5 Av,-73.981963,40.753821,1619.6809193611143
12:01:30,2,725,Times Sq-42 St,-73.987691,40.755477,1585.4809193611145
13:01:30,1,726,34 St-Hudson Yards,-74.00191,40.755882,1715.4809193611145
13:01:30,1,901,Grand Central-42 St,-73.979189,40.752769,1584.4809193611145
13:01:30,1,902,Times Sq-42 St,-73.986229,40.755983,1525.4809193611145
12:13:30,1,A02,Inwood-207 St,-73.919899,40.868072,1014.2827205657957
12:13:30,1,A03,Dyckman St,-73.927271,40.865491,954.2827205657958
12:13:30,1,A05,190 St,-73.93418,40.859022,839.2827205657959
12:13:30,1,A06,181 St,-73.937969,40.851695,764.2827205657959
12:13:30,1,A07,175 St,-73.939704,40.847391,704.2827205657959
12:43:30,1,A09,168 St,-73.939561,40.840719,591.2827205657959
12:13:30,1,A10,163 St-Amsterdam Av,-73.939892,40.836013,651.2827205657959
12:13:30,1,A11,155 St,-73.941514,40.830518,711.2827205657959
12:49:30,1,A12,145 St,-73.944216,40.824783,776.2827205657959
12:13:30,1,A14,135 St,-73.947649,40.817894,851.2827205657959
12:13:30,1,A15,125 St,-73.952343,40.811109,930.2827205657959
12:13:30,1,A16,116 St,-73.954882,40.805085,1003.2827205657959
12:13:30,1,A17,Cathedral Pkwy (110 St),-73.958161,40.800603,1063.282720565796
12:13:30,1,A18,103 St,-73.961454,40.796092,1123.282720565796
12:13:30,1,A19,96 St,-73.964696,40.791642,1183.282720565796
12:13:30,1,A20,86 St,-73.968916,40.785868,1247.282720565796
12:13:30,1,A21,81 St-Museum of Natural History,-73.972143,40.781433,1307.282720565796
12:13:30,1,A22,72 St,-73.97641,40.775594,1372.282720565796
13:43:30,1,A24,59 St-Columbus Circle,-73.981736,40.768296,1346.2827205657961
12:55:30,1,A25,50 St,-73.985984,40.762456,1486.043475151062
13:43:30,1,A27,42 St-Port Authority Bus Terminal,-73.989735,40.757308,1471.182720565796
13:43:30,1,A28,34 St-Penn Station,-73.993391,40.752287,1534.182720565796
12:49:30,1,A30,23 St,-73.998041,40.745906,1717.5809193611144
13:43:30,1,A31,14 St,-74.00169,40.740893,1654.182720565796
13:43:30,1,A32,W 4 St-Wash Sq,-74.000495,40.732338,1769.1827205657962
12:49:30,1,A33,Spring St,-74.003739,40.726227,1929.1827205657962
13:43:30,1,A34,Canal St,-74.005229,40.720824,1897.1827205657962
13:43:30,1,A36,Chambers St,-74.008585,40.714111,1987.182720565796
13:43:30,1,A38,Fulton St,-74.007691,40.710197,2052.182720565796
13:43:30,1,A40,High St,-73.990531,40.699337,2222.1827205657964
13:43:30,1,A41,Jay St-MetroTech,-73.987342,40.692338,2338.182720565796
13:43:30,1,A42,Hoyt-Schermerhorn Sts,-73.985001,40.688484,2410.182720565796
12:55:30,1,A43,Lafayette Av,-73.973946,40.686113,2597.9721955299383
12:55:30,1,A44,Clinton-Washington Avs,-73.965838,40.683263,2657.9721955299383
13:43:30,1,A45,Franklin Av,-73.956848,40.68138,2730.9721955299383
13:43:30,1,A46,Nostrand Av,-73.950426,40.680438,2645.182720565796
12:55:30,1,A47,Kingston-Throop Avs,-73.940858,40.679921,2713.182720565796
13:43:30,1,A48,Utica Av,-73.930729,40.679364,2777.1827205657964
12:55:30,1,A49,Ralph Av,-73.920786,40.678822,2853.3827205657963
12:55:30,1,A50,Rockaway Av,-73.911946,40.67834,2916.3827205657963
13:43:30,1,A51,Broadway Junction,-73.905316,40.678334,2902.8216089248654
13:43:30,1,A52,Liberty Av,-73.896548,40.674542,3022.8216089248654
13:43:30,1,A53,Van Siclen Av,-73.890358,40.67271,3087.8216089248654
13:43:30,1,A54,Shepherd Av,-73.88075,40.67413,3156.8216089248654
13:43:30,1,A55,Euclid Av,-73.872106,40.675377,3147.8216089248654
13:43:30,1,A57,Grant Av,-73.86505,40.677044,3230.8216089248654
13:43:30,1,A59,80 St,-73.858992,40.679371,3290.8216089248654
13:43:30,1,A60,88 St,-73.85147,40.679843,3353.8216089248654
13:43:30,1,A61,Rockaway Blvd,-73.843853,40.680429,3413.8216089248654
13:43:30,1,A63,104 St,-73.837683,40.681711,3473.8216089248654
13:55:30,1,A64,111 St,-73.832163,40.684331,3532.8216089248654
13:55:30,1,A65,Ozone Park-Lefferts Blvd,-73.825798,40.685951,3594.8216089248654
13:25:30,1,B04,21 St-Queensbridge,-73.942836,40.754203,2293.413513708115
13:25:30,1,B06,Roosevelt Island,-73.95326,40.759145,2209.9166907290014
13:25:30,1,B08,Lexington Av/63 St,-73.966113,40.764629,1879.2809193611142
13:25:30,1,B10,57 St,-73.97745,40.763972,1988.6406168460846
12:55:30,1,B12,9 Av,-73.994324,40.646292,3139.140616846085
12:55:30,1,B13,Fort Hamilton Pkwy,-73.994304,40.640914,3204.1406168460853
12:55:30,1,B14,50 St,-73.994791,40.63626,3264.1406168460853
12:55:30,1,B15,55 St,-73.995476,40.631435,3327.140616846085
12:55:30,1,B16,62 St,-73.996895,40.626472,3362.1406168460853
12:55:30,1,B17,71 St,-73.998864,40.619589,3432.140616846085
12:55:30,1,B18,79 St,-74.00061,40.613501,3500.140616846085
12:55:30,1,B19,18 Av,-74.001736,40.607954,3560.140616846085
12:55:30,1,B20,20 Av,-73.998168,40.604556,3620.140616846085
12:55:30,1,B21,Bay Pkwy,-73.993728,40.601875,3680.140616846085
13:25:30,1,B22,25 Av,-73.986829,40.597704,3785.140616846085
13:25:30,1,B23,Bay 50 St,-73.983765,40.588841,3910.1406168460844
12:55:30,2,D01,Norwood-205 St,-73.878855,40.874811,1817.0406168460843
12:55:30,2,D03,Bedford Park Blvd,-73.887138,40.873244,1742.2406168460843
12:55:30,2,D04,Kingsbridge Rd,-73.893509,40.866978,1669.2406168460845
12:55:30,2,D05,Fordham Rd,-73.897749,40.861296,1602.2406168460843
12:55:30,2,D06,182-183 Sts,-73.900741,40.856093,1542.2406168460843
12:55:30,2,D07,Tremont Av,-73.905227,40.85041,1482.2406168460843
12:55:30,2,D08,174-175 Sts,-73.910136,40.8459,1447.4406168460846
12:55:30,2,D09,170 St,-73.9134,40.839306,1377.4406168460844
12:55:30,2,D10,167 St,-73.91844,40.833771,1307.4406168460844
12:55:30,2,D11,161 St-Yankee Stadium,-73.925651,40.827905,1208.4406168460846
12:55:30,2,D12,155 St,-73.938209,40.830135,1093.4406168460844
12:13:30,1,D13,145 St,-73.944216,40.824783,1005.3071105480195
13:43:30,1,D14,7 Av,-73.981637,40.762862,1483.6406168460846
13:43:30,1,D15,47-50 Sts-Rockefeller Ctr,-73.981329,40.758663,1553.6406168460846
13:43:30,1,D16,42 St-Bryant Pk,-73.984569,40.754222,1616.6406168460849
13:43:30,1,D17,34 St-Herald Sq,-73.987823,40.749719,1676.6406168460849
13:43:30,1,D18,23 St,-73.992821,40.742878,1940.9865372180939
13:43:30,1,D19,14 St,-73.996209,40.738228,1999.182720565796
13:43:30,1,D20,W 4 St-Wash Sq,-74.000495,40.732338,1821.6406168460849
13:43:30,1,D21,Broadway-Lafayette St,-73.996204,40.725297,1941.6406168460849
13:43:30,1,D22,Grand St,-73.993753,40.718267,2061.640616846085
13:43:30,1,D24,Atlantic Av-Barclays Ctr,-73.97689,40.68446,2603.4809193611145
13:43:30,1,D25,7 Av,-73.972367,40.67705,2723.4809193611145
13:43:30,1,D26,Prospect Park,-73.962246,40.661614,2886.4809193611145
13:43:30,1,D27,Parkside Av,-73.961495,40.655292,2946.4809193611145
13:43:30,1,D28,Church Av,-73.962982,40.650527,3011.4809193611145
13:49:30,1,D29,Beverley Rd,-73.964492,40.644031,3051.4809193611145
13:49:30,1,D30,Cortelyou Rd,-73.963891,40.640927,3109.4809193611145
13:43:30,1,D31,Newkirk Plaza,-73.962793,40.635082,3180.171396970749
12:01:30,1,D32,Avenue H,-73.961639,40.62927,3226.4809193611145
12:01:30,1,D33,Avenue J,-73.960803,40.625039,3286.4809193611145
12:01:30,1,D34,Avenue M,-73.959399,40.617618,3354.4809193611145
13:43:30,1,D35,Kings Hwy,-73.957734,40.60867,3375.171396970749
13:43:30,1,D37,Avenue U,-73.955929,40.5993,3527.4809193611145
13:43:30,1,D38,Neck Rd,-73.955161,40.595246,3582.4809193611145
13:43:30,1,D39,Sheepshead Bay,-73.954155,40.586896,3563.171396970749
13:43:30,1,D40,Brighton Beach,-73.961376,40.577621,3621.1713969707494
12:31:30,1,D41,Ocean Pkwy,-73.968501,40.576312,3819.171396970749
12:31:30,1,D42,W 8 St-NY Aquarium,-73.975939,40.576127,3825.2435881614697
12:31:30,1,D43,Coney Island-Stillwell Av,-73.981233,40.577422,3901.04358816147
13:43:30,1,E01,World Trade Center,-74.009781,40.712582,2008.9746269226073
12:13:30,1,F01,Jamaica-179 St,-73.783817,40.712646,3295.105355262757
12:49:30,1,F02,169 St,-73.793604,40.71047,3275.305355262757
12:31:30,1,F03,Parsons Blvd,-73.803326,40.707564,3111.5053552627564
12:31:30,1,F04,Sutphin Blvd,-73.810708,40.70546,3120.4809193611145
12:31:30,1,F05,Briarwood,-73.820574,40.709179,2968.305355262756
12:31:30,1,F06,Kew Gardens-Union Tpke,-73.831008,40.714441,2855.3053552627566
12:31:30,1,F07,75 Av,-73.837324,40.718331,2790.305355262756
12:31:30,1,F09,Court Sq-23 St,-73.946,40.747846,2010.4809193611143
12:31:30,1,F11,Lexington Av/53 St,-73.969055,40.757552,1835.4809193611143
12:31:30,1,F12,5 Av/53 St,-73.975224,40.760167,1775.4809193611143
12:55:30,1,F14,2 Av,-73.989938,40.723402,2189.1827205657964
12:55:30,1,F15,Delancey St-Essex St,-73.988114,40.718611,2254.1827205657964
12:55:30,1,F16,East Broadway,-73.990173,40.713715,2314.1827205657964
12:55:30,1,F18,York St,-73.986751,40.701397,2439.1827205657964
12:49:30,1,F20,Bergen St,-73.990862,40.686145,2595.643588161469
12:49:30,1,F21,Carroll St,-73.995048,40.680303,2673.9435881614686
12:49:30,1,F22,Smith-9 Sts,-73.995959,40.67358,2791.943588161469
12:49:30,1,F23,4 Av-9 St,-73.989779,40.670272,2851.943588161469
12:49:30,1,F24,7 Av,-73.980305,40.666271,2800.9435881614686
12:49:30,1,F25,15 St-Prospect Park,-73.979493,40.660365,2926.1087271213532
12:49:30,1,F26,Fort Hamilton Pkwy,-73.975776,40.650782,3046.1087271213532
12:49:30,1,F27,Church Av,-73.979678,40.644041,3029.943588161469
13:25:30,1,F29,Ditmas Av,-73.978172,40.636119,3149.943588161469
13:25:30,1,F30,18 Av,-73.976971,40.629755,3238.443588161469
13:25:30,1,F31,Avenue I,-73.976127,40.625322,3298.443588161469
13:25:30,1,F32,Bay Pkwy,-73.975264,40.620769,3357.443588161469
13:25:30,1,F33,Avenue N,-73.974197,40.61514,3422.443588161469
13:25:30,1,F34,Avenue P,-73.973022,40.608944,3482.443588161469
13:25:30,1,F35,Kings Hwy,-73.972361,40.603217,3547.4435881614695
13:49:30,1,F36,Avenue U,-73.973357,40.596063,3612.7435881614692
13:49:30,1,F38,Avenue X,-73.97425,40.58962,3677.7435881614692
13:43:30,1,F39,Neptune Av,-73.974574,40.581011,3758.2435881614697
12:31:30,1,G05,Jamaica Center-Parsons/Archer,-73.801109,40.702147,3205.3053552627566
12:31:30,1,G06,Sutphin Blvd-Archer Av-JFK Airport,-73.807969,40.700486,3140.3053552627566
12:31:30,1,G07,Jamaica-Van Wyck,-73.816859,40.702566,3035.3053552627566
12:31:30,1,G08,Forest Hills-71 Av,-73.844521,40.721691,2720.3053552627566
12:13:30,1,G09,67 Av,-73.852719,40.726523,2772.380919361114
12:13:30,1,G10,63 Dr-Rego Park,-73.861604,40.729846,2705.880919361114
12:13:30,1,G11,Woodhaven Blvd,-73.869229,40.733106,2644.680919361114
12:13:30,1,G12,Grand Av-Newtown,-73.877223,40.737015,2569.680919361114
12:13:30,1,G13,Elmhurst Av,-73.882017,40.742454,2505.480919361114
12:31:30,1,G14,Jackson Hts-Roosevelt Av,-73.891338,40.746644,2410.3053552627566
12:31:30,1,G15,65 St,-73.898453,40.749669,2500.480919361114
12:31:30,1,G16,Northern Blvd,-73.906006,40.752885,2565.4809193611145
13:43:30,1,G18,46 St,-73.913333,40.756312,2513.4809193611145
13:43:30,1,G19,Steinway St,-73.92074,40.756879,2440.480919361114
13:43:30,1,G20,36 St,-73.928781,40.752039,2320.480919361114
12:31:30,1,G21,Queens Plaza,-73.937243,40.748973,2110.3053552627566
12:01:30,2,G22,Court Sq,-73.943832,40.746554,2037.6809193611148
12:01:30,2,G24,21 St,-73.949724,40.744065,2097.680919361115
12:01:30,2,G26,Greenpoint Av,-73.954449,40.731352,2217.680919361115
12:01:30,2,G28,Nassau Av,-73.951277,40.724635,2295.680919361115
12:01:30,2,G29,Metropolitan Av,-73.951418,40.712792,2318.397004747391
12:01:30,2,G30,Broadway,-73.950308,40.706092,2388.397004747391
12:01:30,2,G31,Flushing Av,-73.950234,40.700377,2449.9970047473907
12:01:30,2,G32,Myrtle-Willoughby Avs,-73.949046,40.694568,2509.9970047473907
12:01:30,2,G33,Bedford-Nostrand Avs,-73.953522,40.689627,2589.9970047473907
13:55:30,1,G34,Classon Av,-73.96007,40.688873,2649.9970047473907
13:55:30,1,G35,Clinton-Washington Avs,-73.966839,40.688089,2709.9970047473907
13:55:30,1,G36,Fulton St,-73.975375,40.687119,2710.574024343491
12:07:30,1,H01,Aqueduct Racetrack,-73.834058,40.668234,3588.821608924865
12:31:30,1,H02,Aqueduct-N Conduit Av,-73.834058,40.668234,3625.182720565796
12:31:30,1,H03,Howard Beach-JFK Airport,-73.830301,40.660476,3700.8216089248654
12:31:30,1,H04,Broad Channel,-73.815925,40.608382,4105.821608924865
12:31:30,1,H06,Beach 67 St,-73.796924,40.590927,4350.821608924864
12:31:30,1,H07,Beach 60 St,-73.788522,40.592374,4414.821608924864
12:31:30,1,H08,Beach 44 St,-73.776013,40.592943,4484.821608924865
12:31:30,1,H09,Beach 36 St,-73.768175,40.595398,4549.821608924864
12:31:30,1,H10,Beach 25 St,-73.761353,40.600066,4613.1827205657955
12:31:30,1,H11,Far Rockaway-Mott Av,-73.755405,40.603995,4664.782720565796
12:31:30,1,H12,Beach 90 St,-73.813641,40.588034,4338.821608924865
12:31:30,1,H13,Beach 98 St,-73.820558,40.585307,4398.821608924865
12:31:30,1,H14,Beach 105 St,-73.827559,40.583209,4458.821608924865
12:31:30,1,H15,Rockaway Park-Beach 116 St,-73.835592,40.580903,4523.821608924865
12:01:30,1,J12,121 St,-73.828294,40.700492,3355.1053552627563
12:01:30,1,J13,111 St,-73.836345,40.697418,3356.1053552627563
12:01:30,1,J14,104 St,-73.84433,40.695178,3458.1053552627563
12:01:30,1,J15,Woodhaven Blvd,-73.851576,40.693879,3423.3216089248654
12:01:30,1,J16,85 St-Forest Pkwy,-73.86001,40.692435,3360.721608924865
12:01:30,1,J17,75 St-Elderts Ln,-73.867139,40.691324,3272.8216089248654
12:01:30,1,J19,Cypress Hills,-73.87255,40.689941,3240.721608924865
12:31:30,1,J20,Crescent St,-73.873785,40.683194,3199.721608924865
12:31:30,1,J21,Norwood Av,-73.880039,40.68141,3166.8216089248654
12:31:30,1,J22,Cleveland St,-73.884639,40.679947,3137.8216089248654
12:31:30,1,J23,Van Siclen Av,-73.891688,40.678024,3052.8216089248654
12:55:30,2,J24,Alabama Av,-73.898654,40.676992,2977.8216089248654
12:31:30,1,J27,Broadway Junction,-73.904512,40.679498,2902.8216089248654
12:55:30,2,J28,Chauncey St,-73.910456,40.682893,2962.8216089248654
12:31:30,1,J29,Halsey St,-73.916559,40.68637,3027.8216089248654
12:31:30,1,J30,Gates Av,-73.92227,40.68963,3049.2020723819733
12:31:30,1,J31,Kosciuszko St,-73.928814,40.693342,2989.2020723819733
13:25:30,1,L01,8 Av,-74.002578,40.739777,1714.182720565796
12:01:30,2,L02,6 Av,-73.996786,40.737335,1774.182720565796
13:25:30,1,L03,14 St-Union Sq,-73.99073,40.734789,1805.182720565796
13:25:30,1,L05,3 Av,-73.986122,40.732849,1831.182720565796
13:25:30,1,L06,1 Av,-73.981628,40.730953,1863.1827205657962
13:25:30,1,L08,Bedford Av,-73.956872,40.717304,2049.1827205657964
13:25:30,1,L10,Lorimer St,-73.950275,40.714063,2105.182720565796
13:25:30,1,L11,Graham Av,-73.944053,40.714565,2127.182720565796
13:25:30,1,L12,Grand St,-73.94067,40.711926,2201.182720565796
13:25:30,1,L13,Montrose Av,-73.93985,40.707739,2225.182720565796
13:25:30,1,L14,Morgan Av,-73.933147,40.706152,2289.1827205657964
13:25:30,1,L15,Jefferson St,-73.922913,40.706607,2382.182720565796
13:25:30,1,L16,DeKalb Av,-73.918425,40.703811,2431.1827205657964
13:25:30,1,L17,Myrtle-Wyckoff Avs,-73.911586,40.699814,2472.182720565796
13:25:30,1,L19,Halsey St,-73.904084,40.695602,2519.182720565796
13:25:30,1,L20,Wilson Av,-73.904046,40.688764,2634.182720565796
13:25:30,1,L21,Bushwick Av-Aberdeen St,-73.905249,40.682829,2667.1827205657955
13:25:30,1,L22,Broadway Junction,-73.90324,40.678856,2685.1827205657955
13:25:30,1,L24,Atlantic Av,-73.903097,40.675345,2718.1827205657955
13:25:30,1,L25,Sutter Av,-73.901975,40.669367,2782.1827205657955
13:25:30,1,L26,Livonia Av,-73.900571,40.664038,2819.1827205657955
13:25:30,1,L27,New Lots Av,-73.899232,40.658733,2881.782720565796
13:25:30,1,L28,East 105 St,-73.899485,40.650573,2967.7827205657954
13:49:30,1,L29,Canarsie-Rockaway Pkwy,-73.90185,40.646654,2997.7827205657954
12:31:30,1,M01,Middle Village-Metropolitan Av,-73.889601,40.711396,2924.1731049060822
12:31:30,1,M04,Fresh Pond Rd,-73.895877,40.706186,2884.1731049060822
12:31:30,1,M05,Forest Av,-73.903077,40.704423,2814.1731049060822
12:31:30,1,M06,Seneca Av,-73.90774,40.702762,2750.1731049060822
12:31:30,1,M08,Myrtle-Wyckoff Avs,-73.912385,40.69943,2698.63903131485
12:31:30,1,M09,Knickerbocker Av,-73.919711,40.698664,2765.63903131485
12:31:30,1,M10,Central Av,-73.927397,40.697857,2838.6390313148504
12:01:30,1,M11,Myrtle Av,-73.935657,40.697207,2891.1214975357057
12:01:30,1,M12,Flushing Av,-73.941126,40.70026,2782.022115516663
12:01:30,1,M13,Lorimer St,-73.947408,40.703869,2717.022115516663
12:01:30,1,M14,Hewes St,-73.953431,40.70687,2655.3221155166625
12:01:30,1,M16,Marcy Av,-73.957757,40.708359,2595.3221155166625
12:01:30,1,M18,Delancey St-Essex St,-73.987437,40.718315,2266.1221155166627
12:01:30,1,M19,Bowery,-73.993915,40.72028,2303.2020723819733
13:25:30,1,M20,Canal St,-73.999892,40.718092,2234.2020723819733
13:25:30,1,M21,Chambers St,-74.003401,40.713243,2309.2020723819733
13:25:30,1,M22,Fulton St,-74.007582,40.710374,2277.182720565796
12:37:30,1,M23,Broad St,-74.011056,40.706476,2340.182720565796
12:13:30,1,N02,8 Av,-74.011719,40.635064,3256.080919361115
12:13:30,1,N03,Fort Hamilton Pkwy,-74.005351,40.631386,3371.480919361114
12:13:30,1,N04,New Utrecht Av,-73.996353,40.624842,3456.480919361114
12:13:30,1,N05,18 Av,-73.990414,40.620671,3520.480919361114
12:13:30,1,N06,20 Av,-73.985026,40.61741,3580.480919361114
12:13:30,1,N07,Bay Pkwy,-73.981848,40.611815,3642.480919361114
12:13:30,1,N08,Kings Hwy,-73.980353,40.603923,3717.480919361114
12:13:30,1,N09,Avenue U,-73.979137,40.597473,3777.480919361114
12:13:30,1,N10,86 St,-73.97823,40.592721,3842.480919361114
12:13:30,1,Q01,Canal St,-74.00046,40.718383,2008.4809193611145
12:37:30,1,Q03,72 St,-73.958424,40.768799,1977.7809193611142
12:37:30,1,Q04,86 St,-73.951787,40.777891,2088.6809193611143
12:37:30,1,Q05,96 St,-73.947152,40.784318,2126.380919361114
12:37:30,1,R01,Astoria-Ditmars Blvd,-73.912034,40.775036,2518.480919361114
12:37:30,1,R03,Astoria Blvd,-73.917843,40.770258,2462.480919361114
12:37:30,1,R04,30 Av,-73.921479,40.766779,2400.4809193611145
12:37:30,1,R05,Broadway,-73.925508,40.76182,2340.4809193611145
12:37:30,1,R06,36 Av,-73.929575,40.756804,2280.4809193611145
12:37:30,1,R08,39 Av-Dutch Kills,-73.932755,40.752882,2215.480919361114
12:37:30,1,R09,Queensboro Plaza,-73.940202,40.750582,2098.4809193611145
12:37:30,1,R11,Lexington Av/59 St,-73.967258,40.76266,1900.4809193611145
12:37:30,1,R13,5 Av/59 St,-73.973347,40.764811,1830.4809193611143
12:37:30,1,R14,57 St-7 Av,-73.980658,40.764664,1710.4809193611143
13:01:30,1,R15,49 St,-73.984139,40.759901,1645.4809193611145
12:13:30,1,R16,Times Sq-42 St,-73.986754,40.754672,1585.4809193611145
12:13:30,1,R17,34 St-Herald Sq,-73.98795,40.749567,1650.4809193611143
12:25:30,1,R18,28 St,-73.988691,40.745494,1710.4809193611143
12:25:30,1,R19,23 St,-73.989344,40.741303,1765.4809193611145
12:13:30,1,R20,14 St-Union Sq,-73.990568,40.735736,1775.4809193611143
12:25:30,1,R21,8 St-NYU,-73.992629,40.730328,1908.4809193611143
12:25:30,1,R22,Prince St,-73.997702,40.724329,1969.480919361114
12:25:30,1,R23,Canal St,-74.001775,40.719527,2034.4809193611143
12:25:30,1,R24,City Hall,-74.006978,40.713282,2154.480919361114
12:25:30,1,R25,Cortlandt St,-74.011029,40.710668,2118.4809193611145
12:01:30,1,R26,Rector St,-74.013342,40.70722,2193.4809193611145
12:01:30,1,R27,Whitehall St-South Ferry,-74.012994,40.703087,2253.4809193611145
12:37:30,1,R28,Court St,-73.991777,40.6941,2433.4809193611145
12:37:30,1,R29,Jay St-MetroTech,-73.985942,40.69218,2473.182720565796
13:43:30,1,R30,DeKalb Av,-73.981824,40.690635,2473.4809193611145
12:13:30,1,R31,Atlantic Av-Barclays Ctr,-73.97881,40.683666,2599.140616846085
12:55:30,1,R32,Union St,-73.98311,40.677316,2669.140616846085
12:55:30,1,R33,4 Av-9 St,-73.988302,40.670847,2734.140616846085
12:55:30,1,R34,Prospect Av,-73.992872,40.665414,2794.840616846085
12:55:30,1,R35,25 St,-73.998091,40.660397,2859.840616846085
12:13:30,1,R36,36 St,-74.003549,40.655144,2911.080919361115
12:55:30,1,R39,45 St,-74.010006,40.648939,3062.6809193611143
12:13:30,1,R40,53 St,-74.014034,40.645069,3124.480919361114
12:13:30,1,R41,59 St,-74.017881,40.641362,3136.080919361115
12:55:30,1,R42,Bay Ridge Av,-74.023377,40.634967,3256.621459579468
12:55:30,1,R43,77 St,-74.02551,40.629742,3316.621459579468
12:55:30,1,R44,86 St,-74.028398,40.622687,3436.621459579468
12:55:30,1,R45,Bay Ridge-95 St,-74.030876,40.616622,3480.621459579468
13:43:30,1,S01,Franklin Av,-73.955827,40.680596,2790.9721955299383
13:43:30,1,S03,Park Pl,-73.957624,40.674772,2859.2721955299385
13:43:30,1,S04,Botanic Garden,-73.959245,40.670343,2949.2721955299385
