start_time,ntransfers,stop_id,stop_name,stop_lon,stop_lat,duration
12:07:30,0,101,Van Cortlandt Park-242 St,-73.898583,40.889248,1999.529589939117
12:07:30,0,103,238 St,-73.90087,40.884667,1936.5295899391172
12:07:30,0,104,231 St,-73.904834,40.878856,1862.2295899391172
12:07:30,0,106,Marble Hill-225 St,-73.909831,40.874561,1793.2295899391172
12:07:30,0,107,215 St,-73.915279,40.869444,1721.2295899391172
12:07:30,0,108,207 St,-73.918822,40.864621,1655.2295899391172
12:07:30,0,109,Dyckman St,-73.925536,40.860531,1598.2295899391172
12:07:30,0,110,191 St,-73.929412,40.855225,1541.2295899391172
12:07:30,0,111,181 St,-73.933596,40.849505,1464.2295899391172
12:07:30,0,112,168 St-Washington Hts,-73.940133,40.840556,1376.2295899391172
12:07:30,0,113,157 St,-73.94489,40.834041,1309.2295899391172
12:07:30,0,114,145 St,-73.95036,40.826551,1210.2295899391172
12:07:30,0,115,137 St-City College,-73.953676,40.822008,1158.2295899391172
12:07:30,0,116,125 St,-73.958372,40.815581,1090.2295899391172
12:07:30,0,117,116 St-Columbia University,-73.96411,40.807722,987.2295899391174
12:07:30,0,118,Cathedral Pkwy (110 St),-73.966847,40.803967,963.2295899391174
12:07:30,0,119,103 St,-73.968379,40.799446,890.2295899391174
12:07:30,0,120,96 St,-73.972323,40.793919,549.0
12:07:30,0,121,86 St,-73.976218,40.788644,672.0
12:07:30,0,122,79 St,-73.979917,40.783934,726.5999999999999
12:07:30,0,123,72 St,-73.98197,40.778453,687.0000000000001
12:15:30,0,124,66 St-Lincoln Center,-73.982209,40.77344,781.3979072570802
12:15:30,0,125,59 St-Columbus Circle,-73.981929,40.768247,864.3979072570801
12:15:30,0,126,50 St,-73.983849,40.761728,946.3979072570802
12:07:30,0,127,Times Sq-42 St,-73.987495,40.75529,884.6000000000001
12:07:30,0,128,34 St-Penn Station,-73.991057,40.750373,974.6000000000001
12:23:30,0,129,28 St,-73.993365,40.747215,1190.0
12:23:30,0,130,23 St,-73.995657,40.744081,1250.0
12:23:30,0,131,18 St,-73.997871,40.74104,1310.0
12:07:30,0,132,14 St,-74.000201,40.737826,1109.5
12:07:30,0,133,Christopher St-Sheridan Sq,-74.002906,40.733422,1388.5375000000004
12:07:30,0,134,Houston St,-74.005367,40.728251,1421.5375000000004
12:07:30,0,135,Canal St,-74.006277,40.722854,1496.5375000000004
12:07:30,0,136,Franklin St,-74.006886,40.719318,1556.5000000000002
12:07:30,0,137,Chambers St,-74.009266,40.715478,1322.5
12:15:30,0,138,WTC Cortlandt,-74.012188,40.711835,1580.7540986537933
12:15:30,0,139,Rector St,-74.013783,40.707513,1648.7540986537933
12:15:30,0,142,South Ferry,-74.013664,40.702068,1726.7540986537933
12:31:30,0,201,Wakefield-241 St,-73.85062,40.903125,2115.8363649368293
12:31:30,0,204,Nereid Av,-73.854376,40.898379,2073.836364936829
12:31:30,0,205,233 St,-73.857473,40.893193,1991.8363649368289
12:31:30,0,206,225 St,-73.860341,40.888022,1912.8363649368289
12:31:30,0,207,219 St,-73.862633,40.883895,1844.8363649368289
12:31:30,0,208,Gun Hill Rd,-73.866256,40.87785,1760.8363649368289
12:31:30,0,209,Burke Av,-73.867164,40.871356,1675.8363649368289
12:31:30,0,210,Allerton Av,-73.867352,40.865462,1596.8363649368289
12:31:30,0,211,Pelham Pkwy,-73.867615,40.857192,1501.2314047813413
12:31:30,0,212,Bronx Park East,-73.868457,40.848828,1395.8363649368287
12:31:30,0,213,E 180 St,-73.873488,40.841894,1269.8363649368287
12:31:30,0,214,West Farms Sq-E Tremont Av,-73.880049,40.840295,1157.2314047813416
12:31:30,0,215,174 St,-73.887734,40.837288,1055.8363649368287
12:31:30,0,216,Freeman St,-73.891865,40.829993,954.2314047813414
12:31:30,0,217,Simpson St,-73.893064,40.824073,850.8363649368287
12:07:30,0,218,Intervale Av,-73.896736,40.822181,782.8363649368287
12:07:30,0,219,Prospect Av,-73.90177,40.819585,715.6363649368286
12:31:30,0,220,Jackson Av,-73.907807,40.81649,630.6363649368286
12:07:30,0,221,3 Av-149 St,-73.917757,40.816109,518.6363649368286
12:07:30,0,222,149 St-Grand Concourse,-73.926718,40.81841,430.6363649368286
12:07:30,0,224,135 St,-73.94077,40.814229,85.0
12:07:30,0,225,125 St,-73.945495,40.807754,166.0
12:07:30,0,226,116 St,-73.949625,40.802098,249.99999999999997
12:07:30,0,227,Central Park North (110 St),-73.951822,40.799075,317.0
12:07:30,0,228,Park Place,-74.008811,40.713051,1396.5000000000002
12:07:30,0,229,Fulton St,-74.006571,40.709416,1491.5
12:07:30,0,230,Wall St,-74.0091,40.706821,1555.5
12:07:30,0,231,Clark St,-73.993086,40.697466,1721.5
12:07:30,0,232,Borough Hall,-73.989998,40.693219,1825.5
12:07:30,0,233,Hoyt St,-73.985065,40.690545,1893.5
12:07:30,0,234,Nevins St,-73.980492,40.688246,1976.5000000000002
12:07:30,0,235,Atlantic Av-Barclays Ctr,-73.977666,40.684359,2044.5000000000002
12:07:30,0,236,Bergen St,-73.975098,40.680829,2110.5000000000005
12:07:30,0,237,Grand Army Plaza,-73.971046,40.675235,2200.8
12:07:30,0,238,Eastern Pkwy-Brooklyn Museum,-73.964375,40.671987,2286.5
12:15:30,0,239,Franklin Av-Medgar Evers College,-73.958131,40.670682,2327.287804412842
12:07:30,0,241,President St-Medgar Evers College,-73.950683,40.667883,2464.6219511032104
12:07:30,0,242,Sterling St,-73.95085,40.662742,2537.621951103211
12:07:30,0,243,Winthrop St,-73.9502,40.656652,2604.621951103211
12:07:30,0,244,Church Av,-73.949575,40.650843,2658.6219511032104
12:07:30,0,245,Beverly Rd,-73.948959,40.645098,2714.6219511032104
12:07:30,0,246,Newkirk Av-Little Haiti,-73.948411,40.639967,2787.6219511032104
12:07:30,0,247,Flatbush Av-Brooklyn College,-73.947642,40.632836,2845.621951103211
12:07:30,0,248,Nostrand Av,-73.950466,40.669847,2435.1878044128416
12:07:30,0,249,Kingston Av,-73.942161,40.669399,2481.1878044128416
12:15:30,0,250,Crown Hts-Utica Av,-73.932942,40.668897,2456.487804412842
12:15:30,0,251,Sutter Av-Rutland Rd,-73.92261,40.664717,2573.9219511032106
12:15:30,0,252,Saratoga Av,-73.916327,40.661453,2676.9219511032106
12:15:30,0,253,Rockaway Av,-73.908946,40.662549,2756.4878044128423
12:15:30,0,254,Junius St,-73.902447,40.663515,2713.063413238525
12:15:30,0,255,Pennsylvania Av,-73.894895,40.664635,2802.0634132385253
12:15:30,0,256,Van Siclen Av,-73.889395,40.665449,2870.0634132385253
12:15:30,0,257,New Lots Av,-73.884079,40.666235,2919.949998807907
12:06:30,0,301,Harlem-148 St,-73.93647,40.82388,49.400000000000006
12:19:30,0,302,145 St,-73.936245,40.820421,0.0
12:07:30,1,401,Woodlawn,-73.878751,40.886037,1683.9587326049802
12:07:30,1,402,Mosholu Pkwy,-73.884655,40.87975,1599.9587326049805
12:07:30,1,405,Bedford Park Blvd-Lehman College,-73.890064,40.873412,1504.9587326049805
12:07:30,1,406,Kingsbridge Rd,-73.897174,40.86776,1415.9587326049805
12:07:30,1,407,Fordham Rd,-73.901034,40.862803,1327.9587326049805
12:07:30,1,408,183 St,-73.903879,40.858407,1252.9587326049805
12:07:30,1,409,Burnside Av,-73.907684,40.853453,1176.9587326049805
12:07:30,1,410,176 St,-73.911794,40.84848,1126.5587326049808
12:07:30,1,411,Mt Eden Av,-73.914685,40.844434,1056.5587326049806
12:07:30,1,412,170 St,-73.917791,40.840075,988.9587326049806
12:07:30,1,413,167 St,-73.9214,40.835537,911.9587326049805
12:07:30,1,414,161 St-Yankee Stadium,-73.925831,40.827994,821.9587326049805
12:07:30,1,415,149 St-Grand Concourse,-73.927351,40.818375,698.9587326049805
12:07:30,1,416,138 St-Grand Concourse,-73.929849,40.813224,789.9587326049804
12:07:30,1,418,Fulton St,-74.009509,40.710368,1708.0
12:07:30,1,419,Wall St,-74.011862,40.707557,1775.0000000000002
12:07:30,1,420,Bowling Green,-74.014065,40.704817,1840.0
12:07:30,0,423,Borough Hall,-73.990151,40.692404,2066.0
13:59:30,0,501,Eastchester-Dyre Av,-73.830834,40.8883,1948.1383805274963
12:23:30,0,502,Baychester Av,-73.838591,40.878663,1883.1383805274963
12:23:30,0,503,Gun Hill Rd,-73.846384,40.869526,1765.1383805274963
12:23:30,0,504,Pelham Pkwy,-73.855359,40.858985,1639.1383805274963
12:23:30,0,505,Morris Park,-73.860495,40.854364,1559.1383805274963
13:51:30,0,601,Pelham Bay Park,-73.828121,40.852462,2268.351950931549
13:51:30,0,602,Buhre Av,-73.832569,40.84681,2167.051950931549
13:51:30,0,603,Middletown Rd,-73.836322,40.843863,2121.051950931549
13:51:30,0,604,Westchester Sq-E Tremont Av,-73.842952,40.839892,2034.0519509315488
13:51:30,0,606,Zerega Av,-73.847036,40.836488,1962.151950931549
13:51:30,0,607,Castle Hill Av,-73.851222,40.834255,1902.1519509315488
12:39:30,0,608,Parkchester,-73.860816,40.833226,1849.5519509315488
12:39:30,0,609,St Lawrence Av,-73.867618,40.831509,2040.4962631225587
12:39:30,0,610,Morrison Av-Soundview,-73.874516,40.829521,1968.4962631225585
12:39:30,0,611,Elder Av,-73.879159,40.828584,1935.4962631225587
12:39:30,0,612,Whitlock Av,-73.886283,40.826525,1842.6202012062072
12:07:30,1,613,Hunts Point Av,-73.890549,40.820948,1664.651950931549
12:07:30,1,614,Longwood Av,-73.896435,40.816104,1712.4471063613892
12:07:30,1,615,E 149 St,-73.904098,40.812118,1640.6202012062076
12:07:30,1,616,E 143 St-St Mary's St,-73.907657,40.808719,1590.447106361389
12:07:30,1,617,Cypress Av,-73.914042,40.805368,1485.447106361389
12:07:30,1,618,Brook Av,-73.91924,40.807566,1425.447106361389
12:07:30,1,619,3 Av-138 St,-73.926138,40.810476,1332.651950931549
12:07:30,1,621,125 St,-73.937594,40.804138,928.5090924263001
12:07:30,1,622,116 St,-73.941617,40.798629,1246.4471063613892
12:07:30,1,623,110 St,-73.94425,40.79502,1317.4471063613892
12:07:30,1,624,103 St,-73.947478,40.7906,1375.447106361389
12:07:30,1,625,96 St,-73.95107,40.785672,1454.947106361389
12:07:30,1,626,86 St,-73.955589,40.779492,1184.5090924263002
12:07:30,1,627,77 St,-73.959874,40.77362,1467.0
12:07:30,1,628,68 St-Hunter College,-73.96387,40.768141,1383.0
12:07:30,1,629,59 St,-73.967967,40.762526,1294.0
12:07:30,1,630,51 St,-73.97192,40.757107,1205.0
12:07:30,1,631,Grand Central-42 St,-73.976848,40.751776,1164.0
12:07:30,1,632,33 St,-73.982076,40.746081,1250.9999999999998
12:07:30,1,633,28 St,-73.984264,40.74307,1313.0
12:07:30,1,634,23 St,-73.986599,40.739864,1347.0
12:07:30,1,635,14 St-Union Sq,-73.989951,40.734673,1374.9999999999998
12:07:30,1,636,Astor Pl,-73.99107,40.730054,1514.7999999999997
12:07:30,1,637,Bleecker St,-73.994659,40.725915,1595.7999999999997
12:07:30,1,638,Spring St,-73.997141,40.722301,1656.7999999999997
12:07:30,1,639,Canal St,-74.000193,40.718803,1688.8
12:07:30,1,640,Brooklyn Bridge-City Hall,-74.004131,40.713065,1611.0
12:07:30,1,701,Flushing-Main St,-73.83003,40.7596,2408.2
12:07:30,1,702,Mets-Willets Point,-73.845625,40.754622,2307.2978734970093
12:07:30,1,705,111 St,-73.855334,40.75173,2269.2
12:07:30,1,706,103 St-Corona Plaza,-73.8627,40.749865,2205.2
12:07:30,1,707,Junction Blvd,-73.869527,40.749145,2151.2978734970093
12:07:30,1,708,90 St-Elmhurst Av,-73.876613,40.748408,2098.2
12:07:30,1,709,82 St-Jackson Hts,-73.883697,40.747659,2038.1999999999998
12:07:30,1,710,74 St-Broadway,-73.891394,40.746848,1972.1999999999998
12:07:30,1,711,69 St,-73.896403,40.746325,1914.2
12:07:30,1,712,61 St-Woodside,-73.902984,40.74563,1861.2
12:07:30,1,713,52 St,-73.912549,40.744149,1775.2
12:07:30,1,714,46 St-Bliss St,-73.918435,40.743132,1732.2
12:07:30,1,715,40 St-Lowery St,-73.924016,40.743781,1692.2
12:07:30,1,716,33 St-Rawson St,-73.930997,40.744587,1636.2
12:07:30,1,718,Queensboro Plaza,-73.940202,40.750582,1522.2
12:07:30,1,719,Court Sq,-73.945264,40.747023,1437.2
12:07:30,1,720,Hunters Point Av,-73.948916,40.742216,1353.2
12:07:30,1,721,Vernon Blvd-Jackson Av,-73.953581,40.742626,1335.9999999999998
12:07:30,1,723,Grand Central-42 St,-73.976041,40.751431,1136.9999999999998
12:07:30,1,724,5 Av,-73.981963,40.753821,1079.1999999999998
12:07:30,1,725,Times Sq-42 St,-73.987691,40.755477,1044.9999999999998
12:39:30,1,726,34 St-Hudson Yards,-74.00191,40.755882,1175.0
12:39:30,1,901,Grand Central-42 St,-73.979189,40.752769,1044.0
12:39:30,1,902,Times Sq-42 St,-73.986229,40.755983,984.9999999999999
13:19:30,1,A02,Inwood-207 St,-73.919899,40.868072,2045.5123105049129
13:19:30,1,A03,Dyckman St,-73.927271,40.865491,1985.5123105049129
13:19:30,1,A05,190 St,-73.93418,40.859022,1870.512310504913
13:19:30,1,A06,181 St,-73.937969,40.851695,1795.512310504913
13:19:30,1,A07,175 St,-73.939704,40.847391,1735.512310504913
12:07:30,1,A09,168 St,-73.939561,40.840719,1622.512310504913
12:07:30,1,A10,163 St-Amsterdam Av,-73.939892,40.836013,1632.9245765209198
12:07:30,1,A11,155 St,-73.941514,40.830518,1572.9245765209198
12:07:30,1,A12,145 St,-73.944216,40.824783,1341.766680240631
12:07:30,2,A14,135 St,-73.947649,40.817894,1327.7666802406313
13:27:30,1,A15,125 St,-73.952343,40.811109,1437.766680240631
12:39:30,1,A16,116 St,-73.954882,40.805085,1515.7666802406313
12:39:30,1,A17,Cathedral Pkwy (110 St),-73.958161,40.800603,1491.860732460022
12:39:30,1,A18,103 St,-73.961454,40.796092,1431.860732460022
12:39:30,1,A19,96 St,-73.964696,40.791642,1371.860732460022
12:39:30,1,A20,86 St,-73.968916,40.785868,1307.460732460022
12:39:30,1,A21,81 St-Museum of Natural History,-73.972143,40.781433,1247.460732460022
12:39:30,1,A22,72 St,-73.97641,40.775594,1187.460732460022
12:39:30,1,A24,59 St-Columbus Circle,-73.981736,40.768296,1093.109247684479
13:03:30,1,A25,50 St,-73.985984,40.762456,1109.9999999999998
12:39:30,1,A27,42 St-Port Authority Bus Terminal,-73.989735,40.757308,1044.9999999999998
12:15:30,1,A28,34 St-Penn Station,-73.993391,40.752287,1108.0
12:15:30,1,A30,23 St,-73.998041,40.745906,1177.1
12:39:30,1,A31,14 St,-74.00169,40.740893,1228.0
12:39:30,1,A32,W 4 St-Wash Sq,-74.000495,40.732338,1343.0
12:15:30,1,A33,Spring St,-74.003739,40.726227,1440.1
12:39:30,1,A34,Canal St,-74.005229,40.720824,1471.0
12:39:30,1,A36,Chambers St,-74.008585,40.714111,1561.0
12:31:30,1,A38,Fulton St,-74.007691,40.710197,1625.9999999999998
12:31:30,1,A40,High St,-73.990531,40.699337,1795.9999999999998
12:31:30,1,A41,Jay St-MetroTech,-73.987342,40.692338,1911.9999999999998
12:31:30,1,A42,Hoyt-Schermerhorn Sts,-73.985001,40.688484,1983.9999999999998
12:07:30,1,A43,Lafayette Av,-73.973946,40.686113,2122.1
12:07:30,1,A44,Clinton-Washington Avs,-73.965838,40.683263,2181.1
12:07:30,1,A45,Franklin Av,-73.956848,40.68138,2298.892683362961
12:31:30,1,A46,Nostrand Av,-73.950426,40.680438,2218.9999999999995
12:07:30,1,A47,Kingston-Throop Avs,-73.940858,40.679921,2286.9999999999995
12:31:30,1,A48,Utica Av,-73.930729,40.679364,2351.0
12:07:30,1,A49,Ralph Av,-73.920786,40.678822,2427.2
12:07:30,1,A50,Rockaway Av,-73.911946,40.67834,2490.2
12:31:30,1,A51,Broadway Junction,-73.905316,40.678334,2465.2388883590693
13:43:30,1,A52,Liberty Av,-73.896548,40.674542,2585.2388883590693
13:43:30,1,A53,Van Siclen Av,-73.890358,40.67271,2650.2388883590697
13:43:30,1,A54,Shepherd Av,-73.88075,40.67413,2719.2388883590693
12:31:30,1,A55,Euclid Av,-73.872106,40.675377,2710.2388883590697
12:31:30,1,A57,Grant Av,-73.86505,40.677044,2793.2388883590697
12:31:30,1,A59,80 St,-73.858992,40.679371,2853.2388883590697
12:31:30,1,A60,88 St,-73.85147,40.679843,2916.2388883590693
12:31:30,1,A61,Rockaway Blvd,-73.843853,40.680429,2976.2388883590693
12:31:30,1,A63,104 St,-73.837683,40.681711,3036.2388883590693
12:31:30,1,A64,111 St,-73.832163,40.684331,3095.2388883590693
12:31:30,1,A65,Ozone Park-Lefferts Blvd,-73.825798,40.685951,3157.2388883590693
12:23:30,1,B04,21 St-Queensbridge,-73.942836,40.754203,1798.6
12:23:30,1,B06,Roosevelt Island,-73.95326,40.759145,1678.3840490797545
12:23:30,1,B08,Lexington Av/63 St,-73.966113,40.764629,1338.7999999999997
12:39:30,1,B10,57 St,-73.97745,40.763972,1457.3840490797545
12:15:30,1,B12,9 Av,-73.994324,40.646292,2709.939623451233
12:15:30,1,B13,Fort Hamilton Pkwy,-73.994304,40.640914,2774.939623451233
12:15:30,1,B14,50 St,-73.994791,40.63626,2834.939623451233
12:15:30,1,B15,55 St,-73.995476,40.631435,2897.939623451233
12:15:30,1,B16,62 St,-73.996895,40.626472,2932.939623451233
12:15:30,1,B17,71 St,-73.998864,40.619589,3002.939623451233
12:15:30,1,B18,79 St,-74.00061,40.613501,3070.939623451233
12:15:30,1,B19,18 Av,-74.001736,40.607954,3130.939623451233
12:15:30,1,B20,20 Av,-73.998168,40.604556,3190.939623451233
12:15:30,1,B21,Bay Pkwy,-73.993728,40.601875,3250.939623451233
13:35:30,1,B22,25 Av,-73.986829,40.597704,3355.939623451233
13:35:30,1,B23,Bay 50 St,-73.983765,40.588841,3480.939623451233
12:15:30,2,D01,Norwood-205 St,-73.878855,40.874811,1691.566680240631
12:15:30,2,D03,Bedford Park Blvd,-73.887138,40.873244,1616.766680240631
12:15:30,2,D04,Kingsbridge Rd,-73.893509,40.866978,1543.766680240631
12:15:30,2,D05,Fordham Rd,-73.897749,40.861296,1476.766680240631
12:15:30,2,D06,182-183 Sts,-73.900741,40.856093,1416.766680240631
12:15:30,2,D07,Tremont Av,-73.905227,40.85041,1356.766680240631
12:15:30,2,D08,174-175 Sts,-73.910136,40.8459,1291.766680240631
12:15:30,2,D09,170 St,-73.9134,40.839306,1221.766680240631
12:15:30,2,D10,167 St,-73.91844,40.833771,1151.766680240631
13:43:30,2,D11,161 St-Yankee Stadium,-73.925651,40.827905,1075.766680240631
12:07:30,2,D12,155 St,-73.938209,40.830135,1175.766680240631
12:07:30,2,D13,145 St,-73.944216,40.824783,1270.766680240631
12:39:30,1,D14,7 Av,-73.981637,40.762862,1161.1092476844788
12:39:30,1,D15,47-50 Sts-Rockefeller Ctr,-73.981329,40.758663,1231.109247684479
12:39:30,1,D16,42 St-Bryant Pk,-73.984569,40.754222,1295.109247684479
12:39:30,1,D17,34 St-Herald Sq,-73.987823,40.749719,1320.5056178569791
12:39:30,1,D18,23 St,-73.992821,40.742878,1400.5056178569791
13:11:30,1,D19,14 St,-73.996209,40.738228,1457.6818187236786
13:11:30,1,D20,W 4 St-Wash Sq,-74.000495,40.732338,1465.5056178569791
13:11:30,1,D21,Broadway-Lafayette St,-73.996204,40.725297,1585.5056178569791
13:11:30,1,D22,Grand St,-73.993753,40.718267,1705.5056178569791
13:11:30,1,D24,Atlantic Av-Barclays Ctr,-73.97689,40.68446,2062.9999999999995
13:11:30,1,D25,7 Av,-73.972367,40.67705,2182.9999999999995
13:11:30,1,D26,Prospect Park,-73.962246,40.661614,2345.9999999999995
12:39:30,1,D27,Parkside Av,-73.961495,40.655292,2405.9999999999995
13:11:30,1,D28,Church Av,-73.962982,40.650527,2471.0
12:39:30,1,D29,Beverley Rd,-73.964492,40.644031,2510.9999999999995
12:39:30,1,D30,Cortelyou Rd,-73.963891,40.640927,2569.0
13:11:30,1,D31,Newkirk Plaza,-73.962793,40.635082,2639.6904776096344
12:39:30,1,D32,Avenue H,-73.961639,40.62927,2686.0
12:39:30,1,D33,Avenue J,-73.960803,40.625039,2746.0
12:39:30,1,D34,Avenue M,-73.959399,40.617618,2814.0
13:11:30,1,D35,Kings Hwy,-73.957734,40.60867,2834.6904776096344
13:11:30,1,D37,Avenue U,-73.955929,40.5993,2987.0
13:11:30,1,D38,Neck Rd,-73.955161,40.595246,3041.9999999999995
13:11:30,1,D39,Sheepshead Bay,-73.954155,40.586896,3022.6904776096344
13:11:30,1,D40,Brighton Beach,-73.961376,40.577621,3080.6904776096344
13:11:30,1,D41,Ocean Pkwy,-73.968501,40.576312,3278.6904776096344
13:11:30,1,D42,W 8 St-NY Aquarium,-73.975939,40.576127,3372.6904776096344
13:11:30,1,D43,Coney Island-Stillwell Av,-73.981233,40.577422,3421.0
13:27:30,1,E01,World Trade Center,-74.009781,40.712582,1552.0
12:23:30,1,F01,Jamaica-179 St,-73.783817,40.712646,2770.7999999999997
12:39:30,1,F02,169 St,-73.793604,40.71047,2751.0
12:39:30,1,F03,Parsons Blvd,-73.803326,40.707564,2587.1999999999994
12:39:30,1,F04,Sutphin Blvd,-73.810708,40.70546,2580.0
12:39:30,1,F05,Briarwood,-73.820574,40.709179,2443.9999999999995
12:39:30,1,F06,Kew Gardens-Union Tpke,-73.831008,40.714441,2330.9999999999995
12:39:30,1,F07,75 Av,-73.837324,40.718331,2265.9999999999995
12:39:30,1,F09,Court Sq-23 St,-73.946,40.747846,1469.9999999999998
12:39:30,1,F11,Lexington Av/53 St,-73.969055,40.757552,1294.9999999999998
12:39:30,1,F12,5 Av/53 St,-73.975224,40.760167,1234.9999999999998
13:43:30,1,F14,2 Av,-73.989938,40.723402,1720.5
13:43:30,1,F15,Delancey St-Essex St,-73.988114,40.718611,1787.5937500000002
13:43:30,1,F16,East Broadway,-73.990173,40.713715,1847.5937500000002
13:43:30,1,F18,York St,-73.986751,40.701397,1967.5937500000002
12:07:30,1,F20,Bergen St,-73.990862,40.686145,2140.2937500000003
12:07:30,1,F21,Carroll St,-73.995048,40.680303,2247.760867595672
12:07:30,1,F22,Smith-9 Sts,-73.995959,40.67358,2365.7608675956726
12:07:30,1,F23,4 Av-9 St,-73.989779,40.670272,2425.7608675956726
12:07:30,1,F24,7 Av,-73.980305,40.666271,2362.3
12:07:30,1,F25,15 St-Prospect Park,-73.979493,40.660365,2487.465138959885
12:07:30,1,F26,Fort Hamilton Pkwy,-73.975776,40.650782,2607.465138959885
12:07:30,1,F27,Church Av,-73.979678,40.644041,2591.3
13:43:30,1,F29,Ditmas Av,-73.978172,40.636119,2711.3
13:43:30,1,F30,18 Av,-73.976971,40.629755,2799.8000000000006
13:43:30,1,F31,Avenue I,-73.976127,40.625322,2859.8000000000006
13:43:30,1,F32,Bay Pkwy,-73.975264,40.620769,2918.8000000000006
13:43:30,1,F33,Avenue N,-73.974197,40.61514,2983.8000000000006
13:43:30,1,F34,Avenue P,-73.973022,40.608944,3043.8000000000006
13:43:30,1,F35,Kings Hwy,-73.972361,40.603217,3108.8000000000006
13:59:30,1,F36,Avenue U,-73.973357,40.596063,3174.100000000001
13:59:30,1,F38,Avenue X,-73.97425,40.58962,3239.100000000001
13:11:30,1,F39,Neptune Av,-73.974574,40.581011,3319.600000000001
12:39:30,1,G05,Jamaica Center-Parsons/Archer,-73.801109,40.702147,2681.0
12:39:30,1,G06,Sutphin Blvd-Archer Av-JFK Airport,-73.807969,40.700486,2615.9999999999995
12:39:30,1,G07,Jamaica-Van Wyck,-73.816859,40.702566,2510.9999999999995
12:39:30,1,G08,Forest Hills-71 Av,-73.844521,40.721691,2195.9999999999995
12:39:30,1,G09,67 Av,-73.852719,40.726523,2231.9
13:51:30,1,G10,63 Dr-Rego Park,-73.861604,40.729846,2165.4
13:51:30,1,G11,Woodhaven Blvd,-73.869229,40.733106,2104.2
13:51:30,1,G12,Grand Av-Newtown,-73.877223,40.737015,2029.2
13:51:30,1,G13,Elmhurst Av,-73.882017,40.742454,1965.0
12:39:30,1,G14,Jackson Hts-Roosevelt Av,-73.891338,40.746644,1885.9999999999998
12:39:30,1,G15,65 St,-73.898453,40.749669,1959.9999999999998
12:39:30,1,G16,Northern Blvd,-73.906006,40.752885,2025.0
13:03:30,1,G18,46 St,-73.913333,40.756312,1973.0
13:03:30,1,G19,Steinway St,-73.92074,40.756879,1899.9999999999998
13:03:30,1,G20,36 St,-73.928781,40.752039,1779.9999999999998
12:39:30,1,G21,Queens Plaza,-73.937243,40.748973,1584.9999999999998
12:39:30,2,G22,Court Sq,-73.943832,40.746554,1497.2
13:59:30,2,G24,21 St,-73.949724,40.744065,1557.2
13:59:30,2,G26,Greenpoint Av,-73.954449,40.731352,1677.2
13:43:30,2,G28,Nassau Av,-73.951277,40.724635,1755.2
13:59:30,2,G29,Metropolitan Av,-73.951418,40.712792,1875.2
12:23:30,2,G30,Broadway,-73.950308,40.706092,1935.1999999999998
12:07:30,2,G31,Flushing Av,-73.950234,40.700377,1997.1999999999998
13:27:30,1,G32,Myrtle-Willoughby Avs,-73.949046,40.694568,2057.2
13:27:30,1,G33,Bedford-Nostrand Avs,-73.953522,40.689627,2127.1999999999994
13:27:30,1,G34,Classon Av,-73.96007,40.688873,2187.1999999999994
13:27:30,1,G35,Clinton-Washington Avs,-73.966839,40.688089,2247.1999999999994
13:27:30,1,G36,Fulton St,-73.975375,40.687119,2284.3913037776947
12:15:30,1,H01,Aqueduct Racetrack,-73.834058,40.668234,3151.2388883590693
13:43:30,1,H02,Aqueduct-N Conduit Av,-73.834058,40.668234,3199.0
13:43:30,1,H03,Howard Beach-JFK Airport,-73.830301,40.660476,3263.2388883590693
13:43:30,1,H04,Broad Channel,-73.815925,40.608382,3668.2388883590693
13:43:30,1,H06,Beach 67 St,-73.796924,40.590927,3913.238888359069
13:43:30,1,H07,Beach 60 St,-73.788522,40.592374,3977.238888359069
13:43:30,1,H08,Beach 44 St,-73.776013,40.592943,4047.2388883590693
13:43:30,1,H09,Beach 36 St,-73.768175,40.595398,4112.238888359068
13:43:30,1,H10,Beach 25 St,-73.761353,40.600066,4177.238888359068
13:43:30,1,H11,Far Rockaway-Mott Av,-73.755405,40.603995,4237.238888359068
13:43:30,1,H12,Beach 90 St,-73.813641,40.588034,3901.2388883590697
13:43:30,1,H13,Beach 98 St,-73.820558,40.585307,3961.2388883590697
13:43:30,1,H14,Beach 105 St,-73.827559,40.583209,4021.2388883590697
13:43:30,1,H15,Rockaway Park-Beach 116 St,-73.835592,40.580903,4086.2388883590693
12:39:30,1,J12,121 St,-73.828294,40.700492,2830.7999999999997
12:39:30,1,J13,111 St,-73.836345,40.697418,2831.7999999999993
12:39:30,1,J14,104 St,-73.84433,40.695178,2933.7999999999997
12:39:30,1,J15,Woodhaven Blvd,-73.851576,40.693879,2985.7388883590697
12:39:30,1,J16,85 St-Forest Pkwy,-73.86001,40.692435,2923.138888359069
12:07:30,2,J17,75 St-Elderts Ln,-73.867139,40.691324,2835.2388883590697
12:07:30,2,J19,Cypress Hills,-73.87255,40.689941,2803.138888359069
12:47:30,2,J20,Crescent St,-73.873785,40.683194,2762.1388883590694
12:47:30,2,J21,Norwood Av,-73.880039,40.68141,2729.2388883590693
12:47:30,2,J22,Cleveland St,-73.884639,40.679947,2700.2388883590693
12:47:30,2,J23,Van Siclen Av,-73.891688,40.678024,2615.2388883590693
12:47:30,2,J24,Alabama Av,-73.898654,40.676992,2540.2388883590693
13:11:30,1,J27,Broadway Junction,-73.904512,40.679498,2465.2388883590693
13:35:30,2,J28,Chauncey St,-73.910456,40.682893,2525.2388883590693
13:11:30,1,J29,Halsey St,-73.916559,40.68637,2568.7211530208588
13:11:30,1,J30,Gates Av,-73.92227,40.68963,2508.7211530208588
13:11:30,1,J31,Kosciuszko St,-73.928814,40.693342,2448.7211530208588
12:23:30,1,L01,8 Av,-74.002578,40.739777,1288.0
12:23:30,1,L02,6 Av,-73.996786,40.737335,1334.5
12:23:30,1,L03,14 St-Union Sq,-73.99073,40.734789,1367.6000000000001
12:23:30,1,L05,3 Av,-73.986122,40.732849,1393.6000000000001
12:23:30,1,L06,1 Av,-73.981628,40.730953,1425.6000000000004
12:23:30,1,L08,Bedford Av,-73.956872,40.717304,1611.6000000000004
12:23:30,1,L10,Lorimer St,-73.950275,40.714063,1667.6000000000004
12:23:30,1,L11,Graham Av,-73.944053,40.714565,1689.6000000000004
12:23:30,1,L12,Grand St,-73.94067,40.711926,1763.6000000000006
12:23:30,1,L13,Montrose Av,-73.93985,40.707739,1787.6000000000004
12:23:30,1,L14,Morgan Av,-73.933147,40.706152,1851.6000000000004
12:23:30,1,L15,Jefferson St,-73.922913,40.706607,1928.4999999999995
12:23:30,1,L16,DeKalb Av,-73.918425,40.703811,1979.4999999999995
12:23:30,1,L17,Myrtle-Wyckoff Avs,-73.911586,40.699814,2034.6000000000001
12:23:30,1,L19,Halsey St,-73.904084,40.695602,2058.4999999999995
12:23:30,1,L20,Wilson Av,-73.904046,40.688764,2149.499999999999
12:23:30,1,L21,Bushwick Av-Aberdeen St,-73.905249,40.682829,2220.499999999999
12:23:30,1,L22,Broadway Junction,-73.90324,40.678856,2247.5999999999995
12:23:30,1,L24,Atlantic Av,-73.903097,40.675345,2280.5999999999995
12:23:30,1,L25,Sutter Av,-73.901975,40.669367,2344.5999999999995
12:23:30,1,L26,Livonia Av,-73.900571,40.664038,2381.5999999999995
12:23:30,1,L27,New Lots Av,-73.899232,40.658733,2435.4999999999986
12:23:30,1,L28,East 105 St,-73.899485,40.650573,2494.499999999999
13:43:30,1,L29,Canarsie-Rockaway Pkwy,-73.90185,40.646654,2554.499999999999
12:07:30,2,M01,Middle Village-Metropolitan Av,-73.889601,40.711396,2486.590384340286
12:07:30,2,M04,Fresh Pond Rd,-73.895877,40.706186,2446.5903843402866
12:07:30,2,M05,Forest Av,-73.903077,40.704423,2376.5903843402866
12:07:30,2,M06,Seneca Av,-73.90774,40.702762,2312.5903843402866
13:11:30,1,M08,Myrtle-Wyckoff Avs,-73.912385,40.69943,2260.4999999999995
13:11:30,1,M09,Knickerbocker Av,-73.919711,40.698664,2327.4999999999995
13:11:30,1,M10,Central Av,-73.927397,40.697857,2400.4999999999995
13:11:30,1,M11,Myrtle Av,-73.935657,40.697207,2376.7211530208583
13:11:30,1,M12,Flushing Av,-73.941126,40.70026,2317.7211530208583
13:11:30,1,M13,Lorimer St,-73.947408,40.703869,2257.7211530208583
13:11:30,1,M14,Hewes St,-73.953431,40.70687,2197.7211530208583
13:11:30,1,M16,Marcy Av,-73.957757,40.708359,2137.7211530208583
13:11:30,1,M18,Delancey St-Essex St,-73.987437,40.718315,1800.9163273334505
13:11:30,1,M19,Bowery,-73.993915,40.72028,1762.7211530208583
12:07:30,1,M20,Canal St,-73.999892,40.718092,1693.7211530208585
12:07:30,1,M21,Chambers St,-74.003401,40.713243,1768.7211530208585
12:07:30,1,M22,Fulton St,-74.007582,40.710374,1828.7211530208585
12:31:30,1,M23,Broad St,-74.011056,40.706476,1891.7211530208585
12:15:30,1,N02,8 Av,-74.011719,40.635064,2715.6
12:15:30,1,N03,Fort Hamilton Pkwy,-74.005351,40.631386,2831.0
12:15:30,1,N04,New Utrecht Av,-73.996353,40.624842,2915.9999999999995
12:15:30,1,N05,18 Av,-73.990414,40.620671,2980.0
12:15:30,1,N06,20 Av,-73.985026,40.61741,3040.0
12:15:30,1,N07,Bay Pkwy,-73.981848,40.611815,3101.9999999999995
12:15:30,1,N08,Kings Hwy,-73.980353,40.603923,3176.9999999999995
12:15:30,1,N09,Avenue U,-73.979137,40.597473,3236.9999999999995
12:15:30,1,N10,86 St,-73.97823,40.592721,3302.0
12:15:30,1,Q01,Canal St,-74.00046,40.718383,1467.9999999999998
12:23:30,1,Q03,72 St,-73.958424,40.768799,1437.3000000000002
12:23:30,1,Q04,86 St,-73.951787,40.777891,1548.2
12:23:30,1,Q05,96 St,-73.947152,40.784318,1585.9
12:07:30,1,R01,Astoria-Ditmars Blvd,-73.912034,40.775036,1977.9999999999998
12:07:30,1,R03,Astoria Blvd,-73.917843,40.770258,1922.0
12:07:30,1,R04,30 Av,-73.921479,40.766779,1859.9999999999998
12:07:30,1,R05,Broadway,-73.925508,40.76182,1799.9999999999998
12:07:30,1,R06,36 Av,-73.929575,40.756804,1739.9999999999998
12:07:30,1,R08,39 Av-Dutch Kills,-73.932755,40.752882,1674.9999999999998
12:07:30,1,R09,Queensboro Plaza,-73.940202,40.750582,1558.0
12:07:30,1,R11,Lexington Av/59 St,-73.967258,40.76266,1359.9999999999998
12:07:30,1,R13,5 Av/59 St,-73.973347,40.764811,1289.9999999999998
12:07:30,1,R14,57 St-7 Av,-73.980658,40.764664,1169.9999999999998
12:07:30,1,R15,49 St,-73.984139,40.759901,1104.9999999999998
12:07:30,1,R16,Times Sq-42 St,-73.986754,40.754672,1044.9999999999998
12:31:30,1,R17,34 St-Herald Sq,-73.98795,40.749567,1109.9999999999998
12:31:30,1,R18,28 St,-73.988691,40.745494,1169.9999999999998
12:31:30,1,R19,23 St,-73.989344,40.741303,1224.9999999999998
12:15:30,1,R20,14 St-Union Sq,-73.990568,40.735736,1234.9999999999998
12:31:30,1,R21,8 St-NYU,-73.992629,40.730328,1367.9999999999998
12:31:30,1,R22,Prince St,-73.997702,40.724329,1428.9999999999998
12:31:30,1,R23,Canal St,-74.001775,40.719527,1493.9999999999998
12:39:30,1,R24,City Hall,-74.006978,40.713282,1613.9999999999998
12:39:30,1,R25,Cortlandt St,-74.011029,40.710668,1612.0
12:15:30,1,R26,Rector St,-74.013342,40.70722,1687.0
12:15:30,1,R27,Whitehall St-South Ferry,-74.012994,40.703087,1747.0
12:31:30,1,R28,Court St,-73.991777,40.6941,1927.0
12:23:30,1,R29,Jay St-MetroTech,-73.985942,40.69218,2034.0
13:11:30,1,R30,DeKalb Av,-73.981824,40.690635,1932.9999999999998
12:15:30,1,R31,Atlantic Av-Barclays Ctr,-73.97881,40.683666,2068.6
12:15:30,1,R32,Union St,-73.98311,40.677316,2161.0
12:15:30,1,R33,4 Av-9 St,-73.988302,40.670847,2221.0
12:15:30,1,R34,Prospect Av,-73.992872,40.665414,2281.0
12:15:30,1,R35,25 St,-73.998091,40.660397,2344.2999999999997
12:15:30,1,R36,36 St,-74.003549,40.655144,2370.6
12:15:30,1,R39,45 St,-74.010006,40.648939,2522.2
12:55:30,1,R40,53 St,-74.014034,40.645069,2584.0
12:15:30,1,R41,59 St,-74.017881,40.641362,2595.6
12:15:30,1,R42,Bay Ridge Av,-74.023377,40.634967,2716.140540218353
12:15:30,1,R43,77 St,-74.02551,40.629742,2776.140540218353
12:15:30,1,R44,86 St,-74.028398,40.622687,2896.140540218353
12:15:30,1,R45,Bay Ridge-95 St,-74.030876,40.616622,2940.140540218353
12:15:30,1,S01,Franklin Av,-73.955827,40.680596,2358.892683362961
12:15:30,1,S03,Park Pl,-73.957624,40.674772,2427.1926833629614
13:11:30,1,S04,Botanic Garden,-73.959245,40.670343,2517.1926833629614
