start_time,ntransfers,stop_id,stop_name,stop_lon,stop_lat,duration
12:07:00,0,101,Van Cortlandt Park-242 St,-73.898583,40.889248,3317.8709321498877
12:07:00,0,103,238 St,-73.90087,40.884667,3254.8709321498877
12:07:00,0,104,231 St,-73.904834,40.878856,3180.5709321498875
12:07:00,0,106,Marble Hill-225 St,-73.909831,40.874561,3111.570932149888
12:07:00,0,107,215 St,-73.915279,40.869444,3039.5709321498875
12:07:00,0,108,207 St,-73.918822,40.864621,2973.5709321498875
12:07:00,0,109,Dyckman St,-73.925536,40.860531,2916.5709321498875
12:07:00,0,110,191 St,-73.929412,40.855225,2850.7773427963257
12:07:00,0,111,181 St,-73.933596,40.849505,2781.7773427963257
12:07:00,0,112,168 St-Washington Hts,-73.940133,40.840556,2673.7773427963257
12:07:00,0,113,157 St,-73.94489,40.834041,2754.7773427963257
12:07:00,0,114,145 St,-73.95036,40.826551,2726.502317428589
12:07:00,0,115,137 St-City College,-73.953676,40.822008,2674.502317428589
12:07:00,0,116,125 St,-73.958372,40.815581,2606.502317428589
12:07:00,0,117,116 St-Columbia University,-73.96411,40.807722,2503.502317428589
12:07:00,0,118,Cathedral Pkwy (110 St),-73.966847,40.803967,2479.502317428589
12:07:00,0,119,103 St,-73.968379,40.799446,2406.502317428589
12:07:00,0,120,96 St,-73.972323,40.793919,2041.2727274894714
12:07:00,0,121,86 St,-73.976218,40.788644,2179.906975746155
12:07:00,0,122,79 St,-73.979917,40.783934,2234.5069757461547
12:07:00,0,123,72 St,-73.98197,40.778453,2196.2727274894714
12:15:00,0,124,66 St-Lincoln Center,-73.982209,40.77344,2297.6706347465515
12:15:00,0,125,59 St-Columbus Circle,-73.981929,40.768247,2380.6706347465515
12:15:00,0,126,50 St,-73.983849,40.761728,2316.6
12:07:00,0,127,Times Sq-42 St,-73.987495,40.75529,2217.6
12:07:00,0,128,34 St-Penn Station,-73.991057,40.750373,2304.6000000000004
12:07:00,0,129,28 St,-73.993365,40.747215,2362.6
12:07:00,0,130,23 St,-73.995657,40.744081,2422.6
12:07:00,0,131,18 St,-73.997871,40.74104,2482.6
12:07:00,0,132,14 St,-74.000201,40.737826,2402.1000000000004
12:07:00,0,133,Christopher St-Sheridan Sq,-74.002906,40.733422,2625.6
12:07:00,0,134,Houston St,-74.005367,40.728251,2681.5999999999995
12:07:00,0,135,Canal St,-74.006277,40.722854,2738.6
12:23:00,0,136,Franklin St,-74.006886,40.719318,2785.6
12:07:00,0,137,Chambers St,-74.009266,40.715478,2615.1
12:23:00,0,138,WTC Cortlandt,-74.012188,40.711835,2867.6
12:23:00,0,139,Rector St,-74.013783,40.707513,2940.6
12:23:00,0,142,South Ferry,-74.013664,40.702068,3018.6
12:39:00,0,201,Wakefield-241 St,-73.85062,40.903125,1331.0
12:39:00,0,204,Nereid Av,-73.854376,40.898379,1169.0
12:39:00,0,205,233 St,-73.857473,40.893193,1062.6000000000001
12:39:00,0,206,225 St,-73.860341,40.888022,970.5999999999999
12:39:00,0,207,219 St,-73.862633,40.883895,891.8
12:39:00,0,208,Gun Hill Rd,-73.866256,40.87785,790.1
12:39:00,0,209,Burke Av,-73.867164,40.871356,833.5999999999999
12:39:00,0,210,Allerton Av,-73.867352,40.865462,867.0
12:39:00,0,211,Pelham Pkwy,-73.867615,40.857192,767.9999999999999
12:39:00,0,212,Bronx Park East,-73.868457,40.848828,657.0
12:07:00,0,213,E 180 St,-73.873488,40.841894,463.3
12:07:00,0,214,West Farms Sq-E Tremont Av,-73.880049,40.840295,587.3000000000001
12:07:00,0,215,174 St,-73.887734,40.837288,692.3000000000001
12:07:00,0,216,Freeman St,-73.891865,40.829993,797.3000000000001
12:07:00,0,217,Simpson St,-73.893064,40.824073,896.3000000000001
12:07:00,0,218,Intervale Av,-73.896736,40.822181,961.3000000000001
12:07:00,0,219,Prospect Av,-73.90177,40.819585,1034.3
12:07:00,0,220,Jackson Av,-73.907807,40.81649,1120.3
12:07:00,0,221,3 Av-149 St,-73.917757,40.816109,1099.0
12:07:00,0,222,149 St-Grand Concourse,-73.926718,40.81841,1186.0
12:07:00,0,224,135 St,-73.94077,40.814229,1585.2727274894714
12:07:00,0,225,125 St,-73.945495,40.807754,1661.2727274894714
12:07:00,0,226,116 St,-73.949625,40.802098,1749.2727274894714
12:07:00,0,227,Central Park North (110 St),-73.951822,40.799075,1812.2727274894714
12:07:00,0,228,Park Place,-74.008811,40.713051,2689.1
12:07:00,0,229,Fulton St,-74.006571,40.709416,2784.1000000000004
12:07:00,1,230,Wall St,-74.0091,40.706821,2848.1000000000004
12:07:00,1,231,Clark St,-73.993086,40.697466,3014.1000000000004
12:07:00,1,232,Borough Hall,-73.989998,40.693219,3118.1000000000004
12:07:00,0,233,Hoyt St,-73.985065,40.690545,3186.1000000000004
12:07:00,0,234,Nevins St,-73.980492,40.688246,3079.6000000000004
12:07:00,0,235,Atlantic Av-Barclays Ctr,-73.977666,40.684359,3175.6000000000004
12:07:00,0,236,Bergen St,-73.975098,40.680829,3273.4770475387577
12:07:00,0,237,Grand Army Plaza,-73.971046,40.675235,3347.087804412842
12:07:00,0,238,Eastern Pkwy-Brooklyn Museum,-73.964375,40.671987,3435.087804412842
12:07:00,0,239,Franklin Av-Medgar Evers College,-73.958131,40.670682,3389.600000000001
12:07:00,0,241,President St-Medgar Evers College,-73.950683,40.667883,3532.600000000001
12:07:00,0,242,Sterling St,-73.95085,40.662742,3613.600000000001
12:07:00,0,243,Winthrop St,-73.9502,40.656652,3691.600000000001
12:07:00,0,244,Church Av,-73.949575,40.650843,3750.600000000001
13:51:00,0,245,Beverly Rd,-73.948959,40.645098,3799.600000000001
13:51:00,0,246,Newkirk Av-Little Haiti,-73.948411,40.639967,3877.600000000001
13:51:00,0,247,Flatbush Av-Brooklyn College,-73.947642,40.632836,3973.188237047196
12:07:00,0,248,Nostrand Av,-73.950466,40.669847,3520.500000000001
12:07:00,0,249,Kingston Av,-73.942161,40.669399,3566.5000000000005
12:07:00,0,250,Crown Hts-Utica Av,-73.932942,40.668897,3541.800000000001
12:07:00,0,251,Sutter Av-Rutland Rd,-73.92261,40.664717,3668.800000000001
12:07:00,0,252,Saratoga Av,-73.916327,40.661453,3762.800000000001
12:07:00,0,253,Rockaway Av,-73.908946,40.662549,3818.0244530200953
12:07:00,0,254,Junius St,-73.902447,40.663515,3754.56103978157
12:07:00,0,255,Pennsylvania Av,-73.894895,40.664635,3845.0244530200953
12:07:00,0,256,Van Siclen Av,-73.889395,40.665449,3913.0244530200957
12:07:00,0,257,New Lots Av,-73.884079,40.666235,3964.0244530200953
12:07:00,0,301,Harlem-148 St,-73.93647,40.82388,1932.5383805274967
12:07:00,0,302,145 St,-73.936245,40.820421,1883.1383805274966
12:07:00,1,401,Woodlawn,-73.878751,40.886037,2439.322367668152
12:07:00,1,402,Mosholu Pkwy,-73.884655,40.87975,2355.3223676681523
12:07:00,1,405,Bedford Park Blvd-Lehman College,-73.890064,40.873412,2260.322367668152
12:07:00,1,406,Kingsbridge Rd,-73.897174,40.86776,2171.322367668152
12:07:00,1,407,Fordham Rd,-73.901034,40.862803,2083.322367668152
12:07:00,1,408,183 St,-73.903879,40.858407,2008.3223676681519
12:07:00,1,409,Burnside Av,-73.907684,40.853453,1932.3223676681519
12:07:00,1,410,176 St,-73.911794,40.84848,1881.9223676681522
12:07:00,1,411,Mt Eden Av,-73.914685,40.844434,1811.922367668152
12:07:00,1,412,170 St,-73.917791,40.840075,1744.3223676681519
12:07:00,1,413,167 St,-73.9214,40.835537,1667.3223676681519
12:07:00,1,414,161 St-Yankee Stadium,-73.925831,40.827994,1577.3223676681519
12:07:00,0,415,149 St-Grand Concourse,-73.927351,40.818375,1454.3223676681519
12:07:00,0,416,138 St-Grand Concourse,-73.929849,40.813224,1269.9999999999998
12:07:00,0,418,Fulton St,-74.009509,40.710368,2565.6000000000004
12:07:00,0,419,Wall St,-74.011862,40.707557,2639.6000000000004
12:07:00,0,420,Bowling Green,-74.014065,40.704817,2716.6000000000004
12:07:00,0,423,Borough Hall,-73.990151,40.692404,2947.6000000000004
12:10:00,0,501,Eastchester-Dyre Av,-73.830834,40.8883,65.0
12:10:00,0,502,Baychester Av,-73.838591,40.878663,0.0
12:07:00,0,503,Gun Hill Rd,-73.846384,40.869526,90.0
12:07:00,0,504,Pelham Pkwy,-73.855359,40.858985,216.0
12:07:00,0,505,Morris Park,-73.860495,40.854364,302.0
13:35:00,0,601,Pelham Bay Park,-73.828121,40.852462,2731.4428585052488
13:35:00,0,602,Buhre Av,-73.832569,40.84681,2630.1428585052486
13:35:00,0,603,Middletown Rd,-73.836322,40.843863,2584.1428585052486
13:35:00,0,604,Westchester Sq-E Tremont Av,-73.842952,40.839892,2497.1428585052486
13:35:00,0,606,Zerega Av,-73.847036,40.836488,2425.242858505249
13:35:00,0,607,Castle Hill Av,-73.851222,40.834255,2365.242858505249
12:23:00,0,608,Parkchester,-73.860816,40.833226,2312.642858505249
12:23:00,0,609,St Lawrence Av,-73.867618,40.831509,2503.5871706962585
12:23:00,0,610,Morrison Av-Soundview,-73.874516,40.829521,2431.587170696258
12:23:00,0,611,Elder Av,-73.879159,40.828584,2398.5871706962585
12:23:00,0,612,Whitlock Av,-73.886283,40.826525,2305.7111087799067
12:23:00,0,613,Hunts Point Av,-73.890549,40.820948,2127.742858505249
12:07:00,0,614,Longwood Av,-73.896435,40.816104,2194.7111087799067
12:07:00,0,615,E 149 St,-73.904098,40.812118,2103.7111087799067
12:07:00,0,616,E 143 St-St Mary's St,-73.907657,40.808719,2055.711108779907
12:07:00,0,617,Cypress Av,-73.914042,40.805368,1963.7111087799071
12:07:00,0,618,Brook Av,-73.91924,40.807566,1901.7111087799074
12:07:00,0,619,3 Av-138 St,-73.926138,40.810476,1795.742858505249
12:07:00,0,621,125 St,-73.937594,40.804138,1391.6
12:07:00,0,622,116 St,-73.941617,40.798629,1710.242858505249
12:07:00,0,623,110 St,-73.94425,40.79502,1781.242858505249
12:07:00,0,624,103 St,-73.947478,40.7906,1841.242858505249
12:07:00,0,625,96 St,-73.95107,40.785672,1922.2428585052487
12:07:00,0,626,86 St,-73.955589,40.779492,1647.6
12:07:00,0,627,77 St,-73.959874,40.77362,2062.599998092651
12:07:00,0,628,68 St-Hunter College,-73.96387,40.768141,2129.0126996994018
12:07:00,0,629,59 St,-73.967967,40.762526,1819.6
12:07:00,0,630,51 St,-73.97192,40.757107,2136.0126996994018
12:07:00,0,631,Grand Central-42 St,-73.976848,40.751776,1978.6
12:07:00,0,632,33 St,-73.982076,40.746081,2185.6000000000004
12:07:00,0,633,28 St,-73.984264,40.74307,2247.6
12:07:00,0,634,23 St,-73.986599,40.739864,2281.6000000000004
12:07:00,0,635,14 St-Union Sq,-73.989951,40.734673,2189.6
12:07:00,0,636,Astor Pl,-73.99107,40.730054,2457.6
12:07:00,0,637,Bleecker St,-73.994659,40.725915,2539.6
12:07:00,0,638,Spring St,-73.997141,40.722301,2599.6
12:07:00,0,639,Canal St,-74.000193,40.718803,2585.6
12:07:00,0,640,Brooklyn Bridge-City Hall,-74.004131,40.713065,2463.6000000000004
12:07:00,2,701,Flushing-Main St,-73.83003,40.7596,3247.0705865383143
12:07:00,2,702,Mets-Willets Point,-73.845625,40.754622,3127.3096328735355
12:07:00,2,705,111 St,-73.855334,40.75173,3108.0705865383143
12:07:00,2,706,103 St-Corona Plaza,-73.8627,40.749865,3044.0705865383143
12:07:00,2,707,Junction Blvd,-73.869527,40.749145,2971.3096328735355
12:07:00,2,708,90 St-Elmhurst Av,-73.876613,40.748408,2937.0705865383143
12:39:00,2,709,82 St-Jackson Hts,-73.883697,40.747659,2877.0705865383143
12:07:00,1,710,74 St-Broadway,-73.891394,40.746848,2811.0705865383143
12:55:00,2,711,69 St,-73.896403,40.746325,2753.0705865383143
12:07:00,1,712,61 St-Woodside,-73.902984,40.74563,2700.0705865383143
12:07:00,1,713,52 St,-73.912549,40.744149,2614.0705865383143
12:07:00,1,714,46 St-Bliss St,-73.918435,40.743132,2571.0705865383143
12:07:00,1,715,40 St-Lowery St,-73.924016,40.743781,2531.0705865383143
12:07:00,1,716,33 St-Rawson St,-73.930997,40.744587,2475.0705865383147
12:07:00,1,718,Queensboro Plaza,-73.940202,40.750582,2361.0705865383147
12:07:00,1,719,Court Sq,-73.945264,40.747023,2389.5999999999995
12:07:00,1,720,Hunters Point Av,-73.948916,40.742216,2305.6
12:07:00,1,721,Vernon Blvd-Jackson Av,-73.953581,40.742626,2288.6
12:23:00,1,723,Grand Central-42 St,-73.976041,40.751431,2098.6
12:23:00,1,724,5 Av,-73.981963,40.753821,2125.6000000000004
12:23:00,1,725,Times Sq-42 St,-73.987691,40.755477,2189.6000000000004
12:23:00,1,726,34 St-Hudson Yards,-74.00191,40.755882,2329.6000000000004
12:23:00,1,901,Grand Central-42 St,-73.979189,40.752769,2038.6
12:23:00,1,902,Times Sq-42 St,-73.986229,40.755983,2116.6
12:07:00,2,A02,Inwood-207 St,-73.919899,40.868072,2840.054705286026
12:07:00,2,A03,Dyckman St,-73.927271,40.865491,2777.7547052860264
12:07:00,2,A05,190 St,-73.93418,40.859022,2699.154705286026
12:07:00,2,A06,181 St,-73.937969,40.851695,2619.154705286026
12:07:00,2,A07,175 St,-73.939704,40.847391,2552.154705286026
12:31:00,2,A09,168 St,-73.939561,40.840719,2448.288211584091
12:07:00,3,A10,163 St-Amsterdam Av,-73.939892,40.836013,2388.288211584091
12:07:00,3,A11,155 St,-73.941514,40.830518,2328.288211584091
12:31:00,2,A12,145 St,-73.944216,40.824783,2097.1303153038025
12:31:00,2,A14,135 St,-73.947649,40.817894,2083.1303153038025
13:51:00,2,A15,125 St,-73.952343,40.811109,2193.1303153038025
12:07:00,2,A16,116 St,-73.954882,40.805085,2271.1303153038025
12:07:00,2,A17,Cathedral Pkwy (110 St),-73.958161,40.800603,2332.1303153038025
12:07:00,2,A18,103 St,-73.961454,40.796092,2392.1303153038025
12:07:00,2,A19,96 St,-73.964696,40.791642,2452.1303153038025
12:07:00,2,A20,86 St,-73.968916,40.785868,2516.1303153038025
12:07:00,1,A21,81 St-Museum of Natural History,-73.972143,40.781433,2502.6
12:07:00,1,A22,72 St,-73.97641,40.775594,2442.6
12:31:00,2,A24,59 St-Columbus Circle,-73.981736,40.768296,2342.5
12:23:00,1,A25,50 St,-73.985984,40.762456,2282.6000000000004
13:51:00,1,A27,42 St-Port Authority Bus Terminal,-73.989735,40.757308,2217.6
13:51:00,1,A28,34 St-Penn Station,-73.993391,40.752287,2280.6
13:51:00,1,A30,23 St,-73.998041,40.745906,2349.7000000000003
13:51:00,1,A31,14 St,-74.00169,40.740893,2400.6
12:07:00,2,A32,W 4 St-Wash Sq,-74.000495,40.732338,2515.6
13:51:00,1,A33,Spring St,-74.003739,40.726227,2612.7000000000003
12:47:00,1,A34,Canal St,-74.005229,40.720824,2643.6
12:47:00,1,A36,Chambers St,-74.008585,40.714111,2733.6
13:51:00,1,A38,Fulton St,-74.007691,40.710197,2798.6
13:11:00,1,A40,High St,-73.990531,40.699337,2968.6
13:11:00,1,A41,Jay St-MetroTech,-73.987342,40.692338,3084.6
13:11:00,1,A42,Hoyt-Schermerhorn Sts,-73.985001,40.688484,3156.6
12:31:00,1,A43,Lafayette Av,-73.973946,40.686113,3294.7
12:31:00,1,A44,Clinton-Washington Avs,-73.965838,40.683263,3353.7
12:31:00,1,A45,Franklin Av,-73.956848,40.68138,3440.8499976158146
13:11:00,1,A46,Nostrand Av,-73.950426,40.680438,3391.6
12:15:00,1,A47,Kingston-Throop Avs,-73.940858,40.679921,3459.6
12:15:00,1,A48,Utica Av,-73.930729,40.679364,3523.6
12:15:00,1,A49,Ralph Av,-73.920786,40.678822,3599.8
12:15:00,1,A50,Rockaway Av,-73.911946,40.67834,3564.8794270515436
13:11:00,1,A51,Broadway Junction,-73.905316,40.678334,3504.8794270515436
12:47:00,1,A52,Liberty Av,-73.896548,40.674542,3624.8794270515436
12:47:00,1,A53,Van Siclen Av,-73.890358,40.67271,3689.8794270515436
12:47:00,1,A54,Shepherd Av,-73.88075,40.67413,3758.8794270515436
13:11:00,1,A55,Euclid Av,-73.872106,40.675377,3749.8794270515436
13:11:00,1,A57,Grant Av,-73.86505,40.677044,3832.8794270515436
13:11:00,1,A59,80 St,-73.858992,40.679371,3892.879427051544
13:11:00,1,A60,88 St,-73.85147,40.679843,3955.879427051544
13:11:00,1,A61,Rockaway Blvd,-73.843853,40.680429,4015.879427051544
13:11:00,1,A63,104 St,-73.837683,40.681711,4075.879427051544
13:11:00,1,A64,111 St,-73.832163,40.684331,4134.879427051545
13:11:00,1,A65,Ozone Park-Lefferts Blvd,-73.825798,40.685951,4196.879427051544
12:23:00,1,B04,21 St-Queensbridge,-73.942836,40.754203,2410.670584869385
12:23:00,1,B06,Roosevelt Island,-73.95326,40.759145,2302.070584869385
12:39:00,1,B08,Lexington Av/63 St,-73.966113,40.764629,2251.0705848693847
13:11:00,1,B10,57 St,-73.97745,40.763972,2383.570584869385
12:39:00,1,B12,9 Av,-73.994324,40.646292,3867.6722232818606
12:39:00,1,B13,Fort Hamilton Pkwy,-73.994304,40.640914,3938.1000000000004
12:39:00,1,B14,50 St,-73.994791,40.63626,3998.1000000000004
12:39:00,1,B15,55 St,-73.995476,40.631435,4061.1000000000004
12:39:00,1,B16,62 St,-73.996895,40.626472,4096.099999999999
12:39:00,1,B17,71 St,-73.998864,40.619589,4166.1
12:39:00,1,B18,79 St,-74.00061,40.613501,4234.1
12:39:00,1,B19,18 Av,-74.001736,40.607954,4294.1
12:39:00,1,B20,20 Av,-73.998168,40.604556,4354.1
12:39:00,1,B21,Bay Pkwy,-73.993728,40.601875,4414.1
13:19:00,1,B22,25 Av,-73.986829,40.597704,4519.1
13:19:00,1,B23,Bay 50 St,-73.983765,40.588841,4644.1
12:39:00,2,D01,Norwood-205 St,-73.878855,40.874811,2446.9303153038027
12:39:00,2,D03,Bedford Park Blvd,-73.887138,40.873244,2372.1303153038025
12:39:00,2,D04,Kingsbridge Rd,-73.893509,40.866978,2299.1303153038025
12:39:00,2,D05,Fordham Rd,-73.897749,40.861296,2232.1303153038025
12:39:00,2,D06,182-183 Sts,-73.900741,40.856093,2172.1303153038025
12:39:00,2,D07,Tremont Av,-73.905227,40.85041,2112.1303153038025
12:39:00,2,D08,174-175 Sts,-73.910136,40.8459,2047.1303153038023
12:39:00,2,D09,170 St,-73.9134,40.839306,1977.1303153038025
12:39:00,2,D10,167 St,-73.91844,40.833771,1907.1303153038025
13:27:00,2,D11,161 St-Yankee Stadium,-73.925651,40.827905,1831.1303153038025
12:31:00,2,D12,155 St,-73.938209,40.830135,1931.1303153038025
12:31:00,2,D13,145 St,-73.944216,40.824783,2026.1303153038027
12:23:00,1,D14,7 Av,-73.981637,40.762862,2342.6000000000004
12:39:00,1,D15,47-50 Sts-Rockefeller Ctr,-73.981329,40.758663,2412.6
12:39:00,1,D16,42 St-Bryant Pk,-73.984569,40.754222,2350.6000000000004
12:39:00,1,D17,34 St-Herald Sq,-73.987823,40.749719,2410.6000000000004
12:39:00,1,D18,23 St,-73.992821,40.742878,2485.6000000000004
12:39:00,1,D19,14 St,-73.996209,40.738228,2550.6000000000004
13:11:00,1,D20,W 4 St-Wash Sq,-74.000495,40.732338,2552.6000000000004
13:11:00,1,D21,Broadway-Lafayette St,-73.996204,40.725297,2672.6000000000004
12:15:00,1,D22,Grand St,-73.993753,40.718267,2792.6000000000004
12:15:00,1,D24,Atlantic Av-Barclays Ctr,-73.97689,40.68446,3235.6000000000004
12:15:00,1,D25,7 Av,-73.972367,40.67705,3355.6000000000004
12:15:00,1,D26,Prospect Park,-73.962246,40.661614,3518.6000000000004
12:15:00,1,D27,Parkside Av,-73.961495,40.655292,3578.6000000000004
12:15:00,1,D28,Church Av,-73.962982,40.650527,3643.6000000000004
12:15:00,1,D29,Beverley Rd,-73.964492,40.644031,3683.6000000000004
12:15:00,1,D30,Cortelyou Rd,-73.963891,40.640927,3741.6000000000004
12:15:00,1,D31,Newkirk Plaza,-73.962793,40.635082,3812.2904776096348
12:15:00,1,D32,Avenue H,-73.961639,40.62927,3858.6000000000004
12:15:00,1,D33,Avenue J,-73.960803,40.625039,3918.6000000000004
12:15:00,1,D34,Avenue M,-73.959399,40.617618,3986.6000000000004
12:15:00,1,D35,Kings Hwy,-73.957734,40.60867,4007.2904776096348
12:15:00,1,D37,Avenue U,-73.955929,40.5993,4159.600000000001
12:15:00,1,D38,Neck Rd,-73.955161,40.595246,4214.600000000001
12:15:00,1,D39,Sheepshead Bay,-73.954155,40.586896,4195.290477609635
12:15:00,1,D40,Brighton Beach,-73.961376,40.577621,4253.290477609635
12:15:00,1,D41,Ocean Pkwy,-73.968501,40.576312,4451.290477609635
12:15:00,1,D42,W 8 St-NY Aquarium,-73.975939,40.576127,4479.500000000001
12:15:00,1,D43,Coney Island-Stillwell Av,-73.981233,40.577422,4555.300000000001
13:11:00,1,E01,World Trade Center,-74.009781,40.712582,2748.5999999999995
13:51:00,1,F01,Jamaica-179 St,-73.783817,40.712646,3602.9705848693848
12:23:00,1,F02,169 St,-73.793604,40.71047,3562.9705848693848
12:23:00,1,F03,Parsons Blvd,-73.803326,40.707564,3447.970584869385
12:23:00,1,F04,Sutphin Blvd,-73.810708,40.70546,3387.970584869385
12:23:00,1,F05,Briarwood,-73.820574,40.709179,3272.970584869385
12:39:00,1,F06,Kew Gardens-Union Tpke,-73.831008,40.714441,3157.970584869385
12:23:00,1,F07,75 Av,-73.837324,40.718331,3092.970584869385
12:39:00,1,F09,Court Sq-23 St,-73.946,40.747846,2509.5999999999995
12:23:00,1,F11,Lexington Av/53 St,-73.969055,40.757552,2371.4888895511626
12:23:00,1,F12,5 Av/53 St,-73.975224,40.760167,2407.6000000000004
12:15:00,1,F14,2 Av,-73.989938,40.723402,2803.0000000000005
12:15:00,1,F15,Delancey St-Essex St,-73.988114,40.718611,2868.000000000001
12:15:00,1,F16,East Broadway,-73.990173,40.713715,2928.000000000001
12:55:00,1,F18,York St,-73.986751,40.701397,3048.000000000001
13:11:00,1,F20,Bergen St,-73.990862,40.686145,3220.7000000000007
13:11:00,1,F21,Carroll St,-73.995048,40.680303,3340.7000000000007
13:11:00,1,F22,Smith-9 Sts,-73.995959,40.67358,3450.700000000001
13:11:00,1,F23,4 Av-9 St,-73.989779,40.670272,3511.800000000001
13:11:00,1,F24,7 Av,-73.980305,40.666271,3455.200000000001
13:11:00,1,F25,15 St-Prospect Park,-73.979493,40.660365,3580.365138959886
13:11:00,1,F26,Fort Hamilton Pkwy,-73.975776,40.650782,3700.365138959886
13:11:00,1,F27,Church Av,-73.979678,40.644041,3684.2000000000016
13:11:00,1,F29,Ditmas Av,-73.978172,40.636119,3804.2000000000016
13:11:00,1,F30,18 Av,-73.976971,40.629755,3892.7000000000016
13:11:00,1,F31,Avenue I,-73.976127,40.625322,3952.7000000000016
13:11:00,1,F32,Bay Pkwy,-73.975264,40.620769,4011.7000000000016
13:11:00,1,F33,Avenue N,-73.974197,40.61514,4076.700000000001
13:11:00,1,F34,Avenue P,-73.973022,40.608944,4136.700000000002
13:11:00,1,F35,Kings Hwy,-73.972361,40.603217,4201.700000000001
13:35:00,1,F36,Avenue U,-73.973357,40.596063,4267.000000000001
13:35:00,1,F38,Avenue X,-73.97425,40.58962,4332.000000000001
12:15:00,1,F39,Neptune Av,-73.974574,40.581011,4412.500000000001
12:39:00,1,G05,Jamaica Center-Parsons/Archer,-73.801109,40.702147,3595.4561319351205
12:39:00,1,G06,Sutphin Blvd-Archer Av-JFK Airport,-73.807969,40.700486,3530.45613193512
12:39:00,1,G07,Jamaica-Van Wyck,-73.816859,40.702566,3425.45613193512
12:39:00,1,G08,Forest Hills-71 Av,-73.844521,40.721691,3015.670584869385
13:51:00,1,G09,67 Av,-73.852719,40.726523,3175.670584869385
13:51:00,1,G10,63 Dr-Rego Park,-73.861604,40.729846,3176.5316965103157
13:51:00,1,G11,Woodhaven Blvd,-73.869229,40.733106,3114.5316965103157
13:51:00,1,G12,Grand Av-Newtown,-73.877223,40.737015,3041.5316965103157
13:51:00,1,G13,Elmhurst Av,-73.882017,40.742454,2977.531696510315
12:39:00,1,G14,Jackson Hts-Roosevelt Av,-73.891338,40.746644,2665.670584869385
12:31:00,1,G15,65 St,-73.898453,40.749669,2862.0705848693847
12:07:00,1,G16,Northern Blvd,-73.906006,40.752885,2797.0705848693847
12:07:00,1,G18,46 St,-73.913333,40.756312,2734.0705848693847
12:07:00,1,G19,Steinway St,-73.92074,40.756879,2661.0705848693847
12:07:00,1,G20,36 St,-73.928781,40.752039,2541.0705848693847
12:07:00,1,G21,Queens Plaza,-73.937243,40.748973,2426.0705848693847
13:11:00,2,G22,Court Sq,-73.943832,40.746554,2449.5999999999995
13:11:00,2,G24,21 St,-73.949724,40.744065,2509.5999999999995
13:11:00,2,G26,Greenpoint Av,-73.954449,40.731352,2629.5999999999995
13:11:00,2,G28,Nassau Av,-73.951277,40.724635,2707.5999999999995
13:11:00,2,G29,Metropolitan Av,-73.951418,40.712792,2827.5999999999995
13:11:00,2,G30,Broadway,-73.950308,40.706092,2887.5999999999995
13:11:00,2,G31,Flushing Av,-73.950234,40.700377,2949.5999999999995
13:11:00,2,G32,Myrtle-Willoughby Avs,-73.949046,40.694568,3009.5999999999995
12:07:00,2,G33,Bedford-Nostrand Avs,-73.953522,40.689627,3079.5999999999995
12:31:00,1,G34,Classon Av,-73.96007,40.688873,3139.5999999999995
12:31:00,1,G35,Clinton-Washington Avs,-73.966839,40.688089,3199.5999999999995
12:31:00,1,G36,Fulton St,-73.975375,40.687119,3261.599999999999
13:35:00,1,H01,Aqueduct Racetrack,-73.834058,40.668234,4190.879427051545
12:15:00,1,H02,Aqueduct-N Conduit Av,-73.834058,40.668234,4218.3001698017115
12:15:00,1,H03,Howard Beach-JFK Airport,-73.830301,40.660476,4302.879427051544
12:15:00,1,H04,Broad Channel,-73.815925,40.608382,4707.879427051544
12:15:00,1,H06,Beach 67 St,-73.796924,40.590927,4951.3001698017115
12:15:00,1,H07,Beach 60 St,-73.788522,40.592374,5016.3001698017115
12:15:00,1,H08,Beach 44 St,-73.776013,40.592943,5084.3001698017115
12:15:00,1,H09,Beach 36 St,-73.768175,40.595398,5146.3001698017115
12:15:00,1,H10,Beach 25 St,-73.761353,40.600066,5206.3001698017115
12:15:00,1,H11,Far Rockaway-Mott Av,-73.755405,40.603995,5257.900169801712
12:15:00,1,H12,Beach 90 St,-73.813641,40.588034,4940.879427051545
12:15:00,1,H13,Beach 98 St,-73.820558,40.585307,5000.879427051545
12:15:00,1,H14,Beach 105 St,-73.827559,40.583209,5060.879427051545
12:15:00,1,H15,Rockaway Park-Beach 116 St,-73.835592,40.580903,5125.879427051544
12:39:00,1,J12,121 St,-73.828294,40.700492,3745.2561319351203
12:39:00,1,J13,111 St,-73.836345,40.697418,3746.2561319351203
12:39:00,1,J14,104 St,-73.84433,40.695178,3848.2561319351203
12:39:00,1,J15,Woodhaven Blvd,-73.851576,40.693879,3938.2561319351203
12:39:00,1,J16,85 St-Forest Pkwy,-73.86001,40.692435,3962.7794270515437
12:39:00,1,J17,75 St-Elderts Ln,-73.867139,40.691324,3861.56103978157
12:39:00,1,J19,Cypress Hills,-73.87255,40.689941,3842.7794270515437
12:39:00,1,J20,Crescent St,-73.873785,40.683194,3792.3610397815696
12:47:00,1,J21,Norwood Av,-73.880039,40.68141,3755.56103978157
12:47:00,1,J22,Cleveland St,-73.884639,40.679947,3751.7552150249476
12:47:00,1,J23,Van Siclen Av,-73.891688,40.678024,3654.8794270515436
12:31:00,2,J24,Alabama Av,-73.898654,40.676992,3579.8794270515436
12:47:00,1,J27,Broadway Junction,-73.904512,40.679498,3491.56103978157
12:47:00,1,J28,Chauncey St,-73.910456,40.682893,3556.56103978157
12:47:00,1,J29,Halsey St,-73.916559,40.68637,3533.6000000000004
12:47:00,1,J30,Gates Av,-73.92227,40.68963,3473.6000000000004
12:47:00,1,J31,Kosciuszko St,-73.928814,40.693342,3413.6000000000004
12:39:00,1,L01,8 Av,-74.002578,40.739777,2460.6
12:39:00,1,L02,6 Av,-73.996786,40.737335,2456.2304347515105
12:39:00,1,L03,14 St-Union Sq,-73.99073,40.734789,2403.5610397815703
12:07:00,1,L05,3 Av,-73.986122,40.732849,2445.5610397815703
12:07:00,1,L06,1 Av,-73.981628,40.730953,2465.561039781571
12:07:00,1,L08,Bedford Av,-73.956872,40.717304,2645.561039781571
12:07:00,1,L10,Lorimer St,-73.950275,40.714063,2718.561039781571
12:07:00,1,L11,Graham Av,-73.944053,40.714565,2740.561039781571
12:07:00,1,L12,Grand St,-73.94067,40.711926,2809.561039781571
12:07:00,1,L13,Montrose Av,-73.93985,40.707739,2833.561039781571
12:07:00,1,L14,Morgan Av,-73.933147,40.706152,2873.5610397815703
12:07:00,1,L15,Jefferson St,-73.922913,40.706607,2943.5610397815703
12:07:00,1,L16,DeKalb Av,-73.918425,40.703811,2994.5610397815703
12:07:00,1,L17,Myrtle-Wyckoff Avs,-73.911586,40.699814,3050.5610397815703
12:07:00,1,L19,Halsey St,-73.904084,40.695602,3073.5610397815703
12:07:00,1,L20,Wilson Av,-73.904046,40.688764,3164.5610397815703
12:07:00,1,L21,Bushwick Av-Aberdeen St,-73.905249,40.682829,3235.56103978157
12:07:00,1,L22,Broadway Junction,-73.90324,40.678856,3266.56103978157
12:07:00,1,L24,Atlantic Av,-73.903097,40.675345,3336.56103978157
12:07:00,1,L25,Sutter Av,-73.901975,40.669367,3389.56103978157
12:07:00,1,L26,Livonia Av,-73.900571,40.664038,3424.56103978157
12:07:00,1,L27,New Lots Av,-73.899232,40.658733,3450.56103978157
12:07:00,1,L28,East 105 St,-73.899485,40.650573,3509.56103978157
13:27:00,1,L29,Canarsie-Rockaway Pkwy,-73.90185,40.646654,3569.56103978157
12:07:00,2,M01,Middle Village-Metropolitan Av,-73.889601,40.711396,3502.551424121856
12:07:00,2,M04,Fresh Pond Rd,-73.895877,40.706186,3462.5514241218566
12:07:00,2,M05,Forest Av,-73.903077,40.704423,3392.5514241218566
12:47:00,2,M06,Seneca Av,-73.90774,40.702762,3328.5514241218566
13:43:00,1,M08,Myrtle-Wyckoff Avs,-73.912385,40.69943,3275.5610397815703
12:07:00,2,M09,Knickerbocker Av,-73.919711,40.698664,3342.5610397815703
13:43:00,1,M10,Central Av,-73.927397,40.697857,3415.5610397815703
12:47:00,1,M11,Myrtle Av,-73.935657,40.697207,3341.6
13:43:00,1,M12,Flushing Av,-73.941126,40.70026,3282.6
13:43:00,1,M13,Lorimer St,-73.947408,40.703869,3222.6
13:43:00,1,M14,Hewes St,-73.953431,40.70687,3162.6
13:43:00,1,M16,Marcy Av,-73.957757,40.708359,3102.6
13:43:00,1,M18,Delancey St-Essex St,-73.987437,40.718315,2787.6
12:07:00,1,M19,Bowery,-73.993915,40.72028,2727.6
12:07:00,1,M20,Canal St,-73.999892,40.718092,2643.6000000000004
12:23:00,1,M21,Chambers St,-74.003401,40.713243,2583.6000000000004
12:47:00,1,M22,Fulton St,-74.007582,40.710374,2643.6000000000004
12:47:00,1,M23,Broad St,-74.011056,40.706476,2706.6
12:39:00,1,N02,8 Av,-74.011719,40.635064,3888.2000000000007
12:39:00,1,N03,Fort Hamilton Pkwy,-74.005351,40.631386,4003.6000000000004
12:39:00,1,N04,New Utrecht Av,-73.996353,40.624842,4088.600000000001
12:39:00,1,N05,18 Av,-73.990414,40.620671,4152.6
12:39:00,1,N06,20 Av,-73.985026,40.61741,4212.6
12:39:00,1,N07,Bay Pkwy,-73.981848,40.611815,4274.6
12:39:00,1,N08,Kings Hwy,-73.980353,40.603923,4349.6
12:39:00,1,N09,Avenue U,-73.979137,40.597473,4409.6
12:39:00,1,N10,86 St,-73.97823,40.592721,4474.6
12:39:00,1,Q01,Canal St,-74.00046,40.718383,2640.6000000000004
12:39:00,1,Q03,72 St,-73.958424,40.768799,2329.0705848693847
12:39:00,1,Q04,86 St,-73.951787,40.777891,2439.9705848693848
12:39:00,1,Q05,96 St,-73.947152,40.784318,2477.6705848693846
13:59:00,1,R01,Astoria-Ditmars Blvd,-73.912034,40.775036,2734.070584869384
13:59:00,1,R03,Astoria Blvd,-73.917843,40.770258,2693.0705848693847
13:59:00,1,R04,30 Av,-73.921479,40.766779,2631.070584869385
13:59:00,1,R05,Broadway,-73.925508,40.76182,2571.070584869385
13:59:00,1,R06,36 Av,-73.929575,40.756804,2511.070584869385
13:59:00,1,R08,39 Av-Dutch Kills,-73.932755,40.752882,2446.0705848693847
13:59:00,1,R09,Queensboro Plaza,-73.940202,40.750582,2314.0705848693847
12:07:00,1,R11,Lexington Av/59 St,-73.967258,40.76266,2131.0705848693847
12:07:00,1,R13,5 Av/59 St,-73.973347,40.764811,2193.0705848693847
12:07:00,1,R14,57 St-7 Av,-73.980658,40.764664,2308.0705848693847
12:07:00,1,R15,49 St,-73.984139,40.759901,2277.6
12:07:00,1,R16,Times Sq-42 St,-73.986754,40.754672,2217.6
12:07:00,1,R17,34 St-Herald Sq,-73.98795,40.749567,2282.6000000000004
12:07:00,1,R18,28 St,-73.988691,40.745494,2342.6000000000004
12:07:00,1,R19,23 St,-73.989344,40.741303,2397.6
12:31:00,1,R20,14 St-Union Sq,-73.990568,40.735736,2407.6000000000004
12:15:00,1,R21,8 St-NYU,-73.992629,40.730328,2485.6
12:15:00,1,R22,Prince St,-73.997702,40.724329,2545.6
12:15:00,1,R23,Canal St,-74.001775,40.719527,2610.6
12:23:00,1,R24,City Hall,-74.006978,40.713282,2730.6
12:23:00,1,R25,Cortlandt St,-74.011029,40.710668,2819.6
12:23:00,1,R26,Rector St,-74.013342,40.70722,2879.6
12:23:00,1,R27,Whitehall St-South Ferry,-74.012994,40.703087,2939.6
12:23:00,1,R28,Court St,-73.991777,40.6941,3150.0
12:23:00,1,R29,Jay St-MetroTech,-73.985942,40.69218,3216.8
12:15:00,1,R30,DeKalb Av,-73.981824,40.690635,3105.6000000000004
12:39:00,1,R31,Atlantic Av-Barclays Ctr,-73.97881,40.683666,3241.2000000000003
13:11:00,1,R32,Union St,-73.98311,40.677316,3333.6000000000004
13:11:00,1,R33,4 Av-9 St,-73.988302,40.670847,3393.6000000000004
13:11:00,1,R34,Prospect Av,-73.992872,40.665414,3453.6000000000004
13:11:00,1,R35,25 St,-73.998091,40.660397,3516.9
12:39:00,1,R36,36 St,-74.003549,40.655144,3543.2000000000003
13:11:00,1,R39,45 St,-74.010006,40.648939,3694.7999999999997
12:39:00,1,R40,53 St,-74.014034,40.645069,3756.6
12:39:00,1,R41,59 St,-74.017881,40.641362,3768.2000000000003
13:11:00,1,R42,Bay Ridge Av,-74.023377,40.634967,3888.740540218354
13:11:00,1,R43,77 St,-74.02551,40.629742,3948.740540218354
13:11:00,1,R44,86 St,-74.028398,40.622687,4068.740540218354
13:11:00,1,R45,Bay Ridge-95 St,-74.030876,40.616622,4112.740540218354
12:39:00,1,S01,Franklin Av,-73.955827,40.680596,3500.8499976158146
12:39:00,1,S03,Park Pl,-73.957624,40.674772,3569.1499976158148
12:15:00,1,S04,Botanic Garden,-73.959245,40.670343,3652.600000000001
