start_time,ntransfers,stop_id,stop_name,stop_lon,stop_lat,duration
12:07:00,2,101,Van Cortlandt Park-242 St,-73.898583,40.889248,2862.2289906024944
12:07:00,2,103,238 St,-73.90087,40.884667,2799.2289906024944
12:07:00,2,104,231 St,-73.904834,40.878856,2724.928990602494
12:07:00,2,106,Marble Hill-225 St,-73.909831,40.874561,2655.928990602494
12:07:00,2,107,215 St,-73.915279,40.869444,2583.928990602494
12:07:00,2,108,207 St,-73.918822,40.864621,2517.928990602494
12:07:00,2,109,Dyckman St,-73.925536,40.860531,2460.9289906024937
12:07:00,2,110,191 St,-73.929412,40.855225,2395.135401248932
12:07:00,2,111,181 St,-73.933596,40.849505,2326.135401248932
12:43:00,0,112,168 St-Washington Hts,-73.940133,40.840556,2218.1354012489323
12:07:00,2,113,157 St,-73.94489,40.834041,2299.1354012489323
12:07:00,2,114,145 St,-73.95036,40.826551,2400.135401248932
12:43:00,0,115,137 St-City College,-73.953676,40.822008,2435.980919361114
12:43:00,0,116,125 St,-73.958372,40.815581,2371.9809193611145
12:43:00,0,117,116 St-Columbia University,-73.96411,40.807722,2268.9809193611145
12:43:00,0,118,Cathedral Pkwy (110 St),-73.966847,40.803967,2225.980919361114
12:43:00,0,119,103 St,-73.968379,40.799446,2155.980919361114
12:35:00,0,120,96 St,-73.972323,40.793919,1844.8107414245605
12:43:00,0,121,86 St,-73.976218,40.788644,1980.9809193611143
12:43:00,0,122,79 St,-73.979917,40.783934,1914.9809193611145
12:07:00,2,123,72 St,-73.98197,40.778453,1753.5
12:07:00,2,124,66 St-Lincoln Center,-73.982209,40.77344,1781.4999999999998
12:07:00,2,125,59 St-Columbus Circle,-73.981929,40.768247,1727.4999999999998
12:07:00,2,126,50 St,-73.983849,40.761728,1636.5
12:47:00,2,127,Times Sq-42 St,-73.987495,40.75529,1537.5
12:07:00,2,128,34 St-Penn Station,-73.991057,40.750373,1624.5
12:07:00,2,129,28 St,-73.993365,40.747215,1682.5
12:07:00,2,130,23 St,-73.995657,40.744081,1742.5
12:07:00,2,131,18 St,-73.997871,40.74104,1802.5
12:07:00,2,132,14 St,-74.000201,40.737826,1722.0
12:07:00,2,133,Christopher St-Sheridan Sq,-74.002906,40.733422,1945.5000000000002
12:07:00,2,134,Houston St,-74.005367,40.728251,2001.5
12:07:00,2,135,Canal St,-74.006277,40.722854,2058.5
12:07:00,2,136,Franklin St,-74.006886,40.719318,2105.5
12:07:00,2,137,Chambers St,-74.009266,40.715478,1935.0
12:01:30,2,138,WTC Cortlandt,-74.012188,40.711835,2187.5
12:01:30,2,139,Rector St,-74.013783,40.707513,2260.5000000000005
12:01:30,2,142,South Ferry,-74.013664,40.702068,2338.5
12:35:00,0,201,Wakefield-241 St,-73.85062,40.903125,2592.011108779907
12:35:00,0,204,Nereid Av,-73.854376,40.898379,2490.011108779907
12:35:00,0,205,233 St,-73.857473,40.893193,2450.011108779907
12:35:00,0,206,225 St,-73.860341,40.888022,2365.0111087799073
12:35:00,0,207,219 St,-73.862633,40.883895,2292.011108779907
12:35:00,0,208,Gun Hill Rd,-73.866256,40.87785,2205.711108779907
12:35:00,0,209,Burke Av,-73.867164,40.871356,2118.7111087799067
12:35:00,0,210,Allerton Av,-73.867352,40.865462,2035.711108779907
12:35:00,0,211,Pelham Pkwy,-73.867615,40.857192,1936.711108779907
12:35:00,0,212,Bronx Park East,-73.868457,40.848828,1825.711108779907
12:35:00,0,213,E 180 St,-73.873488,40.841894,1681.711108779907
12:35:00,0,214,West Farms Sq-E Tremont Av,-73.880049,40.840295,1750.7111087799071
12:35:00,0,215,174 St,-73.887734,40.837288,1644.7111087799071
12:35:00,0,216,Freeman St,-73.891865,40.829993,1547.7111087799071
12:35:00,0,217,Simpson St,-73.893064,40.824073,1434.7111087799071
12:35:00,0,218,Intervale Av,-73.896736,40.822181,1364.7111087799071
12:35:00,0,219,Prospect Av,-73.90177,40.819585,1297.7111087799071
12:35:00,0,220,Jackson Av,-73.907807,40.81649,1211.7111087799071
12:35:00,0,221,3 Av-149 St,-73.917757,40.816109,1095.7111087799071
12:35:00,0,222,149 St-Grand Concourse,-73.926718,40.81841,1008.7111087799071
12:35:00,0,224,135 St,-73.94077,40.814229,1388.8107414245605
12:35:00,0,225,125 St,-73.945495,40.807754,1464.8107414245605
12:35:00,0,226,116 St,-73.949625,40.802098,1552.8107414245603
12:35:00,0,227,Central Park North (110 St),-73.951822,40.799075,1615.8107414245605
12:07:00,2,228,Park Place,-74.008811,40.713051,2009.0
12:07:00,1,229,Fulton St,-74.006571,40.709416,2104.0
12:35:00,1,230,Wall St,-74.0091,40.706821,2168.0000000000005
12:35:00,1,231,Clark St,-73.993086,40.697466,2334.0000000000005
12:35:00,1,232,Borough Hall,-73.989998,40.693219,2438.0000000000005
13:47:00,1,233,Hoyt St,-73.985065,40.690545,2442.175398349762
12:07:00,0,234,Nevins St,-73.980492,40.688246,2342.4883737564087
12:07:00,0,235,Atlantic Av-Barclays Ctr,-73.977666,40.684359,2422.4883737564087
12:07:00,0,236,Bergen St,-73.975098,40.680829,2518.9761781692505
12:07:00,0,237,Grand Army Plaza,-73.971046,40.675235,2585.9761781692505
12:07:00,0,238,Eastern Pkwy-Brooklyn Museum,-73.964375,40.671987,2673.9761781692505
12:07:00,0,239,Franklin Av-Medgar Evers College,-73.958131,40.670682,2666.488373756409
12:07:00,0,241,President St-Medgar Evers College,-73.950683,40.667883,2824.488373756409
12:07:00,0,242,Sterling St,-73.95085,40.662742,2897.488373756409
12:07:00,0,243,Winthrop St,-73.9502,40.656652,2964.488373756409
12:07:00,0,244,Church Av,-73.949575,40.650843,3018.488373756409
12:07:00,0,245,Beverly Rd,-73.948959,40.645098,3074.4883737564087
12:07:00,0,246,Newkirk Av-Little Haiti,-73.948411,40.639967,3147.488373756409
12:07:00,0,247,Flatbush Av-Brooklyn College,-73.947642,40.632836,3205.488373756409
12:07:00,0,248,Nostrand Av,-73.950466,40.669847,2759.3883737564092
12:07:00,0,249,Kingston Av,-73.942161,40.669399,2805.388373756409
12:35:00,0,250,Crown Hts-Utica Av,-73.932942,40.668897,2780.6883737564094
12:07:00,0,251,Sutter Av-Rutland Rd,-73.92261,40.664717,2907.6883737564094
12:07:00,0,252,Saratoga Av,-73.916327,40.661453,3001.6883737564094
12:07:00,0,253,Rockaway Av,-73.908946,40.662549,3080.68837375641
12:07:00,0,254,Junius St,-73.902447,40.663515,3118.4494135379778
12:07:00,0,255,Pennsylvania Av,-73.894895,40.664635,3208.9128267765036
12:07:00,0,256,Van Siclen Av,-73.889395,40.665449,3276.912826776503
12:07:00,0,257,New Lots Av,-73.884079,40.666235,3327.9128267765036
12:35:00,0,301,Harlem-148 St,-73.93647,40.82388,1761.8471063613893
12:35:00,0,302,145 St,-73.936245,40.820421,1712.4471063613892
12:07:00,0,401,Woodlawn,-73.878751,40.886037,1998.4883737564087
12:07:00,0,402,Mosholu Pkwy,-73.884655,40.87975,1914.4883737564085
12:07:00,0,405,Bedford Park Blvd-Lehman College,-73.890064,40.873412,1819.4883737564087
12:07:00,0,406,Kingsbridge Rd,-73.897174,40.86776,1730.4883737564087
12:07:00,0,407,Fordham Rd,-73.901034,40.862803,1642.4883737564087
12:07:00,0,408,183 St,-73.903879,40.858407,1567.4883737564087
12:07:00,0,409,Burnside Av,-73.907684,40.853453,1491.4883737564087
12:07:00,0,410,176 St,-73.911794,40.84848,1441.088373756409
12:07:00,0,411,Mt Eden Av,-73.914685,40.844434,1371.0883737564088
12:07:00,0,412,170 St,-73.917791,40.840075,1303.4883737564087
12:07:00,0,413,167 St,-73.9214,40.835537,1226.4883737564087
12:07:00,0,414,161 St-Yankee Stadium,-73.925831,40.827994,1136.4883737564087
12:07:00,0,415,149 St-Grand Concourse,-73.927351,40.818375,991.4883737564088
12:35:00,0,416,138 St-Grand Concourse,-73.929849,40.813224,884.4883737564087
12:07:00,0,418,Fulton St,-74.009509,40.710368,1881.4883737564085
12:07:00,0,419,Wall St,-74.011862,40.707557,1948.4883737564085
12:07:00,0,420,Bowling Green,-74.014065,40.704817,2013.4883737564087
12:07:00,0,423,Borough Hall,-73.990151,40.692404,2239.4883737564087
13:55:00,0,501,Eastchester-Dyre Av,-73.830834,40.8883,2259.7111087799076
12:35:00,0,502,Baychester Av,-73.838591,40.878663,2194.711108779907
12:35:00,0,503,Gun Hill Rd,-73.846384,40.869526,2076.711108779907
12:35:00,0,504,Pelham Pkwy,-73.855359,40.858985,1950.7111087799071
12:35:00,0,505,Morris Park,-73.860495,40.854364,1870.711108779907
12:05:30,0,601,Pelham Bay Park,-73.828121,40.852462,775.5443121910095
12:05:30,0,602,Buhre Av,-73.832569,40.84681,674.2443121910095
12:05:30,0,603,Middletown Rd,-73.836322,40.843863,628.2443121910095
12:05:30,0,604,Westchester Sq-E Tremont Av,-73.842952,40.839892,541.2443121910095
12:05:30,0,606,Zerega Av,-73.847036,40.836488,469.3443121910095
12:05:30,0,607,Castle Hill Av,-73.851222,40.834255,409.3443121910095
13:05:30,0,608,Parkchester,-73.860816,40.833226,356.7443121910095
13:05:30,0,609,St Lawrence Av,-73.867618,40.831509,342.0
13:05:30,0,610,Morrison Av-Soundview,-73.874516,40.829521,270.0
13:05:30,0,611,Elder Av,-73.879159,40.828584,237.0
13:05:30,0,612,Whitlock Av,-73.886283,40.826525,147.0
12:01:30,0,613,Hunts Point Av,-73.890549,40.820948,69.0
12:01:30,0,614,Longwood Av,-73.896435,40.816104,0.0
12:07:00,0,615,E 149 St,-73.904098,40.812118,71.0
12:07:00,0,616,E 143 St-St Mary's St,-73.907657,40.808719,122.0
12:07:00,0,617,Cypress Av,-73.914042,40.805368,227.0
12:07:00,0,618,Brook Av,-73.91924,40.807566,287.0
12:07:00,0,619,3 Av-138 St,-73.926138,40.810476,373.99999999999994
12:07:00,0,621,125 St,-73.937594,40.804138,533.9999999999999
12:07:00,0,622,116 St,-73.941617,40.798629,608.0
12:07:00,0,623,110 St,-73.94425,40.79502,679.0
12:07:00,0,624,103 St,-73.947478,40.7906,737.0
12:07:00,0,625,96 St,-73.95107,40.785672,816.5
12:07:00,0,626,86 St,-73.955589,40.779492,903.4999999999999
12:07:00,0,627,77 St,-73.959874,40.77362,995.4999999999999
12:07:00,0,628,68 St-Hunter College,-73.96387,40.768141,1079.4999999999998
12:07:00,0,629,59 St,-73.967967,40.762526,1168.4999999999998
12:07:00,0,630,51 St,-73.97192,40.757107,1257.5
12:07:00,0,631,Grand Central-42 St,-73.976848,40.751776,1298.5
12:07:00,0,632,33 St,-73.982076,40.746081,1385.5
12:07:00,0,633,28 St,-73.984264,40.74307,1447.5
12:07:00,0,634,23 St,-73.986599,40.739864,1481.5
12:07:00,0,635,14 St-Union Sq,-73.989951,40.734673,1550.4883737564087
12:07:00,0,636,Astor Pl,-73.99107,40.730054,1657.5
12:07:00,0,637,Bleecker St,-73.994659,40.725915,1739.5
12:07:00,0,638,Spring St,-73.997141,40.722301,1799.5
12:07:00,0,639,Canal St,-74.000193,40.718803,1833.5
12:07:00,0,640,Brooklyn Bridge-City Hall,-74.004131,40.713065,1784.4883737564085
13:03:00,2,701,Flushing-Main St,-73.83003,40.7596,2514.014563560486
13:03:00,2,702,Mets-Willets Point,-73.845625,40.754622,2402.6970517635345
13:03:00,2,705,111 St,-73.855334,40.75173,2375.014563560486
13:03:00,2,706,103 St-Corona Plaza,-73.8627,40.749865,2311.014563560486
13:03:00,2,707,Junction Blvd,-73.869527,40.749145,2246.6970517635345
13:03:00,2,708,90 St-Elmhurst Av,-73.876613,40.748408,2204.014563560486
13:03:00,2,709,82 St-Jackson Hts,-73.883697,40.747659,2144.014563560486
12:23:00,2,710,74 St-Broadway,-73.891394,40.746848,2078.014563560486
13:19:00,2,711,69 St,-73.896403,40.746325,2020.0145635604856
12:01:30,2,712,61 St-Woodside,-73.902984,40.74563,1967.0145635604856
12:01:30,2,713,52 St,-73.912549,40.744149,1881.0145635604856
12:01:30,2,714,46 St-Bliss St,-73.918435,40.743132,1838.0145635604858
12:01:30,2,715,40 St-Lowery St,-73.924016,40.743781,1798.0145635604856
12:15:00,2,716,33 St-Rawson St,-73.930997,40.744587,1742.0145635604856
12:31:00,1,718,Queensboro Plaza,-73.940202,40.750582,1628.0145635604858
12:23:00,2,719,Court Sq,-73.945264,40.747023,1709.5
12:31:00,1,720,Hunters Point Av,-73.948916,40.742216,1625.5
12:31:00,1,721,Vernon Blvd-Jackson Av,-73.953581,40.742626,1608.5
12:07:00,1,723,Grand Central-42 St,-73.976041,40.751431,1418.5
12:07:00,1,724,5 Av,-73.981963,40.753821,1445.5
12:07:00,1,725,Times Sq-42 St,-73.987691,40.755477,1509.5
12:07:00,1,726,34 St-Hudson Yards,-74.00191,40.755882,1649.4999999999998
12:07:00,1,901,Grand Central-42 St,-73.979189,40.752769,1358.5
12:07:00,1,902,Times Sq-42 St,-73.986229,40.755983,1436.5
12:47:00,1,A02,Inwood-207 St,-73.919899,40.868072,2389.5188111305238
12:47:00,1,A03,Dyckman St,-73.927271,40.865491,2327.218811130524
12:47:00,1,A05,190 St,-73.93418,40.859022,2248.6188111305237
12:47:00,1,A06,181 St,-73.937969,40.851695,2168.6188111305237
12:47:00,1,A07,175 St,-73.939704,40.847391,2101.6188111305237
12:07:00,2,A09,168 St,-73.939561,40.840719,1992.6462700366978
12:07:00,2,A10,163 St-Amsterdam Av,-73.939892,40.836013,1932.6462700366978
12:07:00,2,A11,155 St,-73.941514,40.830518,1872.6462700366976
12:07:00,1,A12,145 St,-73.944216,40.824783,1644.405040025711
12:07:00,1,A14,135 St,-73.947649,40.817894,1630.4050400257113
12:07:00,1,A15,125 St,-73.952343,40.811109,1740.4050400257113
12:07:00,1,A16,116 St,-73.954882,40.805085,1818.4050400257113
12:07:00,1,A17,Cathedral Pkwy (110 St),-73.958161,40.800603,1879.405040025711
12:07:00,1,A18,103 St,-73.961454,40.796092,1939.405040025711
12:07:00,1,A19,96 St,-73.964696,40.791642,1954.8999999999999
12:31:00,1,A20,86 St,-73.968916,40.785868,1887.5
12:31:00,1,A21,81 St-Museum of Natural History,-73.972143,40.781433,1822.5
12:31:00,1,A22,72 St,-73.97641,40.775594,1762.5
12:31:00,1,A24,59 St-Columbus Circle,-73.981736,40.768296,1662.4
12:47:00,1,A25,50 St,-73.985984,40.762456,1602.5
13:23:00,1,A27,42 St-Port Authority Bus Terminal,-73.989735,40.757308,1537.5
12:07:00,2,A28,34 St-Penn Station,-73.993391,40.752287,1600.5
12:07:00,2,A30,23 St,-73.998041,40.745906,1669.6000000000001
12:07:00,2,A31,14 St,-74.00169,40.740893,1720.5
12:01:30,2,A32,W 4 St-Wash Sq,-74.000495,40.732338,1835.5
12:07:00,2,A33,Spring St,-74.003739,40.726227,1932.6000000000001
13:11:00,1,A34,Canal St,-74.005229,40.720824,1963.5
13:11:00,1,A36,Chambers St,-74.008585,40.714111,2053.5
12:15:00,1,A38,Fulton St,-74.007691,40.710197,2104.416006088257
12:59:00,1,A40,High St,-73.990531,40.699337,2273.416006088257
12:59:00,1,A41,Jay St-MetroTech,-73.987342,40.692338,2327.7285723686223
12:59:00,1,A42,Hoyt-Schermerhorn Sts,-73.985001,40.688484,2458.4160060882564
13:39:00,1,A43,Lafayette Av,-73.973946,40.686113,2578.4160060882564
13:39:00,1,A44,Clinton-Washington Avs,-73.965838,40.683263,2638.4160060882564
13:39:00,1,A45,Franklin Av,-73.956848,40.68138,2703.416006088257
12:59:00,1,A46,Nostrand Av,-73.950426,40.680438,2697.416006088257
12:07:00,1,A47,Kingston-Throop Avs,-73.940858,40.679921,2765.416006088257
12:59:00,1,A48,Utica Av,-73.930729,40.679364,2829.416006088257
12:07:00,1,A49,Ralph Av,-73.920786,40.678822,2905.616006088257
12:07:00,1,A50,Rockaway Av,-73.911946,40.67834,2928.7678008079515
12:59:00,1,A51,Broadway Junction,-73.905316,40.678334,2868.7678008079515
13:11:00,1,A52,Liberty Av,-73.896548,40.674542,2988.7678008079515
13:11:00,1,A53,Van Siclen Av,-73.890358,40.67271,3053.767800807952
13:11:00,1,A54,Shepherd Av,-73.88075,40.67413,3122.767800807952
12:59:00,1,A55,Euclid Av,-73.872106,40.675377,3113.767800807952
12:59:00,1,A57,Grant Av,-73.86505,40.677044,3196.767800807952
12:59:00,1,A59,80 St,-73.858992,40.679371,3256.767800807952
12:59:00,1,A60,88 St,-73.85147,40.679843,3319.7678008079515
12:59:00,1,A61,Rockaway Blvd,-73.843853,40.680429,3379.7678008079515
13:35:00,1,A63,104 St,-73.837683,40.681711,3439.7678008079515
13:35:00,1,A64,111 St,-73.832163,40.684331,3498.7678008079515
13:35:00,1,A65,Ozone Park-Lefferts Blvd,-73.825798,40.685951,3560.7678008079515
12:47:00,1,B04,21 St-Queensbridge,-73.942836,40.754203,1673.1
12:47:00,1,B06,Roosevelt Island,-73.95326,40.759145,1591.112699699402
12:23:00,1,B08,Lexington Av/63 St,-73.966113,40.764629,1513.4999999999998
12:51:00,1,B10,57 St,-73.97745,40.763972,1645.9999999999998
12:23:00,1,B12,9 Av,-73.994324,40.646292,3105.3285723686213
12:23:00,1,B13,Fort Hamilton Pkwy,-73.994304,40.640914,3214.2285723686223
12:23:00,1,B14,50 St,-73.994791,40.63626,3274.2285723686223
12:23:00,1,B15,55 St,-73.995476,40.631435,3337.228572368622
12:23:00,1,B16,62 St,-73.996895,40.626472,3372.2285723686223
12:23:00,1,B17,71 St,-73.998864,40.619589,3442.228572368622
12:23:00,1,B18,79 St,-74.00061,40.613501,3510.228572368622
12:23:00,1,B19,18 Av,-74.001736,40.607954,3570.228572368622
12:23:00,1,B20,20 Av,-73.998168,40.604556,3630.228572368622
12:23:00,1,B21,Bay Pkwy,-73.993728,40.601875,3690.228572368622
13:23:00,1,B22,25 Av,-73.986829,40.597704,3776.3285723686217
13:23:00,1,B23,Bay 50 St,-73.983765,40.588841,3896.328572368622
12:15:00,1,D01,Norwood-205 St,-73.878855,40.874811,2006.0963213920595
12:15:00,1,D03,Bedford Park Blvd,-73.887138,40.873244,1931.2963213920593
12:15:00,1,D04,Kingsbridge Rd,-73.893509,40.866978,1858.2963213920593
12:15:00,1,D05,Fordham Rd,-73.897749,40.861296,1791.2963213920593
12:15:00,1,D06,182-183 Sts,-73.900741,40.856093,1731.2963213920593
12:15:00,1,D07,Tremont Av,-73.905227,40.85041,1671.2963213920593
12:15:00,1,D08,174-175 Sts,-73.910136,40.8459,1606.2963213920593
12:15:00,1,D09,170 St,-73.9134,40.839306,1536.2963213920593
12:15:00,1,D10,167 St,-73.91844,40.833771,1466.2963213920593
13:43:00,1,D11,161 St-Yankee Stadium,-73.925651,40.827905,1375.4883737564087
12:07:00,1,D12,155 St,-73.938209,40.830135,1490.2963213920593
12:07:00,1,D13,145 St,-73.944216,40.824783,1570.4883737564087
12:47:00,1,D14,7 Av,-73.981637,40.762862,1620.4310333728788
12:51:00,1,D15,47-50 Sts-Rockefeller Ctr,-73.981329,40.758663,1732.5
12:51:00,1,D16,42 St-Bryant Pk,-73.984569,40.754222,1670.5
12:51:00,1,D17,34 St-Herald Sq,-73.987823,40.749719,1730.5
12:51:00,1,D18,23 St,-73.992821,40.742878,1805.5
12:51:00,1,D19,14 St,-73.996209,40.738228,1870.4999999999998
13:35:00,1,D20,W 4 St-Wash Sq,-74.000495,40.732338,1872.5
13:35:00,1,D21,Broadway-Lafayette St,-73.996204,40.725297,1951.7285723686218
13:31:00,1,D22,Grand St,-73.993753,40.718267,2066.728572368622
12:39:00,1,D24,Atlantic Av-Barclays Ctr,-73.97689,40.68446,2555.4999999999995
12:39:00,1,D25,7 Av,-73.972367,40.67705,2675.4999999999995
12:39:00,1,D26,Prospect Park,-73.962246,40.661614,2838.5
12:39:00,1,D27,Parkside Av,-73.961495,40.655292,2898.5
12:39:00,1,D28,Church Av,-73.962982,40.650527,2963.5
12:39:00,1,D29,Beverley Rd,-73.964492,40.644031,3003.5
12:39:00,1,D30,Cortelyou Rd,-73.963891,40.640927,3061.5
12:39:00,1,D31,Newkirk Plaza,-73.962793,40.635082,3131.7285723686223
12:39:00,1,D32,Avenue H,-73.961639,40.62927,3178.5
12:39:00,1,D33,Avenue J,-73.960803,40.625039,3238.5
12:39:00,1,D34,Avenue M,-73.959399,40.617618,3306.5
12:39:00,1,D35,Kings Hwy,-73.957734,40.60867,3327.1904776096344
12:39:00,1,D37,Avenue U,-73.955929,40.5993,3475.8952374458318
12:39:00,1,D38,Neck Rd,-73.955161,40.595246,3534.5
12:39:00,1,D39,Sheepshead Bay,-73.954155,40.586896,3515.1904776096344
12:39:00,1,D40,Brighton Beach,-73.961376,40.577621,3573.1904776096344
12:39:00,1,D41,Ocean Pkwy,-73.968501,40.576312,3771.1904776096344
12:39:00,1,D42,W 8 St-NY Aquarium,-73.975939,40.576127,3695.6000000000013
12:39:00,1,D43,Coney Island-Stillwell Av,-73.981233,40.577422,3771.4000000000015
12:43:00,1,E01,World Trade Center,-74.009781,40.712582,2068.4999999999995
12:47:00,1,F01,Jamaica-179 St,-73.783817,40.712646,2865.3999999999996
12:47:00,1,F02,169 St,-73.793604,40.71047,2825.3999999999996
12:47:00,1,F03,Parsons Blvd,-73.803326,40.707564,2710.4
12:47:00,1,F04,Sutphin Blvd,-73.810708,40.70546,2650.4
12:47:00,1,F05,Briarwood,-73.820574,40.709179,2535.4
13:03:00,1,F06,Kew Gardens-Union Tpke,-73.831008,40.714441,2420.4
12:47:00,1,F07,75 Av,-73.837324,40.718331,2355.4
12:51:00,1,F09,Court Sq-23 St,-73.946,40.747846,1667.431033372879
12:47:00,1,F11,Lexington Av/53 St,-73.969055,40.757552,1495.431033372879
12:47:00,1,F12,5 Av/53 St,-73.975224,40.760167,1551.431033372879
12:39:00,1,F14,2 Av,-73.989938,40.723402,2016.728572368622
12:39:00,1,F15,Delancey St-Essex St,-73.988114,40.718611,2081.7285723686223
12:39:00,1,F16,East Broadway,-73.990173,40.713715,2141.7285723686223
13:19:00,1,F18,York St,-73.986751,40.701397,2261.7285723686223
12:59:00,1,F20,Bergen St,-73.990862,40.686145,2434.4285723686226
12:59:00,1,F21,Carroll St,-73.995048,40.680303,2554.4285723686226
12:59:00,1,F22,Smith-9 Sts,-73.995959,40.67358,2664.4285723686226
12:59:00,1,F23,4 Av-9 St,-73.989779,40.670272,2725.5285723686225
12:59:00,1,F24,7 Av,-73.980305,40.666271,2671.3000000000006
12:59:00,1,F25,15 St-Prospect Park,-73.979493,40.660365,2796.465138959885
12:59:00,1,F26,Fort Hamilton Pkwy,-73.975776,40.650782,2916.465138959885
12:59:00,1,F27,Church Av,-73.979678,40.644041,2900.3000000000006
13:35:00,1,F29,Ditmas Av,-73.978172,40.636119,3020.3000000000006
13:35:00,1,F30,18 Av,-73.976971,40.629755,3108.8000000000006
13:35:00,1,F31,Avenue I,-73.976127,40.625322,3168.8000000000006
13:35:00,1,F32,Bay Pkwy,-73.975264,40.620769,3227.800000000001
13:35:00,1,F33,Avenue N,-73.974197,40.61514,3292.800000000001
13:35:00,1,F34,Avenue P,-73.973022,40.608944,3352.800000000001
13:35:00,1,F35,Kings Hwy,-73.972361,40.603217,3417.800000000001
13:59:00,1,F36,Avenue U,-73.973357,40.596063,3483.100000000001
13:59:00,1,F38,Avenue X,-73.97425,40.58962,3548.1000000000013
12:39:00,1,F39,Neptune Av,-73.974574,40.581011,3628.6000000000013
13:03:00,1,G05,Jamaica Center-Parsons/Archer,-73.801109,40.702147,2842.431033372879
13:03:00,1,G06,Sutphin Blvd-Archer Av-JFK Airport,-73.807969,40.700486,2777.4310333728786
13:03:00,1,G07,Jamaica-Van Wyck,-73.816859,40.702566,2672.4310333728786
13:03:00,1,G08,Forest Hills-71 Av,-73.844521,40.721691,2278.1
13:03:00,1,G09,67 Av,-73.852719,40.726523,2432.331033372879
13:03:00,1,G10,63 Dr-Rego Park,-73.861604,40.729846,2365.831033372879
13:03:00,1,G11,Woodhaven Blvd,-73.869229,40.733106,2304.631033372879
13:03:00,1,G12,Grand Av-Newtown,-73.877223,40.737015,2229.631033372879
13:03:00,1,G13,Elmhurst Av,-73.882017,40.742454,2165.431033372879
13:03:00,1,G14,Jackson Hts-Roosevelt Av,-73.891338,40.746644,1928.1
12:07:00,1,G15,65 St,-73.898453,40.749669,2134.409089803695
12:07:00,1,G16,Northern Blvd,-73.906006,40.752885,2072.409089803695
12:07:00,1,G18,46 St,-73.913333,40.756312,2008.4090898036952
12:07:00,1,G19,Steinway St,-73.92074,40.756879,1938.4090898036952
12:07:00,1,G20,36 St,-73.928781,40.752039,1830.112699699402
12:31:00,1,G21,Queens Plaza,-73.937243,40.748973,1715.112699699402
12:35:00,2,G22,Court Sq,-73.943832,40.746554,1727.431033372879
12:35:00,2,G24,21 St,-73.949724,40.744065,1787.431033372879
12:35:00,2,G26,Greenpoint Av,-73.954449,40.731352,1907.431033372879
12:35:00,2,G28,Nassau Av,-73.951277,40.724635,1985.431033372879
12:35:00,2,G29,Metropolitan Av,-73.951418,40.712792,2105.431033372879
12:35:00,2,G30,Broadway,-73.950308,40.706092,2165.431033372879
12:35:00,2,G31,Flushing Av,-73.950234,40.700377,2227.431033372879
12:35:00,2,G32,Myrtle-Willoughby Avs,-73.949046,40.694568,2287.431033372879
13:39:00,1,G33,Bedford-Nostrand Avs,-73.953522,40.689627,2357.4310333728786
13:39:00,1,G34,Classon Av,-73.96007,40.688873,2417.4310333728786
13:39:00,1,G35,Clinton-Washington Avs,-73.966839,40.688089,2477.4310333728786
13:39:00,1,G36,Fulton St,-73.975375,40.687119,2539.4310333728786
12:17:30,1,H01,Aqueduct Racetrack,-73.834058,40.668234,3554.7678008079515
12:59:00,1,H02,Aqueduct-N Conduit Av,-73.834058,40.668234,3582.18854355812
12:59:00,1,H03,Howard Beach-JFK Airport,-73.830301,40.660476,3666.7678008079515
12:59:00,1,H04,Broad Channel,-73.815925,40.608382,4071.767800807952
12:59:00,1,H06,Beach 67 St,-73.796924,40.590927,4315.18854355812
12:59:00,1,H07,Beach 60 St,-73.788522,40.592374,4380.18854355812
12:59:00,1,H08,Beach 44 St,-73.776013,40.592943,4448.18854355812
12:59:00,1,H09,Beach 36 St,-73.768175,40.595398,4510.18854355812
12:59:00,1,H10,Beach 25 St,-73.761353,40.600066,4570.18854355812
12:59:00,1,H11,Far Rockaway-Mott Av,-73.755405,40.603995,4621.78854355812
12:39:00,1,H12,Beach 90 St,-73.813641,40.588034,4304.767800807952
12:39:00,1,H13,Beach 98 St,-73.820558,40.585307,4364.767800807952
12:39:00,1,H14,Beach 105 St,-73.827559,40.583209,4424.767800807952
12:39:00,1,H15,Rockaway Park-Beach 116 St,-73.835592,40.580903,4489.767800807952
13:03:00,1,J12,121 St,-73.828294,40.700492,2992.2310333728788
13:03:00,1,J13,111 St,-73.836345,40.697418,2993.2310333728788
13:03:00,1,J14,104 St,-73.84433,40.695178,3095.2310333728788
13:03:00,1,J15,Woodhaven Blvd,-73.851576,40.693879,3185.2310333728788
13:03:00,1,J16,85 St-Forest Pkwy,-73.86001,40.692435,3326.667800807951
13:03:00,1,J17,75 St-Elderts Ln,-73.867139,40.691324,3225.4494135379778
13:03:00,1,J19,Cypress Hills,-73.87255,40.689941,3206.667800807951
12:55:00,2,J20,Crescent St,-73.873785,40.683194,3156.2494135379775
12:55:00,2,J21,Norwood Av,-73.880039,40.68141,3119.4494135379778
12:55:00,2,J22,Cleveland St,-73.884639,40.679947,3115.6435887813554
12:55:00,2,J23,Van Siclen Av,-73.891688,40.678024,3018.7678008079515
12:55:00,2,J24,Alabama Av,-73.898654,40.676992,2943.7678008079515
12:51:00,1,J27,Broadway Junction,-73.904512,40.679498,2855.4494135379778
13:35:00,2,J28,Chauncey St,-73.910456,40.682893,2920.449413537978
12:51:00,1,J29,Halsey St,-73.916559,40.68637,2867.4883737564087
12:51:00,1,J30,Gates Av,-73.92227,40.68963,2807.4883737564087
12:51:00,1,J31,Kosciuszko St,-73.928814,40.693342,2747.4883737564087
12:23:00,1,L01,8 Av,-74.002578,40.739777,1780.5
12:23:00,1,L02,6 Av,-73.996786,40.737335,1821.4494135379787
12:23:00,1,L03,14 St-Union Sq,-73.99073,40.734789,1767.449413537979
12:31:00,1,L05,3 Av,-73.986122,40.732849,1809.449413537979
12:31:00,1,L06,1 Av,-73.981628,40.730953,1829.4494135379787
12:31:00,1,L08,Bedford Av,-73.956872,40.717304,2009.4494135379787
12:31:00,1,L10,Lorimer St,-73.950275,40.714063,2082.4494135379787
12:31:00,1,L11,Graham Av,-73.944053,40.714565,2104.4494135379787
12:31:00,1,L12,Grand St,-73.94067,40.711926,2173.4494135379787
12:31:00,1,L13,Montrose Av,-73.93985,40.707739,2197.4494135379787
12:31:00,1,L14,Morgan Av,-73.933147,40.706152,2237.4494135379787
12:31:00,1,L15,Jefferson St,-73.922913,40.706607,2307.449413537978
12:31:00,1,L16,DeKalb Av,-73.918425,40.703811,2358.4494135379787
12:31:00,1,L17,Myrtle-Wyckoff Avs,-73.911586,40.699814,2414.449413537978
12:31:00,1,L19,Halsey St,-73.904084,40.695602,2437.449413537978
12:31:00,1,L20,Wilson Av,-73.904046,40.688764,2528.449413537978
12:31:00,1,L21,Bushwick Av-Aberdeen St,-73.905249,40.682829,2599.449413537978
12:31:00,1,L22,Broadway Junction,-73.90324,40.678856,2630.4494135379778
12:31:00,1,L24,Atlantic Av,-73.903097,40.675345,2700.4494135379778
12:31:00,1,L25,Sutter Av,-73.901975,40.669367,2753.4494135379778
12:31:00,1,L26,Livonia Av,-73.900571,40.664038,2788.4494135379778
12:31:00,1,L27,New Lots Av,-73.899232,40.658733,2814.4494135379778
12:31:00,1,L28,East 105 St,-73.899485,40.650573,2873.4494135379778
13:51:00,1,L29,Canarsie-Rockaway Pkwy,-73.90185,40.646654,2933.4494135379778
12:15:00,2,M01,Middle Village-Metropolitan Av,-73.889601,40.711396,2866.4397978782645
12:15:00,2,M04,Fresh Pond Rd,-73.895877,40.706186,2826.4397978782645
12:15:00,2,M05,Forest Av,-73.903077,40.704423,2756.4397978782645
12:15:00,2,M06,Seneca Av,-73.90774,40.702762,2692.4397978782645
12:55:00,1,M08,Myrtle-Wyckoff Avs,-73.912385,40.69943,2639.449413537978
12:31:00,2,M09,Knickerbocker Av,-73.919711,40.698664,2706.449413537978
12:55:00,1,M10,Central Av,-73.927397,40.697857,2779.449413537978
12:15:00,1,M11,Myrtle Av,-73.935657,40.697207,2675.4883737564087
12:15:00,1,M12,Flushing Av,-73.941126,40.70026,2607.6285723686224
12:15:00,1,M13,Lorimer St,-73.947408,40.703869,2542.628572368622
12:15:00,1,M14,Hewes St,-73.953431,40.70687,2480.9285723686216
12:15:00,1,M16,Marcy Av,-73.957757,40.708359,2420.9285723686216
12:15:00,1,M18,Delancey St-Essex St,-73.987437,40.718315,2091.728572368622
12:31:00,1,M19,Bowery,-73.993915,40.72028,2061.4883737564087
12:31:00,1,M20,Canal St,-73.999892,40.718092,1977.4883737564087
12:07:00,1,M21,Chambers St,-74.003401,40.713243,1917.4883737564087
12:51:00,1,M22,Fulton St,-74.007582,40.710374,1977.4883737564087
12:51:00,1,M23,Broad St,-74.011056,40.706476,2040.4883737564085
12:23:00,1,N02,8 Av,-74.011719,40.635064,3208.1
12:23:00,1,N03,Fort Hamilton Pkwy,-74.005351,40.631386,3323.5
12:23:00,1,N04,New Utrecht Av,-73.996353,40.624842,3408.5
12:23:00,1,N05,18 Av,-73.990414,40.620671,3472.5
12:23:00,1,N06,20 Av,-73.985026,40.61741,3532.5
12:23:00,1,N07,Bay Pkwy,-73.981848,40.611815,3594.5
12:23:00,1,N08,Kings Hwy,-73.980353,40.603923,3669.5
12:23:00,1,N09,Avenue U,-73.979137,40.597473,3729.5
12:23:00,1,N10,86 St,-73.97823,40.592721,3794.5
12:23:00,1,Q01,Canal St,-74.00046,40.718383,1960.4999999999998
12:07:00,1,Q03,72 St,-73.958424,40.768799,1618.1126996994017
12:07:00,1,Q04,86 St,-73.951787,40.777891,1729.0126996994018
12:23:00,1,Q05,96 St,-73.947152,40.784318,1766.7126996994018
12:23:00,1,R01,Astoria-Ditmars Blvd,-73.912034,40.775036,2001.0145618915558
12:23:00,1,R03,Astoria Blvd,-73.917843,40.770258,1961.0145618915558
12:23:00,1,R04,30 Av,-73.921479,40.766779,1901.0145618915558
12:23:00,1,R05,Broadway,-73.925508,40.76182,1843.014561891556
12:23:00,1,R06,36 Av,-73.929575,40.756804,1781.0145618915558
12:23:00,1,R08,39 Av-Dutch Kills,-73.932755,40.752882,1726.0145618915558
12:23:00,1,R09,Queensboro Plaza,-73.940202,40.750582,1581.0145618915558
12:31:00,1,R11,Lexington Av/59 St,-73.967258,40.76266,1398.0145618915556
12:23:00,1,R13,5 Av/59 St,-73.973347,40.764811,1460.0145618915558
12:23:00,1,R14,57 St-7 Av,-73.980658,40.764664,1575.0145618915558
12:23:00,1,R15,49 St,-73.984139,40.759901,1597.5
12:23:00,1,R16,Times Sq-42 St,-73.986754,40.754672,1537.5
12:23:00,1,R17,34 St-Herald Sq,-73.98795,40.749567,1602.5
12:31:00,1,R18,28 St,-73.988691,40.745494,1662.5
12:31:00,1,R19,23 St,-73.989344,40.741303,1717.5
12:07:00,1,R20,14 St-Union Sq,-73.990568,40.735736,1727.4999999999998
12:07:00,1,R21,8 St-NYU,-73.992629,40.730328,1849.4883737564085
12:07:00,1,R22,Prince St,-73.997702,40.724329,1909.4883737564085
12:07:00,1,R23,Canal St,-74.001775,40.719527,1974.4883737564082
12:07:00,1,R24,City Hall,-74.006978,40.713282,2094.4883737564082
12:07:00,1,R25,Cortlandt St,-74.011029,40.710668,2177.5
12:07:00,1,R26,Rector St,-74.013342,40.70722,2243.4883737564082
12:07:00,1,R27,Whitehall St-South Ferry,-74.012994,40.703087,2303.4883737564082
12:07:00,1,R28,Court St,-73.991777,40.6941,2478.9916858673096
12:07:00,1,R29,Jay St-MetroTech,-73.985942,40.69218,2462.7285723686223
12:39:00,1,R30,DeKalb Av,-73.981824,40.690635,2425.5
12:23:00,1,R31,Atlantic Av-Barclays Ctr,-73.97881,40.683666,2561.1000000000004
12:35:00,1,R32,Union St,-73.98311,40.677316,2653.5
12:35:00,1,R33,4 Av-9 St,-73.988302,40.670847,2713.5
12:35:00,1,R34,Prospect Av,-73.992872,40.665414,2773.5
12:35:00,1,R35,25 St,-73.998091,40.660397,2836.8
12:23:00,1,R36,36 St,-74.003549,40.655144,2863.1
12:35:00,1,R39,45 St,-74.010006,40.648939,3014.7
12:23:00,1,R40,53 St,-74.014034,40.645069,3076.5
12:23:00,1,R41,59 St,-74.017881,40.641362,3088.1
12:35:00,1,R42,Bay Ridge Av,-74.023377,40.634967,3208.640540218353
12:35:00,1,R43,77 St,-74.02551,40.629742,3268.640540218353
12:35:00,1,R44,86 St,-74.028398,40.622687,3388.640540218353
12:35:00,1,R45,Bay Ridge-95 St,-74.030876,40.616622,3432.640540218353
12:23:00,1,S01,Franklin Av,-73.955827,40.680596,2763.416006088257
12:23:00,1,S03,Park Pl,-73.957624,40.674772,2831.716006088257
12:39:00,1,S04,Botanic Garden,-73.959245,40.670343,2891.488373756409
