start_time,ntransfers,stop_id,stop_name,stop_lon,stop_lat,duration
12:16:00,1,101,Van Cortlandt Park-242 St,-73.898583,40.889248,1749.4827205657957
12:16:00,1,103,238 St,-73.90087,40.884667,1686.4827205657957
12:16:00,1,104,231 St,-73.904834,40.878856,1612.1827205657958
12:16:00,1,106,Marble Hill-225 St,-73.909831,40.874561,1543.1827205657958
12:16:00,1,107,215 St,-73.915279,40.869444,1471.1827205657958
12:16:00,1,108,207 St,-73.918822,40.864621,1405.1827205657958
12:16:00,1,109,Dyckman St,-73.925536,40.860531,1348.1827205657958
12:16:00,1,110,191 St,-73.929412,40.855225,1282.3891312122344
12:16:00,1,111,181 St,-73.933596,40.849505,1213.3891312122346
12:53:00,1,112,168 St-Washington Hts,-73.940133,40.840556,1105.3891312122344
12:26:00,1,113,157 St,-73.94489,40.834041,1173.4809193611145
12:53:00,1,114,145 St,-73.95036,40.826551,1074.4809193611147
12:53:00,1,115,137 St-City College,-73.953676,40.822008,1018.4809193611145
12:53:00,1,116,125 St,-73.958372,40.815581,954.4809193611146
12:53:00,1,117,116 St-Columbia University,-73.96411,40.807722,851.4809193611145
12:53:00,1,118,Cathedral Pkwy (110 St),-73.966847,40.803967,808.4809193611145
12:53:00,1,119,103 St,-73.968379,40.799446,738.4809193611146
12:53:00,1,120,96 St,-73.972323,40.793919,494.00000000000006
12:53:00,1,121,86 St,-73.976218,40.788644,563.4809193611145
12:53:00,1,122,79 St,-73.979917,40.783934,497.48091936111456
12:53:00,1,123,72 St,-73.98197,40.778453,336.0
12:53:00,1,124,66 St-Lincoln Center,-73.982209,40.77344,364.0
12:53:00,1,125,59 St-Columbus Circle,-73.981929,40.768247,309.99999999999994
12:26:00,1,126,50 St,-73.983849,40.761728,219.0
12:26:00,1,127,Times Sq-42 St,-73.987495,40.75529,120.0
12:05:00,1,128,34 St-Penn Station,-73.991057,40.750373,207.0
12:05:00,1,129,28 St,-73.993365,40.747215,265.0
12:05:00,1,130,23 St,-73.995657,40.744081,325.0
12:05:00,1,131,18 St,-73.997871,40.74104,385.0
12:05:00,1,132,14 St,-74.000201,40.737826,304.5
12:00:00,2,133,Christopher St-Sheridan Sq,-74.002906,40.733422,528.0
12:00:00,2,134,Houston St,-74.005367,40.728251,584.0
13:35:00,1,135,Canal St,-74.006277,40.722854,641.0
13:35:00,1,136,Franklin St,-74.006886,40.719318,688.0
13:27:00,1,137,Chambers St,-74.009266,40.715478,517.5
13:27:00,1,138,WTC Cortlandt,-74.012188,40.711835,770.0
13:27:00,1,139,Rector St,-74.013783,40.707513,843.0
13:27:00,1,142,South Ferry,-74.013664,40.702068,921.0000000000001
12:33:00,1,201,Wakefield-241 St,-73.85062,40.903125,2614.8999999999996
12:33:00,1,204,Nereid Av,-73.854376,40.898379,2512.8999999999996
12:33:00,1,205,233 St,-73.857473,40.893193,2472.8999999999996
12:33:00,1,206,225 St,-73.860341,40.888022,2387.9
12:33:00,1,207,219 St,-73.862633,40.883895,2314.8999999999996
12:33:00,1,208,Gun Hill Rd,-73.866256,40.87785,2228.6
12:33:00,1,209,Burke Av,-73.867164,40.871356,2141.5999999999995
12:33:00,1,210,Allerton Av,-73.867352,40.865462,2058.6
12:33:00,1,211,Pelham Pkwy,-73.867615,40.857192,1959.6
12:33:00,1,212,Bronx Park East,-73.868457,40.848828,1848.5999999999997
14:00:00,1,213,E 180 St,-73.873488,40.841894,1704.6
14:00:00,1,214,West Farms Sq-E Tremont Av,-73.880049,40.840295,1773.6
14:00:00,1,215,174 St,-73.887734,40.837288,1667.6
14:00:00,1,216,Freeman St,-73.891865,40.829993,1570.6
14:00:00,1,217,Simpson St,-73.893064,40.824073,1457.6
14:00:00,1,218,Intervale Av,-73.896736,40.822181,1387.6
14:00:00,1,219,Prospect Av,-73.90177,40.819585,1320.6
14:00:00,1,220,Jackson Av,-73.907807,40.81649,1234.6
14:00:00,1,221,3 Av-149 St,-73.917757,40.816109,1118.6
14:00:00,1,222,149 St-Grand Concourse,-73.926718,40.81841,1031.6
12:46:00,1,224,135 St,-73.94077,40.814229,950.0000000000001
12:46:00,1,225,125 St,-73.945495,40.807754,874.0000000000001
12:46:00,1,226,116 St,-73.949625,40.802098,786.0000000000001
12:46:00,1,227,Central Park North (110 St),-73.951822,40.799075,723.0
12:02:30,1,228,Park Place,-74.008811,40.713051,591.5
13:58:00,1,229,Fulton St,-74.006571,40.709416,686.5000000000001
13:58:00,1,230,Wall St,-74.0091,40.706821,750.5000000000001
13:58:00,1,231,Clark St,-73.993086,40.697466,916.5000000000001
13:58:00,1,232,Borough Hall,-73.989998,40.693219,1020.5000000000002
13:58:00,1,233,Hoyt St,-73.985065,40.690545,1088.5000000000002
13:58:00,1,234,Nevins St,-73.980492,40.688246,1171.5000000000002
13:58:00,1,235,Atlantic Av-Barclays Ctr,-73.977666,40.684359,1239.5
13:58:00,1,236,Bergen St,-73.975098,40.680829,1305.5000000000002
13:58:00,1,237,Grand Army Plaza,-73.971046,40.675235,1405.5000000000002
13:58:00,1,238,Eastern Pkwy-Brooklyn Museum,-73.964375,40.671987,1481.5000000000002
12:00:00,2,239,Franklin Av-Medgar Evers College,-73.958131,40.670682,1525.6219511032107
12:00:00,2,241,President St-Medgar Evers College,-73.950683,40.667883,1659.6219511032104
12:00:00,2,242,Sterling St,-73.95085,40.662742,1732.6219511032104
12:00:00,2,243,Winthrop St,-73.9502,40.656652,1799.6219511032104
12:00:00,2,244,Church Av,-73.949575,40.650843,1853.6219511032104
12:00:00,2,245,Beverly Rd,-73.948959,40.645098,1909.6219511032104
12:00:00,2,246,Newkirk Av-Little Haiti,-73.948411,40.639967,1982.6219511032102
12:00:00,2,247,Flatbush Av-Brooklyn College,-73.947642,40.632836,2040.6219511032104
12:00:00,2,248,Nostrand Av,-73.950466,40.669847,1633.5219511032103
12:00:00,2,249,Kingston Av,-73.942161,40.669399,1679.5219511032103
12:02:30,1,250,Crown Hts-Utica Av,-73.932942,40.668897,1652.2219511032106
12:02:30,1,251,Sutter Av-Rutland Rd,-73.92261,40.664717,1768.9219511032106
12:02:30,1,252,Saratoga Av,-73.916327,40.661453,1821.4634132385258
12:02:30,1,253,Rockaway Av,-73.908946,40.662549,1741.463413238526
12:02:30,1,254,Junius St,-73.902447,40.663515,1679.4634132385258
12:21:00,2,255,Pennsylvania Av,-73.894895,40.664635,1768.463413238526
12:02:30,1,256,Van Siclen Av,-73.889395,40.665449,1836.4634132385258
12:02:30,1,257,New Lots Av,-73.884079,40.666235,1886.3499988079077
12:46:00,1,301,Harlem-148 St,-73.93647,40.82388,1094.4
12:46:00,1,302,145 St,-73.936245,40.820421,1045.0
13:55:30,1,401,Woodlawn,-73.878751,40.886037,2043.9999999999998
13:55:30,1,402,Mosholu Pkwy,-73.884655,40.87975,1959.9999999999998
13:55:30,1,405,Bedford Park Blvd-Lehman College,-73.890064,40.873412,1865.0
13:55:30,1,406,Kingsbridge Rd,-73.897174,40.86776,1775.9999999999998
13:55:30,1,407,Fordham Rd,-73.901034,40.862803,1688.0
13:55:30,1,408,183 St,-73.903879,40.858407,1613.0
13:55:30,1,409,Burnside Av,-73.907684,40.853453,1537.0
13:55:30,1,410,176 St,-73.911794,40.84848,1486.6000000000004
13:55:30,1,411,Mt Eden Av,-73.914685,40.844434,1416.6000000000001
13:55:30,1,412,170 St,-73.917791,40.840075,1349.0
13:55:30,1,413,167 St,-73.9214,40.835537,1272.0
13:55:30,1,414,161 St-Yankee Stadium,-73.925831,40.827994,1182.0
13:35:30,1,415,149 St-Grand Concourse,-73.927351,40.818375,1059.0
14:00:00,1,416,138 St-Grand Concourse,-73.929849,40.813224,947.6
12:02:30,1,418,Fulton St,-74.009509,40.710368,783.0
13:27:00,1,419,Wall St,-74.011862,40.707557,850.0000000000001
13:27:00,1,420,Bowling Green,-74.014065,40.704817,915.0000000000001
13:27:00,1,423,Borough Hall,-73.990151,40.692404,1141.0000000000002
14:00:00,1,501,Eastchester-Dyre Av,-73.830834,40.8883,2282.6000000000004
14:00:00,1,502,Baychester Av,-73.838591,40.878663,2217.6
14:00:00,1,503,Gun Hill Rd,-73.846384,40.869526,2099.6
14:00:00,1,504,Pelham Pkwy,-73.855359,40.858985,1973.6
14:00:00,1,505,Morris Park,-73.860495,40.854364,1893.5999999999997
13:37:30,1,601,Pelham Bay Park,-73.828121,40.852462,2150.842858505249
13:37:30,1,602,Buhre Av,-73.832569,40.84681,2049.542858505249
13:37:30,1,603,Middletown Rd,-73.836322,40.843863,2003.5428585052491
13:37:30,1,604,Westchester Sq-E Tremont Av,-73.842952,40.839892,1916.542858505249
13:37:30,1,606,Zerega Av,-73.847036,40.836488,1844.6428585052488
13:37:30,1,607,Castle Hill Av,-73.851222,40.834255,1784.6428585052488
12:52:00,1,608,Parkchester,-73.860816,40.833226,1732.042858505249
12:52:00,1,609,St Lawrence Av,-73.867618,40.831509,1879.4999999999998
12:52:00,1,610,Morrison Av-Soundview,-73.874516,40.829521,1807.4999999999998
12:52:00,1,611,Elder Av,-73.879159,40.828584,1774.4999999999998
12:52:00,1,612,Whitlock Av,-73.886283,40.826525,1684.4999999999998
12:52:00,1,613,Hunts Point Av,-73.890549,40.820948,1547.1428585052488
14:00:00,1,614,Longwood Av,-73.896435,40.816104,1537.4999999999998
14:00:00,1,615,E 149 St,-73.904098,40.812118,1466.4999999999998
14:00:00,1,616,E 143 St-St Mary's St,-73.907657,40.808719,1415.4999999999998
14:00:00,1,617,Cypress Av,-73.914042,40.805368,1310.4999999999998
14:00:00,1,618,Brook Av,-73.91924,40.807566,1250.4999999999998
12:52:00,1,619,3 Av-138 St,-73.926138,40.810476,1159.4999999999998
14:00:00,1,621,125 St,-73.937594,40.804138,811.0
12:52:00,1,622,116 St,-73.941617,40.798629,929.4999999999999
12:52:00,1,623,110 St,-73.94425,40.79502,858.4999999999999
12:52:00,1,624,103 St,-73.947478,40.7906,800.4999999999999
12:52:00,1,625,96 St,-73.95107,40.785672,721.0
12:52:00,1,626,86 St,-73.955589,40.779492,565.0
12:52:00,1,627,77 St,-73.959874,40.77362,542.0
12:52:00,1,628,68 St-Hunter College,-73.96387,40.768141,458.0
12:52:00,1,629,59 St,-73.967967,40.762526,369.0
12:52:00,1,630,51 St,-73.97192,40.757107,280.0
12:07:30,1,631,Grand Central-42 St,-73.976848,40.751776,239.0
12:07:30,1,632,33 St,-73.982076,40.746081,326.0
12:07:30,1,633,28 St,-73.984264,40.74307,388.0
12:07:30,1,634,23 St,-73.986599,40.739864,422.0
12:07:30,1,635,14 St-Union Sq,-73.989951,40.734673,450.0
12:05:00,2,636,Astor Pl,-73.99107,40.730054,589.8
12:00:00,2,637,Bleecker St,-73.994659,40.725915,670.8
13:21:00,2,638,Spring St,-73.997141,40.722301,731.8
12:32:30,2,639,Canal St,-74.000193,40.718803,763.8
12:13:00,1,640,Brooklyn Bridge-City Hall,-74.004131,40.713065,686.0
12:02:00,1,701,Flushing-Main St,-73.83003,40.7596,1463.297873497009
12:02:00,1,702,Mets-Willets Point,-73.845625,40.754622,1333.297873497009
12:02:00,1,705,111 St,-73.855334,40.75173,1344.2000000000003
12:02:00,1,706,103 St-Corona Plaza,-73.8627,40.749865,1274.0
12:02:00,1,707,Junction Blvd,-73.869527,40.749145,1177.297873497009
12:02:00,1,708,90 St-Elmhurst Av,-73.876613,40.748408,1168.0
12:02:00,1,709,82 St-Jackson Hts,-73.883697,40.747659,1108.0
12:07:30,1,710,74 St-Broadway,-73.891394,40.746848,1021.0
12:07:30,1,711,69 St,-73.896403,40.746325,989.2
12:07:30,1,712,61 St-Woodside,-73.902984,40.74563,933.9999999999999
14:00:00,1,713,52 St,-73.912549,40.744149,850.2
14:00:00,1,714,46 St-Bliss St,-73.918435,40.743132,806.9999999999999
14:00:00,1,715,40 St-Lowery St,-73.924016,40.743781,765.9999999999999
14:00:00,1,716,33 St-Rawson St,-73.930997,40.744587,708.9999999999999
14:00:00,1,718,Queensboro Plaza,-73.940202,40.750582,597.2
12:13:00,1,719,Court Sq,-73.945264,40.747023,512.2
12:13:00,1,720,Hunters Point Av,-73.948916,40.742216,428.2
12:13:00,1,721,Vernon Blvd-Jackson Av,-73.953581,40.742626,411.0
12:13:00,1,723,Grand Central-42 St,-73.976041,40.751431,212.0
12:13:00,1,724,5 Av,-73.981963,40.753821,154.2
12:13:00,1,725,Times Sq-42 St,-73.987691,40.755477,120.0
12:05:00,1,726,34 St-Hudson Yards,-74.00191,40.755882,249.99999999999997
12:13:00,1,901,Grand Central-42 St,-73.979189,40.752769,119.0
12:13:00,1,902,Times Sq-42 St,-73.986229,40.755983,60.0
13:44:00,0,A02,Inwood-207 St,-73.919899,40.868072,1265.8999999999996
13:06:00,0,A03,Dyckman St,-73.927271,40.865491,1203.5999999999997
13:06:00,0,A05,190 St,-73.93418,40.859022,1124.9999999999998
13:06:00,0,A06,181 St,-73.937969,40.851695,1044.9999999999998
13:06:00,0,A07,175 St,-73.939704,40.847391,977.9999999999998
12:06:00,0,A09,168 St,-73.939561,40.840719,879.9000000000001
12:12:00,0,A10,163 St-Amsterdam Av,-73.939892,40.836013,853.0
12:12:00,0,A11,155 St,-73.941514,40.830518,790.0
12:06:00,0,A12,145 St,-73.944216,40.824783,694.9
12:33:00,0,A14,135 St,-73.947649,40.817894,619.9
12:06:00,0,A15,125 St,-73.952343,40.811109,539.9
12:12:00,0,A16,116 St,-73.954882,40.805085,597.4
12:06:00,0,A17,Cathedral Pkwy (110 St),-73.958161,40.800603,537.4
12:06:00,0,A18,103 St,-73.961454,40.796092,477.4
12:06:00,0,A19,96 St,-73.964696,40.791642,417.4
12:06:00,0,A20,86 St,-73.968916,40.785868,350.0
12:06:00,0,A21,81 St-Museum of Natural History,-73.972143,40.781433,285.0
12:06:00,0,A22,72 St,-73.97641,40.775594,225.0
12:06:00,0,A24,59 St-Columbus Circle,-73.981736,40.768296,124.89999999999999
12:05:30,0,A25,50 St,-73.985984,40.762456,65.0
12:05:00,0,A27,42 St-Port Authority Bus Terminal,-73.989735,40.757308,0.0
12:00:00,0,A28,34 St-Penn Station,-73.993391,40.752287,63.0
12:00:00,0,A30,23 St,-73.998041,40.745906,132.1
12:02:30,0,A31,14 St,-74.00169,40.740893,183.0
12:02:30,0,A32,W 4 St-Wash Sq,-74.000495,40.732338,298.0
12:13:00,0,A33,Spring St,-74.003739,40.726227,395.1
12:02:30,0,A34,Canal St,-74.005229,40.720824,426.0
12:02:30,0,A36,Chambers St,-74.008585,40.714111,516.0
12:02:30,0,A38,Fulton St,-74.007691,40.710197,581.0
12:02:30,0,A40,High St,-73.990531,40.699337,751.0
12:02:30,0,A41,Jay St-MetroTech,-73.987342,40.692338,867.0000000000001
12:02:30,0,A42,Hoyt-Schermerhorn Sts,-73.985001,40.688484,939.0
12:08:30,0,A43,Lafayette Av,-73.973946,40.686113,1077.1000000000001
12:08:30,0,A44,Clinton-Washington Avs,-73.965838,40.683263,1136.1000000000001
13:35:00,0,A45,Franklin Av,-73.956848,40.68138,1259.7894749641416
12:02:30,0,A46,Nostrand Av,-73.950426,40.680438,1174.0
12:08:30,0,A47,Kingston-Throop Avs,-73.940858,40.679921,1242.0
12:02:30,0,A48,Utica Av,-73.930729,40.679364,1306.0
12:08:30,0,A49,Ralph Av,-73.920786,40.678822,1382.1999999999998
12:42:30,0,A50,Rockaway Av,-73.911946,40.67834,1445.2
12:02:30,0,A51,Broadway Junction,-73.905316,40.678334,1431.6388883590703
13:35:00,0,A52,Liberty Av,-73.896548,40.674542,1551.6388883590703
13:35:00,0,A53,Van Siclen Av,-73.890358,40.67271,1616.6388883590703
13:35:00,0,A54,Shepherd Av,-73.88075,40.67413,1685.63888835907
12:02:30,0,A55,Euclid Av,-73.872106,40.675377,1676.6388883590703
12:02:30,0,A57,Grant Av,-73.86505,40.677044,1759.6388883590703
12:02:30,0,A59,80 St,-73.858992,40.679371,1819.6388883590703
12:02:30,0,A60,88 St,-73.85147,40.679843,1882.6388883590703
12:02:30,0,A61,Rockaway Blvd,-73.843853,40.680429,1942.6388883590703
12:13:00,0,A63,104 St,-73.837683,40.681711,2002.6388883590703
12:52:30,0,A64,111 St,-73.832163,40.684331,2061.6388883590703
12:52:30,0,A65,Ozone Park-Lefferts Blvd,-73.825798,40.685951,2123.6388883590703
13:52:30,0,B04,21 St-Queensbridge,-73.942836,40.754203,873.5999999999999
13:52:30,0,B06,Roosevelt Island,-73.95326,40.759145,753.3840490797545
13:52:30,0,B08,Lexington Av/63 St,-73.966113,40.764629,413.8
13:52:30,0,B10,57 St,-73.97745,40.763972,532.3840490797546
12:13:00,1,B12,9 Av,-73.994324,40.646292,1784.9396234512328
12:13:00,1,B13,Fort Hamilton Pkwy,-73.994304,40.640914,1849.9396234512328
12:13:00,1,B14,50 St,-73.994791,40.63626,1909.9396234512328
12:13:00,1,B15,55 St,-73.995476,40.631435,1972.9396234512328
12:13:00,1,B16,62 St,-73.996895,40.626472,2007.939623451233
12:13:00,1,B17,71 St,-73.998864,40.619589,2077.939623451233
12:13:00,1,B18,79 St,-74.00061,40.613501,2145.939623451233
12:13:00,1,B19,18 Av,-74.001736,40.607954,2205.939623451233
12:13:00,1,B20,20 Av,-73.998168,40.604556,2265.939623451233
12:13:00,1,B21,Bay Pkwy,-73.993728,40.601875,2325.939623451233
13:52:30,0,B22,25 Av,-73.986829,40.597704,2430.939623451233
13:52:30,0,B23,Bay 50 St,-73.983765,40.588841,2555.939623451233
12:56:30,0,D01,Norwood-205 St,-73.878855,40.874811,1613.8157925605774
12:56:30,0,D03,Bedford Park Blvd,-73.887138,40.873244,1534.6632661819458
12:56:30,0,D04,Kingsbridge Rd,-73.893509,40.866978,1466.0157925605774
12:56:30,0,D05,Fordham Rd,-73.897749,40.861296,1399.0157925605774
12:56:30,0,D06,182-183 Sts,-73.900741,40.856093,1339.0157925605774
13:35:30,0,D07,Tremont Av,-73.905227,40.85041,1279.0157925605774
13:35:30,0,D08,174-175 Sts,-73.910136,40.8459,1214.365978717804
13:35:30,0,D09,170 St,-73.9134,40.839306,1144.365978717804
13:35:30,0,D10,167 St,-73.91844,40.833771,1065.765978717804
13:35:30,0,D11,161 St-Yankee Stadium,-73.925651,40.827905,960.0632661819458
13:35:30,0,D12,155 St,-73.938209,40.830135,845.0632661819458
12:33:00,0,D13,145 St,-73.944216,40.824783,745.7659787178039
12:02:00,0,D14,7 Av,-73.981637,40.762862,124.99999999999999
12:02:00,0,D15,47-50 Sts-Rockefeller Ctr,-73.981329,40.758663,421.33333373069763
12:02:00,0,D16,42 St-Bryant Pk,-73.984569,40.754222,379.20000000000005
12:02:00,0,D17,34 St-Herald Sq,-73.987823,40.749719,395.5056178569793
12:27:00,0,D18,23 St,-73.992821,40.742878,475.50561785697926
12:42:30,1,D19,14 St,-73.996209,40.738228,528.0
12:02:00,0,D20,W 4 St-Wash Sq,-74.000495,40.732338,531.9393949508666
13:21:00,1,D21,Broadway-Lafayette St,-73.996204,40.725297,654.9393949508667
13:21:00,1,D22,Grand St,-73.993753,40.718267,773.0
13:21:00,1,D24,Atlantic Av-Barclays Ctr,-73.97689,40.68446,1138.0
13:21:00,1,D25,7 Av,-73.972367,40.67705,1258.0
13:21:00,1,D26,Prospect Park,-73.962246,40.661614,1420.9999999999998
13:27:00,1,D27,Parkside Av,-73.961495,40.655292,1480.9999999999998
13:21:00,1,D28,Church Av,-73.962982,40.650527,1545.9999999999998
13:27:00,1,D29,Beverley Rd,-73.964492,40.644031,1585.9999999999998
13:27:00,1,D30,Cortelyou Rd,-73.963891,40.640927,1643.9999999999998
13:21:00,1,D31,Newkirk Plaza,-73.962793,40.635082,1714.690477609634
12:30:00,1,D32,Avenue H,-73.961639,40.62927,1760.9999999999995
12:30:00,1,D33,Avenue J,-73.960803,40.625039,1820.9999999999995
12:30:00,1,D34,Avenue M,-73.959399,40.617618,1888.9999999999995
13:21:00,1,D35,Kings Hwy,-73.957734,40.60867,1909.690477609634
13:21:00,1,D37,Avenue U,-73.955929,40.5993,2061.9999999999995
13:21:00,1,D38,Neck Rd,-73.955161,40.595246,2116.9999999999995
13:21:00,1,D39,Sheepshead Bay,-73.954155,40.586896,2097.690477609634
13:21:00,1,D40,Brighton Beach,-73.961376,40.577621,2155.690477609634
13:21:00,1,D41,Ocean Pkwy,-73.968501,40.576312,2353.690477609634
13:21:00,1,D42,W 8 St-NY Aquarium,-73.975939,40.576127,2354.0608675956732
13:21:00,1,D43,Coney Island-Stillwell Av,-73.981233,40.577422,2429.8608675956734
12:02:30,0,E01,World Trade Center,-74.009781,40.712582,531.0
12:27:00,0,F01,Jamaica-179 St,-73.783817,40.712646,1725.8
13:21:30,0,F02,169 St,-73.793604,40.71047,1705.9999999999998
12:27:00,0,F03,Parsons Blvd,-73.803326,40.707564,1542.2
12:27:00,0,F04,Sutphin Blvd,-73.810708,40.70546,1534.9999999999998
12:27:00,0,F05,Briarwood,-73.820574,40.709179,1399.0
12:02:00,0,F06,Kew Gardens-Union Tpke,-73.831008,40.714441,1286.0
12:27:00,0,F07,75 Av,-73.837324,40.718331,1221.0
12:02:00,0,F09,Court Sq-23 St,-73.946,40.747846,424.99999999999994
12:02:00,0,F11,Lexington Av/53 St,-73.969055,40.757552,249.99999999999997
12:02:00,0,F12,5 Av/53 St,-73.975224,40.760167,189.99999999999997
12:18:00,1,F14,2 Av,-73.989938,40.723402,718.0
12:18:00,1,F15,Delancey St-Essex St,-73.988114,40.718611,783.0
12:18:00,1,F16,East Broadway,-73.990173,40.713715,843.0
13:12:30,0,F18,York St,-73.986751,40.701397,968.0
12:22:30,0,F20,Bergen St,-73.990862,40.686145,1124.4608675956727
12:22:30,0,F21,Carroll St,-73.995048,40.680303,1202.7608675956726
12:22:30,0,F22,Smith-9 Sts,-73.995959,40.67358,1320.7608675956726
12:22:30,0,F23,4 Av-9 St,-73.989779,40.670272,1380.7608675956726
12:22:30,0,F24,7 Av,-73.980305,40.666271,1329.7608675956728
12:22:30,0,F25,15 St-Prospect Park,-73.979493,40.660365,1454.9260065555575
12:22:30,0,F26,Fort Hamilton Pkwy,-73.975776,40.650782,1574.9260065555575
12:22:30,0,F27,Church Av,-73.979678,40.644041,1558.7608675956726
13:58:00,0,F29,Ditmas Av,-73.978172,40.636119,1678.7608675956726
13:58:00,0,F30,18 Av,-73.976971,40.629755,1767.2608675956728
13:58:00,0,F31,Avenue I,-73.976127,40.625322,1827.2608675956728
13:58:00,0,F32,Bay Pkwy,-73.975264,40.620769,1886.2608675956728
13:58:00,0,F33,Avenue N,-73.974197,40.61514,1951.260867595673
13:58:00,0,F34,Avenue P,-73.973022,40.608944,2011.260867595673
13:58:00,0,F35,Kings Hwy,-73.972361,40.603217,2076.260867595673
13:28:00,0,F36,Avenue U,-73.973357,40.596063,2141.560867595673
13:28:00,0,F38,Avenue X,-73.97425,40.58962,2206.5608675956732
12:08:30,1,F39,Neptune Av,-73.974574,40.581011,2287.0608675956732
13:52:30,0,G05,Jamaica Center-Parsons/Archer,-73.801109,40.702147,1636.0
12:02:00,0,G06,Sutphin Blvd-Archer Av-JFK Airport,-73.807969,40.700486,1571.0
12:02:00,0,G07,Jamaica-Van Wyck,-73.816859,40.702566,1466.0
12:02:00,0,G08,Forest Hills-71 Av,-73.844521,40.721691,1151.0
12:37:30,0,G09,67 Av,-73.852719,40.726523,1186.8999999999999
13:52:30,0,G10,63 Dr-Rego Park,-73.861604,40.729846,1120.3999999999996
13:52:30,0,G11,Woodhaven Blvd,-73.869229,40.733106,1059.1999999999998
13:52:30,0,G12,Grand Av-Newtown,-73.877223,40.737015,984.1999999999997
13:52:30,0,G13,Elmhurst Av,-73.882017,40.742454,919.9999999999998
12:02:00,0,G14,Jackson Hts-Roosevelt Av,-73.891338,40.746644,841.0
12:20:00,0,G15,65 St,-73.898453,40.749669,914.9999999999999
12:27:00,0,G16,Northern Blvd,-73.906006,40.752885,979.9999999999999
12:27:00,0,G18,46 St,-73.913333,40.756312,1027.4561405181885
12:27:00,0,G19,Steinway St,-73.92074,40.756879,933.7755102040816
12:27:00,0,G20,36 St,-73.928781,40.752039,813.7755102040816
12:02:00,0,G21,Queens Plaza,-73.937243,40.748973,539.9999999999999
12:13:30,1,G22,Court Sq,-73.943832,40.746554,484.99999999999994
12:13:30,1,G24,21 St,-73.949724,40.744065,544.9999999999999
12:13:30,1,G26,Greenpoint Av,-73.954449,40.731352,664.9999999999999
12:13:30,1,G28,Nassau Av,-73.951277,40.724635,743.0
12:13:30,1,G29,Metropolitan Av,-73.951418,40.712792,847.2142841815948
12:13:30,1,G30,Broadway,-73.950308,40.706092,917.2142841815948
12:13:30,1,G31,Flushing Av,-73.950234,40.700377,978.8142841815948
12:13:30,1,G32,Myrtle-Willoughby Avs,-73.949046,40.694568,1038.8142841815948
12:08:30,0,G33,Bedford-Nostrand Avs,-73.953522,40.689627,1115.0000000000002
12:08:30,0,G34,Classon Av,-73.96007,40.688873,1175.0000000000002
12:08:30,0,G35,Clinton-Washington Avs,-73.966839,40.688089,1235.0000000000002
12:08:30,0,G36,Fulton St,-73.975375,40.687119,1239.3913037776945
12:42:30,0,H01,Aqueduct Racetrack,-73.834058,40.668234,2117.6388883590703
12:02:30,0,H02,Aqueduct-N Conduit Av,-73.834058,40.668234,2154.0
12:02:30,0,H03,Howard Beach-JFK Airport,-73.830301,40.660476,2229.6388883590703
12:02:30,0,H04,Broad Channel,-73.815925,40.608382,2634.6388883590703
12:02:30,0,H06,Beach 67 St,-73.796924,40.590927,2879.6388883590703
12:42:30,0,H07,Beach 60 St,-73.788522,40.592374,2943.6388883590703
12:42:30,0,H08,Beach 44 St,-73.776013,40.592943,3013.6388883590703
12:42:30,0,H09,Beach 36 St,-73.768175,40.595398,3078.6388883590703
12:42:30,0,H10,Beach 25 St,-73.761353,40.600066,3142.0
12:42:30,0,H11,Far Rockaway-Mott Av,-73.755405,40.603995,3193.6
12:02:30,0,H12,Beach 90 St,-73.813641,40.588034,2867.6388883590703
12:02:30,0,H13,Beach 98 St,-73.820558,40.585307,2927.6388883590703
12:02:30,0,H14,Beach 105 St,-73.827559,40.583209,2987.6388883590703
12:02:30,0,H15,Rockaway Park-Beach 116 St,-73.835592,40.580903,3052.6388883590703
13:52:30,0,J12,121 St,-73.828294,40.700492,1785.8
13:52:30,0,J13,111 St,-73.836345,40.697418,1786.8000000000002
13:52:30,0,J14,104 St,-73.84433,40.695178,1888.8
13:52:30,0,J15,Woodhaven Blvd,-73.851576,40.693879,1952.1388883590705
13:52:30,0,J16,85 St-Forest Pkwy,-73.86001,40.692435,1889.5388883590704
13:52:30,0,J17,75 St-Elderts Ln,-73.867139,40.691324,1801.6388883590703
13:52:30,0,J19,Cypress Hills,-73.87255,40.689941,1769.5388883590704
13:58:00,1,J20,Crescent St,-73.873785,40.683194,1728.5388883590704
13:58:00,1,J21,Norwood Av,-73.880039,40.68141,1695.6388883590705
13:58:00,1,J22,Cleveland St,-73.884639,40.679947,1666.6388883590703
13:58:00,1,J23,Van Siclen Av,-73.891688,40.678024,1581.6388883590703
13:58:00,1,J24,Alabama Av,-73.898654,40.676992,1506.6388883590703
13:21:00,1,J27,Broadway Junction,-73.904512,40.679498,1431.6388883590703
13:58:00,1,J28,Chauncey St,-73.910456,40.682893,1491.6388883590703
13:58:00,1,J29,Halsey St,-73.916559,40.68637,1556.6388883590703
13:21:00,1,J30,Gates Av,-73.92227,40.68963,1583.7211530208588
13:21:00,1,J31,Kosciuszko St,-73.928814,40.693342,1523.7211530208588
13:27:00,1,L01,8 Av,-74.002578,40.739777,243.0
13:27:00,1,L02,6 Av,-73.996786,40.737335,303.0
13:27:00,1,L03,14 St-Union Sq,-73.99073,40.734789,334.0
13:27:00,1,L05,3 Av,-73.986122,40.732849,360.0
13:27:00,1,L06,1 Av,-73.981628,40.730953,392.0
13:27:00,1,L08,Bedford Av,-73.956872,40.717304,578.0
13:27:00,1,L10,Lorimer St,-73.950275,40.714063,634.0
13:27:00,1,L11,Graham Av,-73.944053,40.714565,656.0
13:27:00,1,L12,Grand St,-73.94067,40.711926,730.0000000000001
13:27:00,1,L13,Montrose Av,-73.93985,40.707739,754.0000000000001
13:27:00,1,L14,Morgan Av,-73.933147,40.706152,818.0000000000001
13:27:00,1,L15,Jefferson St,-73.922913,40.706607,911.0000000000001
13:27:00,1,L16,DeKalb Av,-73.918425,40.703811,960.0000000000002
13:27:00,1,L17,Myrtle-Wyckoff Avs,-73.911586,40.699814,1001.0000000000002
13:27:00,1,L19,Halsey St,-73.904084,40.695602,1048.0000000000002
13:27:00,1,L20,Wilson Av,-73.904046,40.688764,1163.0000000000005
13:27:00,1,L21,Bushwick Av-Aberdeen St,-73.905249,40.682829,1196.0000000000005
13:27:00,1,L22,Broadway Junction,-73.90324,40.678856,1214.0000000000005
13:27:00,1,L24,Atlantic Av,-73.903097,40.675345,1247.0000000000005
13:27:00,1,L25,Sutter Av,-73.901975,40.669367,1311.0000000000005
13:27:00,1,L26,Livonia Av,-73.900571,40.664038,1348.0000000000005
13:27:00,1,L27,New Lots Av,-73.899232,40.658733,1410.6000000000006
13:27:00,1,L28,East 105 St,-73.899485,40.650573,1496.6000000000006
13:27:00,1,L29,Canarsie-Rockaway Pkwy,-73.90185,40.646654,1526.6000000000006
12:05:00,2,M01,Middle Village-Metropolitan Av,-73.889601,40.711396,1452.9903843402865
12:05:00,2,M04,Fresh Pond Rd,-73.895877,40.706186,1412.9903843402865
12:05:00,2,M05,Forest Av,-73.903077,40.704423,1342.9903843402865
12:05:00,2,M06,Seneca Av,-73.90774,40.702762,1278.9903843402865
13:21:00,1,M08,Myrtle-Wyckoff Avs,-73.912385,40.69943,1227.4563107490542
13:21:00,1,M09,Knickerbocker Av,-73.919711,40.698664,1294.4563107490542
13:21:00,1,M10,Central Av,-73.927397,40.697857,1367.4563107490542
13:21:00,1,M11,Myrtle Av,-73.935657,40.697207,1411.7315793991088
13:21:00,1,M12,Flushing Av,-73.941126,40.70026,1310.8393949508666
13:21:00,1,M13,Lorimer St,-73.947408,40.703869,1245.8393949508666
13:21:00,1,M14,Hewes St,-73.953431,40.70687,1184.1393949508667
13:21:00,1,M16,Marcy Av,-73.957757,40.708359,1124.1393949508667
13:21:00,1,M18,Delancey St-Essex St,-73.987437,40.718315,794.9393949508667
13:21:00,1,M19,Bowery,-73.993915,40.72028,837.7211530208588
13:58:00,1,M20,Canal St,-73.999892,40.718092,768.7211530208587
13:58:00,1,M21,Chambers St,-74.003401,40.713243,843.7211530208587
13:58:00,1,M22,Fulton St,-74.007582,40.710374,806.0
12:08:30,1,M23,Broad St,-74.011056,40.706476,869.0
12:50:30,1,N02,8 Av,-74.011719,40.635064,1790.6
12:50:30,1,N03,Fort Hamilton Pkwy,-74.005351,40.631386,1906.0
12:50:30,1,N04,New Utrecht Av,-73.996353,40.624842,1990.9999999999998
12:50:30,1,N05,18 Av,-73.990414,40.620671,2055.0
12:50:30,1,N06,20 Av,-73.985026,40.61741,2115.0
12:50:30,1,N07,Bay Pkwy,-73.981848,40.611815,2177.0
12:50:30,1,N08,Kings Hwy,-73.980353,40.603923,2252.0
12:50:30,1,N09,Avenue U,-73.979137,40.597473,2312.0
12:50:30,1,N10,86 St,-73.97823,40.592721,2377.0
12:50:30,1,Q01,Canal St,-74.00046,40.718383,542.9999999999999
12:07:30,0,Q03,72 St,-73.958424,40.768799,512.3000000000001
12:07:30,0,Q04,86 St,-73.951787,40.777891,623.2
12:07:30,0,Q05,96 St,-73.947152,40.784318,660.9000000000001
12:05:00,1,R01,Astoria-Ditmars Blvd,-73.912034,40.775036,1053.0
12:05:00,1,R03,Astoria Blvd,-73.917843,40.770258,997.0
12:05:00,1,R04,30 Av,-73.921479,40.766779,935.0
12:05:00,1,R05,Broadway,-73.925508,40.76182,875.0
12:05:00,1,R06,36 Av,-73.929575,40.756804,815.0
12:05:00,1,R08,39 Av-Dutch Kills,-73.932755,40.752882,750.0
12:05:00,1,R09,Queensboro Plaza,-73.940202,40.750582,633.0
12:05:00,1,R11,Lexington Av/59 St,-73.967258,40.76266,435.0
12:05:00,1,R13,5 Av/59 St,-73.973347,40.764811,365.0
12:05:00,1,R14,57 St-7 Av,-73.980658,40.764664,244.99999999999997
13:48:30,1,R15,49 St,-73.984139,40.759901,180.0
12:13:00,1,R16,Times Sq-42 St,-73.986754,40.754672,120.0
12:50:30,1,R17,34 St-Herald Sq,-73.98795,40.749567,184.99999999999997
12:05:00,1,R18,28 St,-73.988691,40.745494,244.99999999999997
12:05:00,1,R19,23 St,-73.989344,40.741303,300.0
12:05:00,1,R20,14 St-Union Sq,-73.990568,40.735736,309.99999999999994
12:05:00,1,R21,8 St-NYU,-73.992629,40.730328,443.0
12:05:00,1,R22,Prince St,-73.997702,40.724329,503.9999999999999
12:05:00,1,R23,Canal St,-74.001775,40.719527,569.0
12:52:30,1,R24,City Hall,-74.006978,40.713282,689.0
12:02:30,1,R25,Cortlandt St,-74.011029,40.710668,640.0
12:02:30,1,R26,Rector St,-74.013342,40.70722,715.0
12:02:30,1,R27,Whitehall St-South Ferry,-74.012994,40.703087,775.0
12:02:30,1,R28,Court St,-73.991777,40.6941,955.0
13:27:00,1,R29,Jay St-MetroTech,-73.985942,40.69218,1002.0000000000002
13:21:00,1,R30,DeKalb Av,-73.981824,40.690635,1007.9999999999998
13:27:00,1,R31,Atlantic Av-Barclays Ctr,-73.97881,40.683666,1143.6000000000001
12:13:00,1,R32,Union St,-73.98311,40.677316,1236.0
12:13:00,1,R33,4 Av-9 St,-73.988302,40.670847,1296.0
12:13:00,1,R34,Prospect Av,-73.992872,40.665414,1356.0
12:13:00,1,R35,25 St,-73.998091,40.660397,1419.3000000000002
12:13:00,1,R36,36 St,-74.003549,40.655144,1445.6
12:13:00,1,R39,45 St,-74.010006,40.648939,1597.2
12:50:30,1,R40,53 St,-74.014034,40.645069,1659.0000000000002
12:50:30,1,R41,59 St,-74.017881,40.641362,1670.6
12:08:30,1,R42,Bay Ridge Av,-74.023377,40.634967,1791.1405402183532
12:08:30,1,R43,77 St,-74.02551,40.629742,1851.1405402183532
12:08:30,1,R44,86 St,-74.028398,40.622687,1971.1405402183532
12:08:30,1,R45,Bay Ridge-95 St,-74.030876,40.616622,2015.1405402183534
13:21:00,1,S01,Franklin Av,-73.955827,40.680596,1319.7894749641416
12:08:30,1,S03,Park Pl,-73.957624,40.674772,1388.0894749641416
13:21:00,1,S04,Botanic Garden,-73.959245,40.670343,1478.0894749641416
