start_time,ntransfers,stop_id,stop_name,stop_lon,stop_lat,duration
12:11:30,1,101,Van Cortlandt Park-242 St,-73.898583,40.889248,2113.7809193611142
12:11:30,1,103,238 St,-73.90087,40.884667,2050.7809193611142
12:11:30,1,104,231 St,-73.904834,40.878856,1976.480919361114
12:11:30,1,106,Marble Hill-225 St,-73.909831,40.874561,1907.4809193611143
12:11:30,1,107,215 St,-73.915279,40.869444,1835.4809193611143
12:11:30,1,108,207 St,-73.918822,40.864621,1769.4809193611143
12:11:30,1,109,Dyckman St,-73.925536,40.860531,1712.4809193611143
12:11:30,1,110,191 St,-73.929412,40.855225,1652.3891312122344
12:11:30,1,111,181 St,-73.933596,40.849505,1578.480919361114
12:11:30,1,112,168 St-Washington Hts,-73.940133,40.840556,1475.3891312122344
13:56:30,1,113,157 St,-73.94489,40.834041,1423.4809193611143
12:11:30,1,114,145 St,-73.95036,40.826551,1324.4809193611143
12:11:30,1,115,137 St-City College,-73.953676,40.822008,1268.4809193611143
12:11:30,1,116,125 St,-73.958372,40.815581,1204.4809193611143
12:11:30,1,117,116 St-Columbia University,-73.96411,40.807722,1101.4809193611145
12:11:30,1,118,Cathedral Pkwy (110 St),-73.966847,40.803967,1058.4809193611145
12:11:30,1,119,103 St,-73.968379,40.799446,988.4809193611145
12:41:30,1,120,96 St,-73.972323,40.793919,744.0
12:11:30,1,121,86 St,-73.976218,40.788644,813.4809193611145
12:11:30,1,122,79 St,-73.979917,40.783934,747.4809193611145
12:11:30,1,123,72 St,-73.98197,40.778453,586.0
12:11:30,1,124,66 St-Lincoln Center,-73.982209,40.77344,614.0
12:11:30,1,125,59 St-Columbus Circle,-73.981929,40.768247,559.9999999999999
12:04:00,1,126,50 St,-73.983849,40.761728,469.0
12:04:00,1,127,Times Sq-42 St,-73.987495,40.75529,369.99999999999994
13:41:30,1,128,34 St-Penn Station,-73.991057,40.750373,457.0
13:41:30,1,129,28 St,-73.993365,40.747215,514.9999999999999
13:41:30,1,130,23 St,-73.995657,40.744081,574.9999999999999
12:28:30,1,131,18 St,-73.997871,40.74104,634.9999999999999
13:41:30,1,132,14 St,-74.000201,40.737826,554.5
12:07:00,1,133,Christopher St-Sheridan Sq,-74.002906,40.733422,777.9999999999999
12:07:00,1,134,Houston St,-74.005367,40.728251,833.9999999999999
12:07:00,1,135,Canal St,-74.006277,40.722854,890.9999999999999
13:28:30,1,136,Franklin St,-74.006886,40.719318,937.9999999999999
13:58:30,1,137,Chambers St,-74.009266,40.715478,767.5000000000001
13:28:30,1,138,WTC Cortlandt,-74.012188,40.711835,1019.9999999999998
13:28:30,1,139,Rector St,-74.013783,40.707513,1092.9999999999998
13:28:30,1,142,South Ferry,-74.013664,40.702068,1170.9999999999998
12:34:00,1,201,Wakefield-241 St,-73.85062,40.903125,2768.788889551163
12:34:00,1,204,Nereid Av,-73.854376,40.898379,2666.7888895511624
12:34:00,1,205,233 St,-73.857473,40.893193,2626.788889551163
12:34:00,1,206,225 St,-73.860341,40.888022,2541.788889551163
12:34:00,1,207,219 St,-73.862633,40.883895,2468.788889551163
12:34:00,1,208,Gun Hill Rd,-73.866256,40.87785,2382.4888895511626
12:34:00,1,209,Burke Av,-73.867164,40.871356,2295.4888895511626
12:34:00,1,210,Allerton Av,-73.867352,40.865462,2212.4888895511626
12:34:00,1,211,Pelham Pkwy,-73.867615,40.857192,2113.4888895511626
12:34:00,1,212,Bronx Park East,-73.868457,40.848828,2002.4888895511626
12:34:00,1,213,E 180 St,-73.873488,40.841894,1858.4888895511626
12:34:00,1,214,West Farms Sq-E Tremont Av,-73.880049,40.840295,1927.488889551163
12:34:00,1,215,174 St,-73.887734,40.837288,1821.4888895511629
12:34:00,1,216,Freeman St,-73.891865,40.829993,1724.4888895511629
12:34:00,1,217,Simpson St,-73.893064,40.824073,1611.4888895511629
12:34:00,1,218,Intervale Av,-73.896736,40.822181,1541.4888895511629
12:34:00,1,219,Prospect Av,-73.90177,40.819585,1474.4888895511626
12:34:00,1,220,Jackson Av,-73.907807,40.81649,1388.4888895511626
12:34:00,1,221,3 Av-149 St,-73.917757,40.816109,1272.4888895511626
12:34:00,1,222,149 St-Grand Concourse,-73.926718,40.81841,1185.4888895511629
12:41:30,1,224,135 St,-73.94077,40.814229,1200.0
12:41:30,1,225,125 St,-73.945495,40.807754,1124.0
12:41:30,1,226,116 St,-73.949625,40.802098,1036.0000000000002
12:41:30,1,227,Central Park North (110 St),-73.951822,40.799075,973.0000000000001
13:58:30,1,228,Park Place,-74.008811,40.713051,841.5000000000001
13:58:30,1,229,Fulton St,-74.006571,40.709416,936.5000000000001
13:58:30,1,230,Wall St,-74.0091,40.706821,1000.5000000000002
13:58:30,1,231,Clark St,-73.993086,40.697466,1166.5000000000002
13:58:30,1,232,Borough Hall,-73.989998,40.693219,1270.5000000000002
13:19:00,1,233,Hoyt St,-73.985065,40.690545,1338.5000000000002
13:19:00,1,234,Nevins St,-73.980492,40.688246,1403.9310333728788
13:19:00,1,235,Atlantic Av-Barclays Ctr,-73.977666,40.684359,1483.9310333728788
13:19:00,1,236,Bergen St,-73.975098,40.680829,1555.5000000000002
13:19:00,1,237,Grand Army Plaza,-73.971046,40.675235,1647.4188377857206
13:19:00,1,238,Eastern Pkwy-Brooklyn Museum,-73.964375,40.671987,1731.5000000000002
13:19:00,1,239,Franklin Av-Medgar Evers College,-73.958131,40.670682,1727.9310333728788
13:19:00,1,241,President St-Medgar Evers College,-73.950683,40.667883,1892.5192704200742
13:19:00,1,242,Sterling St,-73.95085,40.662742,1965.5192704200745
13:19:00,1,243,Winthrop St,-73.9502,40.656652,2032.5192704200745
13:19:00,1,244,Church Av,-73.949575,40.650843,2086.5192704200745
13:19:00,1,245,Beverly Rd,-73.948959,40.645098,2142.519270420074
13:19:00,1,246,Newkirk Av-Little Haiti,-73.948411,40.639967,2215.519270420074
13:19:00,1,247,Flatbush Av-Brooklyn College,-73.947642,40.632836,2273.5192704200745
13:19:00,1,248,Nostrand Av,-73.950466,40.669847,1820.8310333728787
13:19:00,1,249,Kingston Av,-73.942161,40.669399,1866.8310333728787
13:19:00,1,250,Crown Hts-Utica Av,-73.932942,40.668897,1842.1310333728786
13:19:00,1,251,Sutter Av-Rutland Rd,-73.92261,40.664717,1969.1310333728784
13:19:00,1,252,Saratoga Av,-73.916327,40.661453,2052.6776974201202
13:19:00,1,253,Rockaway Av,-73.908946,40.662549,1972.67769742012
13:19:00,1,254,Junius St,-73.902447,40.663515,1909.2142841815948
12:08:00,3,255,Pennsylvania Av,-73.894895,40.664635,1999.6776974201202
12:08:00,3,256,Van Siclen Av,-73.889395,40.665449,2067.6776974201202
12:08:00,3,257,New Lots Av,-73.884079,40.666235,2118.6776974201202
12:41:30,1,301,Harlem-148 St,-73.93647,40.82388,1344.4
12:41:30,1,302,145 St,-73.936245,40.820421,1295.0
13:04:00,1,401,Woodlawn,-73.878751,40.886037,2203.9310333728795
13:04:00,1,402,Mosholu Pkwy,-73.884655,40.87975,2119.9310333728795
13:04:00,1,405,Bedford Park Blvd-Lehman College,-73.890064,40.873412,2024.9310333728793
13:04:00,1,406,Kingsbridge Rd,-73.897174,40.86776,1935.9310333728793
13:04:00,1,407,Fordham Rd,-73.901034,40.862803,1847.9310333728793
13:04:00,1,408,183 St,-73.903879,40.858407,1772.9310333728793
13:04:00,1,409,Burnside Av,-73.907684,40.853453,1696.9310333728793
13:04:00,1,410,176 St,-73.911794,40.84848,1646.5310333728794
13:04:00,1,411,Mt Eden Av,-73.914685,40.844434,1576.5310333728794
13:04:00,1,412,170 St,-73.917791,40.840075,1508.9310333728793
13:04:00,1,413,167 St,-73.9214,40.835537,1431.9310333728793
13:41:30,1,414,161 St-Yankee Stadium,-73.925831,40.827994,1341.9310333728793
13:41:30,1,415,149 St-Grand Concourse,-73.927351,40.818375,1200.8888895511627
12:34:00,1,416,138 St-Grand Concourse,-73.929849,40.813224,1093.8888895511627
12:34:00,1,418,Fulton St,-74.009509,40.710368,942.931033372879
12:34:00,1,419,Wall St,-74.011862,40.707557,1009.931033372879
12:34:00,1,420,Bowling Green,-74.014065,40.704817,1074.931033372879
12:34:00,1,423,Borough Hall,-73.990151,40.692404,1300.931033372879
12:34:00,1,501,Eastchester-Dyre Av,-73.830834,40.8883,2436.488889551163
12:34:00,1,502,Baychester Av,-73.838591,40.878663,2371.488889551163
12:34:00,1,503,Gun Hill Rd,-73.846384,40.869526,2253.4888895511626
12:34:00,1,504,Pelham Pkwy,-73.855359,40.858985,2127.4888895511626
12:34:00,1,505,Morris Park,-73.860495,40.854364,2047.4888895511626
13:41:30,1,601,Pelham Bay Park,-73.828121,40.852462,2071.6473676681517
13:41:30,1,602,Buhre Av,-73.832569,40.84681,1970.347367668152
13:41:30,1,603,Middletown Rd,-73.836322,40.843863,1924.347367668152
13:41:30,1,604,Westchester Sq-E Tremont Av,-73.842952,40.839892,1837.3473676681517
13:41:30,1,606,Zerega Av,-73.847036,40.836488,1765.4473676681516
13:41:30,1,607,Castle Hill Av,-73.851222,40.834255,1705.4473676681516
13:41:30,1,608,Parkchester,-73.860816,40.833226,1652.8473676681517
13:41:30,1,609,St Lawrence Av,-73.867618,40.831509,1837.431033372879
13:41:30,1,610,Morrison Av-Soundview,-73.874516,40.829521,1765.431033372879
13:41:30,1,611,Elder Av,-73.879159,40.828584,1732.431033372879
13:41:30,1,612,Whitlock Av,-73.886283,40.826525,1642.431033372879
13:41:30,1,613,Hunts Point Av,-73.890549,40.820948,1467.9473676681519
12:34:00,1,614,Longwood Av,-73.896435,40.816104,1495.431033372879
12:34:00,1,615,E 149 St,-73.904098,40.812118,1424.1761898517611
12:34:00,1,616,E 143 St-St Mary's St,-73.907657,40.808719,1373.4310333728788
12:34:00,1,617,Cypress Av,-73.914042,40.805368,1268.4310333728788
12:34:00,1,618,Brook Av,-73.91924,40.807566,1208.4310333728788
12:34:00,1,619,3 Av-138 St,-73.926138,40.810476,1117.431033372879
12:34:00,1,621,125 St,-73.937594,40.804138,958.431033372879
12:34:00,1,622,116 St,-73.941617,40.798629,870.1761898517608
12:34:00,1,623,110 St,-73.94425,40.79502,795.1761898517608
12:34:00,1,624,103 St,-73.947478,40.7906,742.1761898517608
12:34:00,1,625,96 St,-73.95107,40.785672,657.1761898517608
12:34:00,1,626,86 St,-73.955589,40.779492,557.1761898517608
12:34:00,1,627,77 St,-73.959874,40.77362,474.17618985176085
12:34:00,1,628,68 St-Hunter College,-73.96387,40.768141,402.94736766815186
12:34:00,1,629,59 St,-73.967967,40.762526,317.9473676681518
12:34:00,1,630,51 St,-73.97192,40.757107,228.94736766815183
12:34:00,1,631,Grand Central-42 St,-73.976848,40.751776,278.931033372879
12:34:00,1,632,33 St,-73.982076,40.746081,365.931033372879
12:34:00,1,633,28 St,-73.984264,40.74307,427.931033372879
12:34:00,1,634,23 St,-73.986599,40.739864,461.931033372879
12:34:00,1,635,14 St-Union Sq,-73.989951,40.734673,576.931033372879
12:34:00,1,636,Astor Pl,-73.99107,40.730054,637.9310333728791
12:34:00,1,637,Bleecker St,-73.994659,40.725915,719.9310333728791
12:19:00,1,638,Spring St,-73.997141,40.722301,779.9310333728791
12:19:00,1,639,Canal St,-74.000193,40.718803,813.9310333728791
12:34:00,1,640,Brooklyn Bridge-City Hall,-74.004131,40.713065,845.931033372879
12:03:00,1,701,Flushing-Main St,-73.83003,40.7596,1210.2978734970095
12:03:00,1,702,Mets-Willets Point,-73.845625,40.754622,1080.2978734970093
12:03:00,1,705,111 St,-73.855334,40.75173,1076.772513628006
12:03:00,1,706,103 St-Corona Plaza,-73.8627,40.749865,1012.7725136280059
12:03:00,1,707,Junction Blvd,-73.869527,40.749145,924.2978734970093
12:03:00,1,708,90 St-Elmhurst Av,-73.876613,40.748408,905.7725136280059
12:03:00,1,709,82 St-Jackson Hts,-73.883697,40.747659,845.7725136280059
12:13:30,1,710,74 St-Broadway,-73.891394,40.746848,762.9574484825134
12:13:30,1,711,69 St,-73.896403,40.746325,742.0
12:13:30,1,712,61 St-Woodside,-73.902984,40.74563,681.0000000000001
12:51:00,1,713,52 St,-73.912549,40.744149,601.0
12:51:00,1,714,46 St-Bliss St,-73.918435,40.743132,554.0
12:51:00,1,715,40 St-Lowery St,-73.924016,40.743781,513.0
12:51:00,1,716,33 St-Rawson St,-73.930997,40.744587,456.00000000000006
12:51:00,1,718,Queensboro Plaza,-73.940202,40.750582,362.00000000000006
12:26:30,1,719,Court Sq,-73.945264,40.747023,292.0
12:26:30,1,720,Hunters Point Av,-73.948916,40.742216,375.20000000000005
12:26:30,1,721,Vernon Blvd-Jackson Av,-73.953581,40.742626,390.20000000000005
12:07:00,1,723,Grand Central-42 St,-73.976041,40.751431,398.931033372879
12:07:00,1,724,5 Av,-73.981963,40.753821,404.2
12:19:00,1,725,Times Sq-42 St,-73.987691,40.755477,369.99999999999994
12:04:00,1,726,34 St-Hudson Yards,-74.00191,40.755882,499.99999999999994
12:26:30,1,901,Grand Central-42 St,-73.979189,40.752769,338.931033372879
12:34:00,2,902,Times Sq-42 St,-73.986229,40.755983,309.99999999999994
13:56:30,0,A02,Inwood-207 St,-73.919899,40.868072,1617.7313980102538
13:56:30,0,A03,Dyckman St,-73.927271,40.865491,1555.4313980102538
13:56:30,0,A05,190 St,-73.93418,40.859022,1476.831398010254
13:56:30,0,A06,181 St,-73.937969,40.851695,1396.831398010254
13:56:30,0,A07,175 St,-73.939704,40.847391,1329.831398010254
12:11:30,0,A09,168 St,-73.939561,40.840719,1249.8999999999999
13:56:30,0,A10,163 St-Amsterdam Av,-73.939892,40.836013,1196.7971500873566
13:56:30,0,A11,155 St,-73.941514,40.830518,1136.7971500873566
12:11:30,0,A12,145 St,-73.944216,40.824783,1059.7971500873564
12:04:00,0,A14,135 St,-73.947649,40.817894,979.7971500873565
13:34:00,0,A15,125 St,-73.952343,40.811109,855.6392538070678
12:04:00,0,A16,116 St,-73.954882,40.805085,912.3333337306977
12:26:30,0,A17,Cathedral Pkwy (110 St),-73.958161,40.800603,852.3333337306977
12:26:30,0,A18,103 St,-73.961454,40.796092,792.3333337306977
12:26:30,0,A19,96 St,-73.964696,40.791642,732.3333337306977
12:26:30,0,A20,86 St,-73.968916,40.785868,663.3333337306977
12:26:30,0,A21,81 St-Museum of Natural History,-73.972143,40.781433,598.3333337306976
12:26:30,0,A22,72 St,-73.97641,40.775594,538.3333337306976
13:34:00,0,A24,59 St-Columbus Circle,-73.981736,40.768296,426.33333373069763
12:04:00,0,A25,50 St,-73.985984,40.762456,184.99999999999997
13:41:30,0,A27,42 St-Port Authority Bus Terminal,-73.989735,40.757308,249.99999999999997
13:41:30,0,A28,34 St-Penn Station,-73.993391,40.752287,327.99999999999994
13:41:30,0,A30,23 St,-73.998041,40.745906,423.0
13:41:30,0,A31,14 St,-74.00169,40.740893,483.00000000000006
13:41:30,0,A32,W 4 St-Wash Sq,-74.000495,40.732338,577.0
13:41:30,0,A33,Spring St,-74.003739,40.726227,650.0
13:41:30,0,A34,Canal St,-74.005229,40.720824,725.0
13:41:30,0,A36,Chambers St,-74.008585,40.714111,845.1071417331696
13:41:30,0,A38,Fulton St,-74.007691,40.710197,915.1071417331696
13:41:30,0,A40,High St,-73.990531,40.699337,1087.1071417331696
12:37:00,0,A41,Jay St-MetroTech,-73.987342,40.692338,1202.1071417331696
12:20:30,1,A42,Hoyt-Schermerhorn Sts,-73.985001,40.688484,1117.0
13:41:30,0,A43,Lafayette Av,-73.973946,40.686113,1397.1071417331696
13:41:30,0,A44,Clinton-Washington Avs,-73.965838,40.683263,1456.1071417331698
13:41:30,0,A45,Franklin Av,-73.956848,40.68138,1558.7894749641416
12:34:00,0,A46,Nostrand Av,-73.950426,40.680438,1536.1071417331696
13:41:30,0,A47,Kingston-Throop Avs,-73.940858,40.679921,1611.9999999999998
12:34:00,0,A48,Utica Av,-73.930729,40.679364,1658.1071417331696
13:41:30,0,A49,Ralph Av,-73.920786,40.678822,1752.1999999999998
12:34:00,0,A50,Rockaway Av,-73.911946,40.67834,1719.5326714515686
12:34:00,0,A51,Broadway Junction,-73.905316,40.678334,1659.5326714515686
13:26:30,0,A52,Liberty Av,-73.896548,40.674542,1779.5326714515686
13:26:30,0,A53,Van Siclen Av,-73.890358,40.67271,1844.5326714515686
13:26:30,0,A54,Shepherd Av,-73.88075,40.67413,1913.5326714515684
12:34:00,0,A55,Euclid Av,-73.872106,40.675377,1904.5326714515686
12:34:00,0,A57,Grant Av,-73.86505,40.677044,1987.5326714515686
12:34:00,0,A59,80 St,-73.858992,40.679371,2047.5326714515686
12:34:00,0,A60,88 St,-73.85147,40.679843,2110.5326714515686
12:34:00,0,A61,Rockaway Blvd,-73.843853,40.680429,2170.5326714515686
13:04:00,0,A63,104 St,-73.837683,40.681711,2230.5326714515686
13:04:00,0,A64,111 St,-73.832163,40.684331,2289.5326714515686
13:04:00,0,A65,Ozone Park-Lefferts Blvd,-73.825798,40.685951,2351.5326714515686
13:47:00,0,B04,21 St-Queensbridge,-73.942836,40.754203,822.5473676681518
13:47:00,0,B06,Roosevelt Island,-73.95326,40.759145,722.8888895511627
13:47:00,0,B08,Lexington Av/63 St,-73.966113,40.764629,662.9473676681519
13:47:00,0,B10,57 St,-73.97745,40.763972,685.7142857142858
12:11:30,0,B12,9 Av,-73.994324,40.646292,2001.933333730698
12:11:30,0,B13,Fort Hamilton Pkwy,-73.994304,40.640914,2084.939253807068
12:11:30,0,B14,50 St,-73.994791,40.63626,2144.939253807068
12:11:30,0,B15,55 St,-73.995476,40.631435,2207.939253807068
12:11:30,0,B16,62 St,-73.996895,40.626472,2242.939253807068
12:11:30,0,B17,71 St,-73.998864,40.619589,2312.939253807068
12:11:30,0,B18,79 St,-74.00061,40.613501,2380.939253807068
12:11:30,0,B19,18 Av,-74.001736,40.607954,2440.939253807068
12:11:30,0,B20,20 Av,-73.998168,40.604556,2500.939253807068
12:11:30,0,B21,Bay Pkwy,-73.993728,40.601875,2560.939253807068
13:41:30,0,B22,25 Av,-73.986829,40.597704,2665.939253807068
13:41:30,0,B23,Bay 50 St,-73.983765,40.588841,2790.939253807068
12:04:00,0,D01,Norwood-205 St,-73.878855,40.874811,1839.2392538070676
12:04:00,0,D03,Bedford Park Blvd,-73.887138,40.873244,1764.4392538070676
12:04:00,0,D04,Kingsbridge Rd,-73.893509,40.866978,1691.4392538070679
12:04:00,0,D05,Fordham Rd,-73.897749,40.861296,1624.4392538070679
12:04:00,0,D06,182-183 Sts,-73.900741,40.856093,1564.4392538070679
13:34:00,0,D07,Tremont Av,-73.905227,40.85041,1504.4392538070679
13:34:00,0,D08,174-175 Sts,-73.910136,40.8459,1469.639253807068
13:34:00,0,D09,170 St,-73.9134,40.839306,1399.639253807068
13:34:00,0,D10,167 St,-73.91844,40.833771,1329.6392538070677
13:34:00,0,D11,161 St-Yankee Stadium,-73.925651,40.827905,1253.639253807068
13:34:00,0,D12,155 St,-73.938209,40.830135,1153.6392538070677
13:34:00,0,D13,145 St,-73.944216,40.824783,1035.639253807068
12:04:00,0,D14,7 Av,-73.981637,40.762862,124.99999999999999
12:07:00,0,D15,47-50 Sts-Rockefeller Ctr,-73.981329,40.758663,250.71428571428572
12:07:00,0,D16,42 St-Bryant Pk,-73.984569,40.754222,312.7142857142857
12:07:00,0,D17,34 St-Herald Sq,-73.987823,40.749719,372.7142857142857
12:07:00,0,D18,23 St,-73.992821,40.742878,452.7142857142857
12:07:00,0,D19,14 St,-73.996209,40.738228,512.7142857142857
12:19:00,0,D20,W 4 St-Wash Sq,-74.000495,40.732338,627.7142857142857
12:19:00,0,D21,Broadway-Lafayette St,-73.996204,40.725297,750.7142857142856
12:19:00,0,D22,Grand St,-73.993753,40.718267,934.3333337306976
12:49:00,0,D24,Atlantic Av-Barclays Ctr,-73.97689,40.68446,1388.0
12:49:00,0,D25,7 Av,-73.972367,40.67705,1508.0
12:49:00,0,D26,Prospect Park,-73.962246,40.661614,1671.0
12:19:00,0,D27,Parkside Av,-73.961495,40.655292,1731.0
12:49:00,0,D28,Church Av,-73.962982,40.650527,1796.0
13:49:00,0,D29,Beverley Rd,-73.964492,40.644031,1836.0
12:49:00,0,D30,Cortelyou Rd,-73.963891,40.640927,1894.0
12:49:00,0,D31,Newkirk Plaza,-73.962793,40.635082,1964.6904776096344
13:49:00,0,D32,Avenue H,-73.961639,40.62927,2011.0
13:49:00,0,D33,Avenue J,-73.960803,40.625039,2071.0
13:49:00,0,D34,Avenue M,-73.959399,40.617618,2139.0
12:49:00,0,D35,Kings Hwy,-73.957734,40.60867,2159.6904776096344
12:19:00,0,D37,Avenue U,-73.955929,40.5993,2312.0
12:19:00,0,D38,Neck Rd,-73.955161,40.595246,2366.9999999999995
12:49:00,0,D39,Sheepshead Bay,-73.954155,40.586896,2347.6904776096344
12:19:00,0,D40,Brighton Beach,-73.961376,40.577621,2405.6904776096344
12:19:00,0,D41,Ocean Pkwy,-73.968501,40.576312,2603.6904776096344
12:19:00,0,D42,W 8 St-NY Aquarium,-73.975939,40.576127,2581.465138959885
12:19:00,0,D43,Coney Island-Stillwell Av,-73.981233,40.577422,2654.0943422317496
12:04:00,0,E01,World Trade Center,-74.009781,40.712582,820.0
12:33:00,0,F01,Jamaica-179 St,-73.783817,40.712646,1436.8
13:27:30,0,F02,169 St,-73.793604,40.71047,1416.9999999999998
12:03:00,0,F03,Parsons Blvd,-73.803326,40.707564,1253.2
12:03:00,0,F04,Sutphin Blvd,-73.810708,40.70546,1272.6000000000001
12:03:00,0,F05,Briarwood,-73.820574,40.709179,1110.0
12:03:00,0,F06,Kew Gardens-Union Tpke,-73.831008,40.714441,997.0
12:03:00,0,F07,75 Av,-73.837324,40.718331,932.0
12:00:30,0,F09,Court Sq-23 St,-73.946,40.747846,172.0
12:17:00,0,F11,Lexington Av/53 St,-73.969055,40.757552,0.0
12:04:00,0,F12,5 Av/53 St,-73.975224,40.760167,56.0
12:37:00,0,F14,2 Av,-73.989938,40.723402,990.1142857142856
12:37:00,0,F15,Delancey St-Essex St,-73.988114,40.718611,1055.1142857142856
12:37:00,0,F16,East Broadway,-73.990173,40.713715,1115.1142857142856
12:37:00,0,F18,York St,-73.986751,40.701397,1235.1142857142856
12:37:00,0,F20,Bergen St,-73.990862,40.686145,1192.0
12:37:00,0,F21,Carroll St,-73.995048,40.680303,1257.0
12:37:00,0,F22,Smith-9 Sts,-73.995959,40.67358,1374.0
12:37:00,0,F23,4 Av-9 St,-73.989779,40.670272,1434.0
12:37:00,0,F24,7 Av,-73.980305,40.666271,1509.0
12:37:00,0,F25,15 St-Prospect Park,-73.979493,40.660365,1586.0
12:37:00,0,F26,Fort Hamilton Pkwy,-73.975776,40.650782,1706.0
12:37:00,0,F27,Church Av,-73.979678,40.644041,1754.0
12:37:00,0,F29,Ditmas Av,-73.978172,40.636119,1906.1651389598846
12:37:00,0,F30,18 Av,-73.976971,40.629755,1994.3602497577667
12:37:00,0,F31,Avenue I,-73.976127,40.625322,2054.3602497577667
12:37:00,0,F32,Bay Pkwy,-73.975264,40.620769,2113.6651389598846
12:37:00,0,F33,Avenue N,-73.974197,40.61514,2174.3602497577667
12:37:00,0,F34,Avenue P,-73.973022,40.608944,2237.0943422317505
12:37:00,0,F35,Kings Hwy,-73.972361,40.603217,2300.09434223175
13:28:30,0,F36,Avenue U,-73.973357,40.596063,2368.965138959885
13:28:30,0,F38,Avenue X,-73.97425,40.58962,2433.09434223175
13:28:30,0,F39,Neptune Av,-73.974574,40.581011,2514.465138959885
13:58:30,0,G05,Jamaica Center-Parsons/Archer,-73.801109,40.702147,1347.0
12:08:00,0,G06,Sutphin Blvd-Archer Av-JFK Airport,-73.807969,40.700486,1282.0
12:08:00,0,G07,Jamaica-Van Wyck,-73.816859,40.702566,1177.0
12:03:00,0,G08,Forest Hills-71 Av,-73.844521,40.721691,862.0
12:20:30,0,G09,67 Av,-73.852719,40.726523,936.8999999999999
12:20:30,0,G10,63 Dr-Rego Park,-73.861604,40.729846,870.4
12:20:30,0,G11,Woodhaven Blvd,-73.869229,40.733106,809.1999999999999
12:20:30,0,G12,Grand Av-Newtown,-73.877223,40.737015,734.1999999999999
12:20:30,0,G13,Elmhurst Av,-73.882017,40.742454,670.0
12:03:00,0,G14,Jackson Hts-Roosevelt Av,-73.891338,40.746644,552.0
12:51:00,0,G15,65 St,-73.898453,40.749669,665.0
12:00:30,0,G16,Northern Blvd,-73.906006,40.752885,716.309090909091
12:00:30,0,G18,46 St,-73.913333,40.756312,651.309090909091
12:00:30,0,G19,Steinway St,-73.92074,40.756879,535.3090909090909
12:00:30,0,G20,36 St,-73.928781,40.752039,415.3090909090909
12:00:30,0,G21,Queens Plaza,-73.937243,40.748973,252.0
12:30:30,1,G22,Court Sq,-73.943832,40.746554,232.0
12:20:30,1,G24,21 St,-73.949724,40.744065,292.0
12:20:30,1,G26,Greenpoint Av,-73.954449,40.731352,412.0
12:20:30,1,G28,Nassau Av,-73.951277,40.724635,490.00000000000006
12:20:30,1,G29,Metropolitan Av,-73.951418,40.712792,610.0000000000001
12:20:30,1,G30,Broadway,-73.950308,40.706092,670.0000000000001
12:20:30,1,G31,Flushing Av,-73.950234,40.700377,732.0000000000001
12:20:30,1,G32,Myrtle-Willoughby Avs,-73.949046,40.694568,792.0000000000001
12:20:30,1,G33,Bedford-Nostrand Avs,-73.953522,40.689627,862.0
12:20:30,1,G34,Classon Av,-73.96007,40.688873,922.0
12:20:30,1,G35,Clinton-Washington Avs,-73.966839,40.688089,982.0
12:20:30,1,G36,Fulton St,-73.975375,40.687119,1044.0000000000002
12:34:00,0,H01,Aqueduct Racetrack,-73.834058,40.668234,2345.5326714515686
12:34:00,0,H02,Aqueduct-N Conduit Av,-73.834058,40.668234,2372.9534142017365
12:34:00,0,H03,Howard Beach-JFK Airport,-73.830301,40.660476,2457.5326714515686
12:34:00,0,H04,Broad Channel,-73.815925,40.608382,2862.5326714515686
12:34:00,0,H06,Beach 67 St,-73.796924,40.590927,3105.9534142017365
12:34:00,0,H07,Beach 60 St,-73.788522,40.592374,3170.953414201737
12:34:00,0,H08,Beach 44 St,-73.776013,40.592943,3238.953414201737
12:34:00,0,H09,Beach 36 St,-73.768175,40.595398,3300.9534142017365
12:34:00,0,H10,Beach 25 St,-73.761353,40.600066,3360.9534142017365
12:34:00,0,H11,Far Rockaway-Mott Av,-73.755405,40.603995,3412.553414201737
12:34:00,0,H12,Beach 90 St,-73.813641,40.588034,3095.5326714515686
12:34:00,0,H13,Beach 98 St,-73.820558,40.585307,3155.5326714515686
12:34:00,0,H14,Beach 105 St,-73.827559,40.583209,3215.5326714515686
12:34:00,0,H15,Rockaway Park-Beach 116 St,-73.835592,40.580903,3280.5326714515686
13:58:30,0,J12,121 St,-73.828294,40.700492,1496.8
13:58:30,0,J13,111 St,-73.836345,40.697418,1497.8000000000002
13:58:30,0,J14,104 St,-73.84433,40.695178,1599.8
13:58:30,0,J15,Woodhaven Blvd,-73.851576,40.693879,1689.8
13:58:30,0,J16,85 St-Forest Pkwy,-73.86001,40.692435,1947.9818187236785
13:58:30,0,J17,75 St-Elderts Ln,-73.867139,40.691324,2016.214284181595
13:58:30,0,J19,Cypress Hills,-73.87255,40.689941,1997.4326714515682
13:58:30,0,J20,Crescent St,-73.873785,40.683194,1947.014284181595
13:58:30,0,J21,Norwood Av,-73.880039,40.68141,1910.2142841815948
13:58:30,0,J22,Cleveland St,-73.884639,40.679947,1905.8531725406651
13:19:00,0,J23,Van Siclen Av,-73.891688,40.678024,1809.5326714515686
13:19:00,0,J24,Alabama Av,-73.898654,40.676992,1734.5326714515686
13:19:00,0,J27,Broadway Junction,-73.904512,40.679498,1646.2142841815948
13:19:00,0,J28,Chauncey St,-73.910456,40.682893,1711.2142841815948
13:19:00,0,J29,Halsey St,-73.916559,40.68637,1757.5269072123933
13:19:00,0,J30,Gates Av,-73.92227,40.68963,1694.9269072123934
13:19:00,0,J31,Kosciuszko St,-73.928814,40.693342,1637.5269072123933
12:28:30,1,L01,8 Av,-74.002578,40.739777,543.0
12:11:30,1,L02,6 Av,-73.996786,40.737335,603.0
12:28:30,1,L03,14 St-Union Sq,-73.99073,40.734789,634.0000000000001
12:28:30,1,L05,3 Av,-73.986122,40.732849,660.0000000000001
12:28:30,1,L06,1 Av,-73.981628,40.730953,692.0000000000001
12:20:30,2,L08,Bedford Av,-73.956872,40.717304,878.0000000000001
12:20:30,2,L10,Lorimer St,-73.950275,40.714063,873.2142841815948
12:20:30,2,L11,Graham Av,-73.944053,40.714565,895.2142841815948
12:20:30,2,L12,Grand St,-73.94067,40.711926,964.2142841815948
12:20:30,2,L13,Montrose Av,-73.93985,40.707739,988.2142841815947
12:20:30,2,L14,Morgan Av,-73.933147,40.706152,1028.2142841815948
12:20:30,2,L15,Jefferson St,-73.922913,40.706607,1098.2142841815948
12:20:30,2,L16,DeKalb Av,-73.918425,40.703811,1149.2142841815948
12:20:30,2,L17,Myrtle-Wyckoff Avs,-73.911586,40.699814,1205.2142841815948
12:20:30,2,L19,Halsey St,-73.904084,40.695602,1228.2142841815948
12:20:30,2,L20,Wilson Av,-73.904046,40.688764,1319.2142841815948
12:20:30,2,L21,Bushwick Av-Aberdeen St,-73.905249,40.682829,1390.2142841815948
12:20:30,2,L22,Broadway Junction,-73.90324,40.678856,1421.2142841815948
12:08:00,2,L24,Atlantic Av,-73.903097,40.675345,1486.214284181595
12:08:00,2,L25,Sutter Av,-73.901975,40.669367,1544.2142841815948
12:08:00,2,L26,Livonia Av,-73.900571,40.664038,1579.2142841815948
12:08:00,2,L27,New Lots Av,-73.899232,40.658733,1605.2142841815948
12:08:00,2,L28,East 105 St,-73.899485,40.650573,1664.2142841815948
12:08:00,2,L29,Canarsie-Rockaway Pkwy,-73.90185,40.646654,1724.2142841815948
13:49:00,0,M01,Middle Village-Metropolitan Av,-73.889601,40.711396,1657.2046685218813
13:19:00,0,M04,Fresh Pond Rd,-73.895877,40.706186,1617.204668521881
13:49:00,0,M05,Forest Av,-73.903077,40.704423,1547.204668521881
13:19:00,0,M06,Seneca Av,-73.90774,40.702762,1483.204668521881
13:19:00,0,M08,Myrtle-Wyckoff Avs,-73.912385,40.69943,1430.2142841815948
12:49:00,0,M09,Knickerbocker Av,-73.919711,40.698664,1497.214284181595
13:19:00,0,M10,Central Av,-73.927397,40.697857,1570.2142841815948
12:49:00,0,M11,Myrtle Av,-73.935657,40.697207,1517.6142857142854
12:49:00,0,M12,Flushing Av,-73.941126,40.70026,1406.6142857142854
12:49:00,0,M13,Lorimer St,-73.947408,40.703869,1341.6142857142854
12:49:00,0,M14,Hewes St,-73.953431,40.70687,1279.9142857142856
12:49:00,0,M16,Marcy Av,-73.957757,40.708359,1219.9142857142856
12:49:00,0,M18,Delancey St-Essex St,-73.987437,40.718315,890.7142857142856
12:19:00,0,M19,Bowery,-73.993915,40.72028,1079.931033372879
12:19:00,0,M20,Canal St,-73.999892,40.718092,995.931033372879
12:19:00,0,M21,Chambers St,-74.003401,40.713243,935.9310333728791
13:41:30,2,M22,Fulton St,-74.007582,40.710374,995.931033372879
12:19:00,0,M23,Broad St,-74.011056,40.706476,1058.931033372879
12:07:00,1,N02,8 Av,-74.011719,40.635064,2040.6
12:07:00,1,N03,Fort Hamilton Pkwy,-74.005351,40.631386,2156.0
12:07:00,1,N04,New Utrecht Av,-73.996353,40.624842,2240.9999999999995
12:07:00,1,N05,18 Av,-73.990414,40.620671,2305.0
12:07:00,1,N06,20 Av,-73.985026,40.61741,2365.0
12:07:00,1,N07,Bay Pkwy,-73.981848,40.611815,2426.9999999999995
12:07:00,1,N08,Kings Hwy,-73.980353,40.603923,2501.9999999999995
12:07:00,1,N09,Avenue U,-73.979137,40.597473,2561.9999999999995
12:07:00,1,N10,86 St,-73.97823,40.592721,2627.0
12:19:00,1,Q01,Canal St,-74.00046,40.718383,792.9999999999999
12:17:00,0,Q03,72 St,-73.958424,40.768799,749.8888895511627
12:17:00,0,Q04,86 St,-73.951787,40.777891,860.7888895511627
12:17:00,0,Q05,96 St,-73.947152,40.784318,898.4888895511627
12:00:30,2,R01,Astoria-Ditmars Blvd,-73.912034,40.775036,844.00000166893
12:00:30,2,R03,Astoria Blvd,-73.917843,40.770258,786.0000016689302
12:00:30,2,R04,30 Av,-73.921479,40.766779,724.0000016689302
12:00:30,2,R05,Broadway,-73.925508,40.76182,664.0000016689302
12:00:30,2,R06,36 Av,-73.929575,40.756804,604.0000016689302
12:00:30,2,R08,39 Av-Dutch Kills,-73.932755,40.752882,539.0000016689302
12:00:30,2,R09,Queensboro Plaza,-73.940202,40.750582,424.0000016689301
12:03:00,0,R11,Lexington Av/59 St,-73.967258,40.76266,542.9473676681519
12:03:00,0,R13,5 Av/59 St,-73.973347,40.764811,604.9473676681519
12:49:00,0,R14,57 St-7 Av,-73.980658,40.764664,495.0
12:07:00,1,R15,49 St,-73.984139,40.759901,429.99999999999994
12:07:00,1,R16,Times Sq-42 St,-73.986754,40.754672,369.99999999999994
12:28:30,1,R17,34 St-Herald Sq,-73.98795,40.749567,434.99999999999994
12:11:30,1,R18,28 St,-73.988691,40.745494,495.0
12:11:30,1,R19,23 St,-73.989344,40.741303,550.0
13:37:00,1,R20,14 St-Union Sq,-73.990568,40.735736,559.9999999999999
12:11:30,1,R21,8 St-NYU,-73.992629,40.730328,692.9999999999999
12:11:30,1,R22,Prince St,-73.997702,40.724329,754.0
12:11:30,1,R23,Canal St,-74.001775,40.719527,819.0
12:19:00,1,R24,City Hall,-74.006978,40.713282,939.0
12:19:00,1,R25,Cortlandt St,-74.011029,40.710668,890.0
12:41:30,1,R26,Rector St,-74.013342,40.70722,965.0000000000001
12:41:30,1,R27,Whitehall St-South Ferry,-74.012994,40.703087,1025.0000000000002
13:19:00,0,R28,Court St,-73.991777,40.6941,1205.0000000000002
13:19:00,0,R29,Jay St-MetroTech,-73.985942,40.69218,1312.0000000000002
12:49:00,0,R30,DeKalb Av,-73.981824,40.690635,1258.0
12:11:30,0,R31,Atlantic Av-Barclays Ctr,-73.97881,40.683666,1393.6
12:11:30,0,R32,Union St,-73.98311,40.677316,1486.0
12:11:30,0,R33,4 Av-9 St,-73.988302,40.670847,1546.0
12:11:30,0,R34,Prospect Av,-73.992872,40.665414,1606.0
12:11:30,0,R35,25 St,-73.998091,40.660397,1669.3
12:11:30,0,R36,36 St,-74.003549,40.655144,1695.6
12:11:30,0,R39,45 St,-74.010006,40.648939,1847.1999999999998
12:11:30,0,R40,53 St,-74.014034,40.645069,1909.0
12:07:00,1,R41,59 St,-74.017881,40.641362,1920.6
12:11:30,0,R42,Bay Ridge Av,-74.023377,40.634967,2041.1405402183532
12:11:30,0,R43,77 St,-74.02551,40.629742,2101.140540218353
12:11:30,0,R44,86 St,-74.028398,40.622687,2221.140540218353
12:41:30,0,R45,Bay Ridge-95 St,-74.030876,40.616622,2265.140540218353
12:49:00,0,S01,Franklin Av,-73.955827,40.680596,1618.7894749641416
12:49:00,0,S03,Park Pl,-73.957624,40.674772,1687.0894749641416
12:49:00,0,S04,Botanic Garden,-73.959245,40.670343,1777.0894749641416
